GPSD,W=1,R=1
$GPGSV,2,1,07,10,45,196,10,29,67,310,41,28,59,108,40,26,51,304,44*73
$GPGSV,2,2,07,08,44,058,43,27,16,066,37,21,10,301,00*4A
GPSD,Y=MID4 1119197547.890 7:10 45 196 10 0:29 67 310 41 0:28 59 108 40 0:26 51 304 44 0:8 44 58 43 0:27 16 66 37 0:21 10 301 0 0:
$GPGGA,161227,4629.8923,N,00734.0837,E,1,05,3.20,1327.7,M,48.183,M,,*44
$GPRMC,161227,A,4629.8923,N,00734.0837,E,0.1673,180.000,190605,,*28
$GPGSA,A,3,29,28,26,08,27,,,,,,,,5.6,3.2,1.1*38
GPSD,O=MID2 1119197547.890 0.005 46.498204 7.568061 1327.69 25.60 9.10 180.0000 0.086 -0.091 ? ? ? 3
$GPGGA,161228,4629.8923,N,00734.0837,E,1,05,3.20,1327.7,M,48.183,M,,*4B
$GPRMC,161228,A,4629.8923,N,00734.0837,E,0.1776,10.380,190605,,*10
$GPGSA,A,3,29,28,26,08,27,,,,,,,,5.6,3.2,1.1*38
$PGRME,0.00,M,0.00,M,21.67,M*2C
GPSD,O=MID2 1119197548.890 0.005 46.498204 7.568061 1327.69 25.60 9.10 10.3797 0.091 -0.085 ? 51.20 ? 3
$GPGGA,161229,4629.8923,N,00734.0837,E,1,06,1.40,1327.7,M,48.183,M,,*4D
$GPRMC,161229,A,4629.8923,N,00734.0837,E,0.1673,180.000,190605,,*26
$GPGSA,A,3,10,29,28,26,08,27,,,,,,,5.6,1.4,1.1*3D
$PGRME,0.00,M,0.00,M,21.67,M*2C
GPSD,O=MID2 1119197549.890 0.005 46.498204 7.568061 1327.69 11.20 9.10 180.0000 0.086 -0.091 ? 36.80 ? 3
$GPGGA,161230,4629.8923,N,00734.0837,E,1,06,1.40,1327.7,M,48.183,M,,*45
$GPRMC,161230,A,4629.8923,N,00734.0837,E,0.0000,0.000,190605,,*24
$GPGSA,A,3,10,29,28,26,08,27,,,,,,,5.6,1.4,1.1*3D
$PGRME,0.00,M,0.00,M,21.67,M*2C
GPSD,O=MID2 1119197550.890 0.005 46.498204 7.568061 1327.69 11.20 9.10 0.0000 0.000 0.000 ? 22.40 ? 3
$GPGGA,161231,4629.8919,N,00734.0837,E,1,06,1.40,1327.0,M,48.183,M,,*4A
$GPRMC,161231,A,4629.8919,N,00734.0837,E,0.1673,180.000,190605,,*26
$GPGSA,A,3,10,29,28,26,08,27,,,,,,,5.6,1.4,1.1*3D
$PGRME,0.00,M,0.00,M,21.67,M*2C
GPSD,O=MID2 1119197551.890 0.005 46.498198 7.568061 1326.96 11.20 9.10 180.0000 0.086 -0.091 173.2106 22.40 ? 3
$GPGSV,2,1,07,10,45,196,34,29,67,310,39,28,59,108,43,26,51,304,42*7F
$GPGSV,2,2,07,08,44,058,42,27,16,066,38,21,10,301,00*44
GPSD,Y=MID4 1119197552.890 7:10 45 196 34 1:29 67 310 39 1:28 59 108 43 1:26 51 304 42 1:8 44 58 42 1:27 16 66 38 1:21 10 301 0 0:
$GPGGA,161232,4629.8919,N,00734.0837,E,1,06,1.40,1327.0,M,48.183,M,,*49
$GPRMC,161232,A,4629.8919,N,00734.0837,E,0.0000,0.000,190605,,*2F
$GPGSA,A,3,10,29,28,26,08,27,,,,,,,3.0,1.4,1.1*3D
GPSD,O=MID2 1119197552.890 0.005 46.498198 7.568061 1326.96 11.20 8.62 0.0000 0.000 0.000 ? ? ? 3
$GPGGA,161233,4629.8919,N,00734.0837,E,1,06,1.40,1327.0,M,48.183,M,,*48
$GPRMC,161233,A,4629.8919,N,00734.0837,E,0.0000,0.000,190605,,*2E
$GPGSA,A,3,10,29,28,26,08,27,,,,,,,3.0,1.4,1.1*3D
$PGRME,0.00,M,0.00,M,11.39,M*24
GPSD,O=MID2 1119197553.890 0.005 46.498198 7.568061 1326.96 11.20 8.62 0.0000 0.000 0.000 ? 22.40 ? 3
$GPGGA,161234,4629.8919,N,00734.0837,E,1,06,1.40,1327.0,M,48.183,M,,*4F
$GPRMC,161234,A,4629.8919,N,00734.0837,E,0.0000,0.000,190605,,*29
$GPGSA,A,3,10,29,28,26,08,27,,,,,,,3.0,1.4,1.1*3D
$PGRME,0.00,M,0.00,M,11.39,M*24
GPSD,O=MID2 1119197554.890 0.005 46.498198 7.568061 1326.96 11.20 8.62 0.0000 0.000 0.000 ? 22.40 ? 3
$GPGGA,161235,4629.8918,N,00734.0845,E,1,06,1.40,1327.1,M,48.183,M,,*4B
$GPRMC,161235,A,4629.8918,N,00734.0845,E,0.0000,0.000,190605,,*2C
$GPGSA,A,3,10,29,28,26,08,27,,,,,,,3.0,1.4,1.1*3D
$PGRME,0.00,M,0.00,M,11.39,M*24
GPSD,O=MID2 1119197555.890 0.005 46.498197 7.568074 1327.05 11.20 8.62 0.0000 0.000 0.000 169.8883 22.40 ? 3
$GPGGA,161236,4629.8918,N,00734.0845,E,1,06,1.40,1327.1,M,48.183,M,,*48
$GPRMC,161236,A,4629.8918,N,00734.0845,E,0.0000,0.000,190605,,*2F
$GPGSA,A,3,10,29,28,26,08,27,,,,,,,3.0,1.4,1.1*3D
$PGRME,0.00,M,0.00,M,11.39,M*24
GPSD,O=MID2 1119197556.890 0.005 46.498197 7.568074 1327.05 11.20 8.62 0.0000 0.000 0.000 ? 22.40 ? 3
$GPGSV,2,1,07,10,45,196,35,29,67,310,40,28,59,108,43,26,51,304,41*73
$GPGSV,2,2,07,08,44,058,41,27,16,066,39,21,10,301,00*46
GPSD,Y=MID4 1119197557.890 7:10 45 196 35 1:29 67 310 40 1:28 59 108 43 1:26 51 304 41 1:8 44 58 41 1:27 16 66 39 1:21 10 301 0 0:
$GPGGA,161237,4629.8918,N,00734.0845,E,1,06,1.40,1327.1,M,48.183,M,,*49
$GPRMC,161237,A,4629.8918,N,00734.0845,E,0.0000,0.000,190605,,*2E
$GPGSA,A,3,10,29,28,26,08,27,,,,,,,3.0,1.4,1.1*3D
GPSD,O=MID2 1119197557.890 0.005 46.498197 7.568074 1327.05 11.20 8.62 0.0000 0.000 0.000 ? ? ? 3
$GPGGA,161238,4629.8918,N,00734.0845,E,1,06,1.40,1327.1,M,48.183,M,,*46
$GPRMC,161238,A,4629.8918,N,00734.0845,E,0.0000,0.000,190605,,*21
$GPGSA,A,3,10,29,28,26,08,27,,,,,,,3.0,1.4,1.1*3D
$PGRME,0.00,M,0.00,M,11.39,M*24
GPSD,O=MID2 1119197558.890 0.005 46.498197 7.568074 1327.05 11.20 8.62 0.0000 0.000 0.000 ? 22.40 ? 3
$GPGGA,161239,4629.8922,N,00734.0845,E,1,06,1.40,1327.8,M,48.183,M,,*47
$GPRMC,161239,A,4629.8922,N,00734.0845,E,0.0000,0.000,190605,,*29
$GPGSA,A,3,10,29,28,26,08,27,,,,,,,3.0,1.4,1.1*3D
$PGRME,0.00,M,0.00,M,11.39,M*24
GPSD,O=MID2 1119197559.890 0.005 46.498204 7.568074 1327.78 11.20 8.62 0.0000 0.000 0.000 172.8735 22.40 ? 3
$GPGGA,161240,4629.8922,N,00734.0845,E,1,06,1.40,1327.8,M,48.183,M,,*49
$GPRMC,161240,A,4629.8922,N,00734.0845,E,0.0000,0.000,190605,,*27
$GPGSA,A,3,10,29,28,26,08,27,,,,,,,3.0,1.4,1.1*3D
$PGRME,0.00,M,0.00,M,11.39,M*24
GPSD,O=MID2 1119197560.890 0.005 46.498204 7.568074 1327.78 11.20 8.62 0.0000 0.000 0.000 ? 22.40 ? 3
$GPGGA,161241,4629.8922,N,00734.0845,E,1,06,1.40,1327.8,M,48.183,M,,*48
$GPRMC,161241,A,4629.8922,N,00734.0845,E,0.0000,0.000,190605,,*26
$GPGSA,A,3,10,29,28,26,08,27,,,,,,,3.0,1.4,1.1*3D
$PGRME,0.00,M,0.00,M,11.39,M*24
GPSD,O=MID2 1119197561.890 0.005 46.498204 7.568074 1327.78 11.20 8.62 0.0000 0.000 0.000 ? 22.40 ? 3
$GPGSV,2,1,07,10,45,196,34,29,67,310,40,28,59,108,42,26,51,304,43*71
$GPGSV,2,2,07,08,44,058,41,27,16,066,39,21,10,301,00*46
GPSD,Y=MID4 1119197562.890 7:10 45 196 34 1:29 67 310 40 1:28 59 108 42 1:26 51 304 43 1:8 44 58 41 1:27 16 66 39 1:21 10 301 0 0:
$GPGGA,161242,4629.8925,N,00734.0852,E,1,06,1.40,1328.6,M,48.183,M,,*4B
$GPRMC,161242,A,4629.8925,N,00734.0852,E,0.0000,0.000,190605,,*24
$GPGSA,A,3,10,29,28,26,08,27,,,,,,,3.0,1.4,1.1*3D
GPSD,O=MID2 1119197562.890 0.005 46.498209 7.568087 1328.60 11.20 8.62 0.0000 0.000 0.000 ? ? ? 3
$GPGGA,161243,4629.8925,N,00734.0852,E,1,06,1.40,1328.6,M,48.183,M,,*4A
$GPRMC,161243,A,4629.8925,N,00734.0852,E,0.1776,190.380,190605,,*21
$GPGSA,A,3,10,29,28,26,08,27,,,,,,,3.0,1.4,1.1*3D
$PGRME,0.00,M,0.00,M,11.39,M*24
GPSD,O=MID2 1119197563.890 0.005 46.498209 7.568087 1328.60 11.20 8.62 190.3797 0.091 0.085 178.6268 22.40 ? 3
$GPGGA,161244,4629.8929,N,00734.0852,E,1,06,1.40,1329.3,M,48.183,M,,*45
$GPRMC,161244,A,4629.8929,N,00734.0852,E,0.1673,0.000,190605,,*2D
$GPGSA,A,3,10,29,28,26,08,27,,,,,,,3.0,1.4,1.1*3D
$PGRME,0.00,M,0.00,M,11.39,M*24
GPSD,O=MID2 1119197564.890 0.005 46.498215 7.568087 1329.32 11.20 8.62 0.0000 0.086 0.091 172.7431 22.40 ? 3
$GPGGA,161245,4629.8933,N,00734.0853,E,1,06,1.40,1328.6,M,48.183,M,,*4A
$GPRMC,161245,A,4629.8933,N,00734.0853,E,0.1673,0.000,190605,,*26
$GPGSA,A,3,10,29,28,26,08,27,,,,,,,3.0,1.4,1.1*3D
$PGRME,0.00,M,0.00,M,11.39,M*24
GPSD,O=MID2 1119197565.890 0.005 46.498222 7.568089 1328.64 11.20 8.62 0.0000 0.086 0.091 172.3653 22.40 ? 3
$GPGGA,161246,4629.8933,N,00734.0853,E,1,06,1.40,1328.6,M,48.183,M,,*49
$GPRMC,161246,A,4629.8933,N,00734.0853,E,0.2420,95.505,190605,,*1E
$GPGSA,A,3,10,29,28,26,08,27,,,,,,,3.0,1.4,1.1*3D
$PGRME,0.00,M,0.00,M,11.39,M*24
GPSD,O=MID2 1119197566.890 0.005 46.498222 7.568089 1328.64 11.20 8.62 95.5047 0.124 0.011 ? 22.40 ? 3
$GPGSV,2,1,07,10,45,196,42,29,67,312,46,28,59,108,44,26,51,304,42*73
$GPGSV,2,2,07,08,44,058,45,27,16,066,39,21,10,301,00*42
GPSD,Y=MID4 1119197567.890 7:10 45 196 42 1:29 67 312 46 1:28 59 108 44 1:26 51 304 42 1:8 44 58 45 1:27 16 66 39 1:21 10 301 0 0:
$GPGGA,161247,4629.8933,N,00734.0853,E,1,06,1.40,1328.6,M,48.183,M,,*48
$GPRMC,161247,A,4629.8933,N,00734.0853,E,0.1776,190.380,190605,,*23
$GPGSA,A,3,10,29,28,26,08,27,,,,,,,3.0,1.4,1.1*3D
GPSD,O=MID2 1119197567.890 0.005 46.498222 7.568089 1328.64 11.20 8.60 190.3797 0.091 0.085 ? ? ? 3
$GPGGA,161248,4629.8929,N,00734.0852,E,1,06,1.40,1329.3,M,48.183,M,,*49
$GPRMC,161248,A,4629.8929,N,00734.0852,E,0.1776,190.380,190605,,*26
$GPGSA,A,3,10,29,28,26,08,27,,,,,,,3.0,1.4,1.1*3D
$PGRME,0.00,M,0.00,M,11.37,M*2A
GPSD,O=MID2 1119197568.890 0.005 46.498215 7.568087 1329.32 11.20 8.60 190.3797 0.091 0.085 172.3653 22.40 ? 3
$GPGGA,161249,4629.8929,N,00734.0852,E,1,06,1.40,1329.3,M,48.183,M,,*48
$GPRMC,161249,A,4629.8929,N,00734.0852,E,0.1776,190.380,190605,,*27
$GPGSA,A,3,10,29,28,26,08,27,,,,,,,3.0,1.4,1.1*3D
$PGRME,0.00,M,0.00,M,11.37,M*2A
GPSD,O=MID2 1119197569.890 0.005 46.498215 7.568087 1329.32 11.20 8.60 190.3797 0.091 0.085 ? 22.40 ? 3
$GPGGA,161250,4629.8933,N,00734.0852,E,1,06,1.40,1330.0,M,48.183,M,,*40
$GPRMC,161250,A,4629.8933,N,00734.0852,E,0.1776,190.380,190605,,*24
$GPGSA,A,3,10,29,28,26,08,27,,,,,,,3.0,1.4,1.1*3D
$PGRME,0.00,M,0.00,M,11.37,M*2A
GPSD,O=MID2 1119197570.890 0.005 46.498221 7.568087 1330.05 11.20 8.60 190.3797 0.091 0.085 172.8735 22.40 ? 3
$GPGGA,161251,4629.8929,N,00734.0851,E,1,06,1.40,1330.7,M,48.183,M,,*4E
$GPRMC,161251,A,4629.8929,N,00734.0851,E,0.1776,190.380,190605,,*2D
$GPGSA,A,3,10,29,28,26,08,27,,,,,,,3.0,1.4,1.1*3D
$PGRME,0.00,M,0.00,M,11.37,M*2A
GPSD,O=MID2 1119197571.890 0.005 46.498215 7.568086 1330.73 11.20 8.60 190.3797 0.091 0.085 172.6787 22.40 ? 3
$GPGSV,2,1,07,10,45,196,44,29,67,312,45,28,59,108,45,26,51,304,45*70
$GPGSV,2,2,07,08,44,058,46,27,16,066,37,21,10,301,00*4F
GPSD,Y=MID4 1119197572.890 7:10 45 196 44 1:29 67 312 45 1:28 59 108 45 1:26 51 304 45 1:8 44 58 46 1:27 16 66 37 1:21 10 301 0 0:
$GPGGA,161252,4629.8929,N,00734.0851,E,1,06,1.40,1330.7,M,48.183,M,,*4D
$GPRMC,161252,A,4629.8929,N,00734.0851,E,0.2420,275.505,190605,,*2E
$GPGSA,A,3,10,29,28,26,08,27,,,,,,,3.0,1.4,1.1*3D
GPSD,O=MID2 1119197572.890 0.005 46.498215 7.568086 1330.73 11.20 8.60 275.5047 0.124 -0.011 ? ? ? 3
$GPGGA,161253,4629.8929,N,00734.0844,E,1,06,1.40,1330.6,M,48.183,M,,*49
$GPRMC,161253,A,4629.8929,N,00734.0844,E,1.4953,310.306,190605,,*22
$GPGSA,A,3,10,29,28,26,08,27,,,,,,,3.0,1.4,1.1*3D
$PGRME,0.00,M,0.00,M,11.37,M*2A
GPSD,O=MID2 1119197573.890 0.005 46.498216 7.568073 1330.64 11.20 8.60 310.3062 0.769 0.045 169.7964 22.40 ? 3
$GPGGA,161254,4629.8934,N,00734.0836,E,1,06,1.40,1331.3,M,48.183,M,,*43
$GPRMC,161254,A,4629.8934,N,00734.0836,E,2.2921,306.984,190605,,*2B
$GPGSA,A,3,10,29,28,26,08,27,,,,,,,3.0,1.4,1.1*3D
$PGRME,0.00,M,0.00,M,11.37,M*2A
GPSD,O=MID2 1119197574.890 0.005 46.498223 7.568060 1331.27 11.20 8.60 306.9839 1.179 0.016 167.2803 22.40 ? 3
