GPSD,W=1,R=1
$GPGSV,2,1,08,23,07,084,00,28,07,160,00,08,65,189,44,29,13,273,00*76
$GPGSV,2,2,08,10,50,304,37,04,16,199,36,02,34,241,43,27,71,076,43*71
GPSD,Y=MID4 1118327657.280000 8:23 7 84 0 0:28 7 160 0 0:8 65 189 44 0:29 13 273 0 0:10 50 304 37 0:4 16 199 36 0:2 34 241 43 0:27 71 76 43 0:
$GPGGA,143417,4629.8901,N,00734.0471,E,3,05,2.40,1349.5,M,48.183,M,,*40
$GPRMC,143417,A,4629.8901,N,00734.0471,E,0.0914,10.379,090605,,*18
$GPGSA,A,3,23,28,08,29,10,,,,,,,,0.0,2.4,0.0*3D
$PGRME,19.20,0.00,0.00*45
GPSD,O=MID2 1118327657.28 0.005 46.498168 7.567452 1349.51 19.20        ?  10.3789    0.091          ?             ?        ?        ?
$GPGGA,143418,4629.8905,N,00734.0473,E,3,05,2.40,1347.4,M,48.183,M,,*46
$GPRMC,143418,A,4629.8905,N,00734.0473,E,0.0914,10.379,090605,,*11
$GPGSA,A,3,23,28,08,29,10,,,,,,,,0.0,2.4,0.0*3D
$PGRME,19.20,0.00,0.00*45
GPSD,O=MID2 1118327658.28 0.005 46.498174 7.567456 1347.42 19.20        ?  10.3789    0.091          ?             ? 38.40        ?
$GPGGA,143419,4629.8908,N,00734.0474,E,3,05,2.40,1346.7,M,48.183,M,,*4F
$GPRMC,143419,A,4629.8908,N,00734.0474,E,0.0000,0.000,090605,,*2A
$GPGSA,A,3,23,28,08,29,10,,,,,,,,0.0,2.4,0.0*3D
$PGRME,19.20,0.00,0.00*45
GPSD,O=MID2 1118327659.28 0.005 46.498181 7.567457 1346.73 19.20        ?   0.0000    0.000          ?             ? 38.40        ?
$GPGGA,143420,4629.8912,N,00734.0475,E,3,05,2.40,1346.1,M,48.183,M,,*49
$GPRMC,143420,A,4629.8912,N,00734.0475,E,0.0914,10.379,090605,,*1A
$GPGSA,A,3,23,28,08,29,10,,,,,,,,0.0,2.4,0.0*3D
$PGRME,19.20,0.00,0.00*45
GPSD,O=MID2 1118327660.28 0.005 46.498187 7.567459 1346.05 19.20        ?  10.3789    0.091          ?             ? 38.40        ?
$GPGGA,143421,4629.8909,N,00734.0475,E,3,05,2.40,1345.3,M,48.183,M,,*43
$GPRMC,143421,A,4629.8909,N,00734.0475,E,0.0914,10.379,090605,,*11
$GPGSA,A,3,23,28,08,29,10,,,,,,,,0.0,2.4,0.0*3D
$PGRME,19.20,0.00,0.00*45
GPSD,O=MID2 1118327661.28 0.005 46.498181 7.567459 1345.33 19.20        ?  10.3789    0.091          ?             ? 38.40        ?
$GPGSV,2,1,08,23,06,084,00,28,07,160,00,08,65,189,45,29,13,273,00*76
$GPGSV,2,2,08,10,50,304,37,04,16,199,33,02,34,241,41,27,71,076,41*74
GPSD,Y=MID4 1118327662.280000 8:23 6 84 0 0:28 7 160 0 0:8 65 189 45 1:29 13 273 0 0:10 50 304 37 1:4 16 199 33 1:2 34 241 41 1:27 71 76 41 1:
$GPGGA,143422,4629.8913,N,00734.0476,E,3,05,2.40,1344.6,M,48.183,M,,*4C
$GPRMC,143422,A,4629.8913,N,00734.0476,E,0.0860,180.000,090605,,*2D
$GPGSA,A,3,23,28,08,29,10,,,,,,,,0.0,2.4,0.0*3D
$PGRME,19.20,0.00,0.00*45
GPSD,O=MID2 1118327662.28 0.005 46.498188 7.567461 1344.64 19.20        ? 180.0000    0.086          ?             ? 38.40        ?
$GPGGA,143423,4629.8916,N,00734.0478,E,3,05,2.40,1344.0,M,48.183,M,,*40
$GPRMC,143423,A,4629.8916,N,00734.0478,E,0.0914,10.379,090605,,*10
$GPGSA,A,3,23,28,08,29,10,,,,,,,,0.0,2.4,0.0*3D
$PGRME,19.20,0.00,0.00*45
GPSD,O=MID2 1118327663.28 0.005 46.498194 7.567463 1343.96 19.20        ?  10.3789    0.091          ?             ? 38.40        ?
$GPGGA,143424,4629.8916,N,00734.0478,E,3,05,2.40,1344.0,M,48.183,M,,*47
$GPRMC,143424,A,4629.8916,N,00734.0478,E,0.0000,0.000,090605,,*27
$GPGSA,A,3,23,28,08,29,10,,,,,,,,0.0,2.4,0.0*3D
$PGRME,19.20,0.00,0.00*45
GPSD,O=MID2 1118327664.28 0.005 46.498194 7.567463 1343.96 19.20        ?   0.0000    0.000          ?             ? 38.40        ?
$GPGGA,143425,4629.8917,N,00734.0470,E,3,05,2.40,1343.9,M,48.183,M,,*41
$GPRMC,143425,A,4629.8917,N,00734.0470,E,0.0000,0.000,090605,,*2F
$GPGSA,A,3,23,28,08,29,10,,,,,,,,0.0,2.4,0.0*3D
$PGRME,19.20,0.00,0.00*45
GPSD,O=MID2 1118327665.28 0.005 46.498195 7.567450 1343.87 19.20        ?   0.0000    0.000          ?             ? 38.40        ?
$GPGGA,143426,4629.8921,N,00734.0471,E,3,05,2.40,1343.2,M,48.183,M,,*4D
$GPRMC,143426,A,4629.8921,N,00734.0471,E,0.0914,10.379,090605,,*18
$GPGSA,A,3,23,28,08,29,10,,,,,,,,0.0,2.4,0.0*3D
$PGRME,19.20,0.00,0.00*45
GPSD,O=MID2 1118327666.28 0.005 46.498201 7.567451 1343.19 19.20        ?  10.3788    0.091          ?             ? 38.40        ?
$GPGSV,2,1,08,23,06,084,00,28,07,160,00,08,65,189,45,29,13,273,00*76
$GPGSV,2,2,08,10,50,304,36,04,16,199,36,02,34,241,42,27,71,076,42*70
GPSD,Y=MID4 1118327667.280000 8:23 6 84 0 0:28 7 160 0 0:8 65 189 45 1:29 13 273 0 0:10 50 304 36 1:4 16 199 36 1:2 34 241 42 1:27 71 76 42 1:
$GPGGA,143427,4629.8921,N,00734.0471,E,3,05,2.40,1343.2,M,48.183,M,,*4C
$GPRMC,143427,A,4629.8921,N,00734.0471,E,0.0914,10.379,090605,,*19
$GPGSA,A,3,23,28,08,29,10,,,,,,,,0.0,2.4,0.0*3D
$PGRME,19.20,0.00,0.00*45
GPSD,O=MID2 1118327667.28 0.005 46.498201 7.567451 1343.19 19.20        ?  10.3788    0.091          ?             ? 38.40        ?
