# Name: Garmin 48
# Description: a handheld from about 2000.
# Cycle-time: 2 seconds
# Start-of-cycle: GPRMC
# Pause-noted: ?
# Well-behaved: N
#
# Note that the GPGLL timestamp has a 1-second offset
# from the GPRMC and GPGGA timestamps. Appears to take 2 fixes
# per cycle, GLL can include a fix update!
#
# Submitted-by: Hamish <hamish_nospam@yahoo.com>
# Date: 11 Mar 2005
$GPRMC,225308,A,4527.458,S,16709.165,E,000.0,094.5,060601,024.1,E*6D
$GPRMB,A,,,,,,,,,,,,V*71
$GPGGA,225308,4527.458,S,16709.165,E,1,05,2.1,14.7,M,1.1,M,,*53
$GPGSA,A,3,01,,,,13,20,22,,,,28,,3.1,2.1,2.0*3A
$GPGSV,3,1,11,01,78,221,47,03,09,042,00,04,05,242,00,06,04,149,00*70
$GPGSV,3,2,11,13,37,235,48,20,41,333,46,22,65,081,46,24,02,205,00*7B
$GPGSV,3,3,11,25,20,108,00,27,08,281,00,28,17,339,39,,,,*4C
$PGRME,9.1,M,15.0,M,12.0,M*21
$GPGLL,4527.458,S,16709.165,E,225309,A*3E
$PGRMZ,48,f,3*27
$PGRMM,WGS 84*06
$GPBOD,,T,,M,,*47
$GPRTE,1,1,c,0*07
$GPRMC,225310,A,4527.458,S,16709.165,E,000.0,094.5,060601,024.1,E*64
$GPRMB,A,,,,,,,,,,,,V*71
$GPGGA,225310,4527.458,S,16709.165,E,1,05,2.1,14.6,M,1.1,M,,*5B
$GPGSA,A,3,01,,,,13,20,22,,,,28,,3.1,2.1,2.0*3A
$GPGSV,3,1,11,01,78,221,47,03,09,042,00,04,05,242,00,06,04,149,00*70
$GPGSV,3,2,11,13,37,235,48,20,41,333,46,22,65,081,46,24,02,205,00*7B
$GPGSV,3,3,11,25,20,108,00,27,08,281,00,28,17,339,39,,,,*4C
$PGRME,9.1,M,15.0,M,12.0,M*21
$GPGLL,4527.458,S,16709.165,E,225311,A*37
$PGRMZ,48,f,3*27
$PGRMM,WGS 84*06
$GPBOD,,T,,M,,*47
$GPRTE,1,1,c,0*07
$GPRMC,225312,A,4527.458,S,16709.165,E,000.0,094.5,060601,024.1,E*66
$GPRMB,A,,,,,,,,,,,,V*71
$GPGGA,225312,4527.458,S,16709.165,E,1,05,2.2,14.7,M,1.1,M,,*5B
$GPGSA,A,3,01,,,,13,20,22,,,,28,,3.2,2.2,2.1*3B
$GPGSV,3,1,11,01,78,221,47,03,09,042,00,04,05,242,00,06,04,149,00*70
$GPGSV,3,2,11,13,37,235,49,20,41,333,46,22,65,081,46,24,02,205,00*7A
$GPGSV,3,3,11,25,20,108,00,27,08,281,00,28,17,339,39,,,,*4C
$PGRME,9.2,M,15.0,M,12.6,M*24
$GPGLL,4527.458,S,16709.165,E,225313,A*35
$PGRMZ,48,f,3*27
$PGRMM,WGS 84*06
$GPBOD,,T,,M,,*47
$GPRTE,1,1,c,0*07
$GPRMC,225314,A,4527.458,S,16709.165,E,000.0,094.5,060601,024.1,E*60
$GPRMB,A,,,,,,,,,,,,V*71
$GPGGA,225314,4527.458,S,16709.165,E,1,05,2.2,14.6,M,1.1,M,,*5C
$GPGSA,A,3,01,,,,13,20,22,,,,28,,3.2,2.2,2.1*3B
$GPGSV,3,1,11,01,78,221,47,03,09,042,00,04,05,242,00,06,04,149,00*70
$GPGSV,3,2,11,13,37,235,49,20,41,333,46,22,65,081,46,24,02,205,00*7A
$GPGSV,3,3,11,25,20,108,00,27,08,281,00,28,17,339,39,,,,*4C
$PGRME,9.2,M,15.0,M,12.6,M*24
$GPGLL,4527.458,S,16709.165,E,225315,A*33
$PGRMZ,48,f,3*27
$PGRMM,WGS 84*06
$GPBOD,,T,,M,,*47
$GPRTE,1,1,c,0*07
$GPRMC,225316,A,4527.458,S,16709.165,E,000.0,094.5,060601,024.1,E*62
$GPRMB,A,,,,,,,,,,,,V*71
$GPGGA,225316,4527.458,S,16709.165,E,1,05,2.2,14.4,M,1.1,M,,*5C
$GPGSA,A,3,01,,,,13,20,22,,,,28,,3.2,2.2,2.1*3B
$GPGSV,3,1,11,01,78,221,47,03,09,042,00,04,05,242,00,06,04,149,00*70
$GPGSV,3,2,11,13,37,235,49,20,40,333,46,22,65,081,46,24,02,205,00*7B
$GPGSV,3,3,11,25,20,108,00,27,08,281,00,28,17,339,39,,,,*4C
$PGRME,9.2,M,15.0,M,12.6,M*24
$GPGLL,4527.458,S,16709.165,E,225317,A*31
$PGRMZ,46,f,3*29
$PGRMM,WGS 84*06
$GPBOD,,T,,M,,*47
$GPRTE,1,1,c,0*07
$GPRMC,225318,A,4527.458,S,16709.165,E,000.0,094.5,060601,024.1,E*6C
$GPRMB,A,,,,,,,,,,,,V*71
$GPGGA,225318,4527.458,S,16709.165,E,1,05,2.2,14.0,M,1.1,M,,*56
$GPGSA,A,3,01,,,,13,20,22,,,,28,,3.2,2.2,2.1*3B
$GPGSV,3,1,11,01,78,221,47,03,09,042,00,04,05,242,00,06,04,149,00*7
$GPGSV,3,1,11,01,78,221,47,03,09,042,00,04,05,242,00,06,04,149,00*70
$GPGSV,3,2,11,13,37,235,49,20,40,333,46,22,65,083,46,24,02,205,00*79
$GPGSV,3,3,11,25,20,108,00,27,08,281,00,28,17,339,40,,,,*42
$PGRME,10.3,M,15.2,M,16.7,M*1A
$GPGLL,4527.458,S,16709.165,E,225333,A*37
$PGRMZ,41,f,3*2E
$PGRMM,WGS 84*06
$GPBOD,,T,,M,,*47
$GPRTE,1,1,c,0*07
$GPRMC,225334,A,4527.458,S,16709.165,E,000.0,094.5,060601,024.1,E*62
$GPRMB,A,,,,,,,,,,,,V*71
$GPGGA,225334,4527.458,S,16709.165,E,1,05,2.4,12.5,M,1.1,M,,*5D
$GPGSA,A,3,01,,,,13,20,22,,,,28,,4.1,2.4,3.0*39
$GPGSV,3,1,11,01,78,221,47,03,09,042,00,04,05,242,00,06,04,149,00*70
$GPGSV,3,2,11,13,37,235,49,20,40,333,46,22,65,083,46,24,02,205,00*79
$GPGSV,3,3,11,25,20,108,00,27,08,281,00,28,17,339,41,,,,*43
$PGRME,10.3,M,15.2,M,16.7,M*1A
$GPGLL,4527.458,S,16709.165,E,225335,A*31
$PGRMZ,41,f,3*2E
$PGRMM,WGS 84*06
$GPBOD,,T,,M,,*47
$GPRTE,1,1,c,0*07
$GPRMC,225336,A,4527.458,S,16709.165,E,000.0,094.5,060601,024.1,E*60
$GPRMB,A,,,,,,,,,,,,V*71
$GPGGA,225336,4527.458,S,16709.165,E,1,05,2.4,12.6,M,1.1,M,,*5C
$GPGSA,A,3,01,,,,13,20,22,,,,28,,4.1,2.4,3.0*39
$GPGSV,3,1,11,01,78,221,47,03,09,042,00,04,05,242,00,06,04,149,00*70
$GPGSV,3,2,11,13,37,235,49,20,40,333,46,22,65,083,46,24,02,205,00*79
$GPGSV,3,3,11,25,20,108,00,27,08,281,00,28,17,339,41,,,,*43
$PGRME,10.3,M,15.2,M,16.7,M*1A
$GPGLL,4527.458,S,16709.165,E,225337,A*33
$PGRMZ,42,f,3*2D
$PGRMM,WGS 84*06
$GPBOD,,T,,M,,*47
$GPRTE,1,1,c,0*07
$GPRMC,225338,A,4527.458,S,16709.165,E,000.0,094.5,060601,024.1,E*6E
$GPRMB,A,,,,,,,,,,,,V*71
$GPGGA,225338,4527.458,S,16709.165,E,1,05,2.4,13.0,M,1.1,M,,*55
$GPGSA,A,3,01,,,,13,20,22,,,,28,,4.1,2.4,3.0*39
$GPGSV,3,1,11,01,78,221,46,03,09,042,00,04,05,242,00,06,04,149,00*71
$GPGSV,3,2,11,13,37,235,49,20,40,333,47,22,65,083,46,24,02,205,00*78
$GPGSV,3,3,11,25,19,107,00,27,08,281,00,28,17,339,42,,,,*45
$PGRME,10.3,M,15.2,M,16.7,M*1A
$GPGLL,4527.458,S,16709.164,E,225339,A*3C
$PGRMZ,43,f,3*2C
$PGRMM,WGS 84*06
$GPBOD,,T,,M,,*47
$GPRTE,1,1,c,0*07
$GPRMC,225340,A,4527.458,S,16709.164,E,000.0,094.5,060601,024.1,E*60
$GPRMB,A,,,,,,,,,,,,V*71
$GPGGA,225340,4527.458,S,16709.164,E,1,05,2.4,13.2,M,1.1,M,,*59
$GPGSA,A,3,01,,,,13,20,22,,,,28,,4.1,2.4,3.0*39
$GPGSV,3,1,11,01,78,221,46,03,09,042,00,04,05,242,00,06,04,149,00*71
$GPGSV,3,2,11,13,37,235,48,20,40,333,47,22,65,083,46,24,02,205,00*79
$GPGSV,3,3,11,25,19,107,00,27,08,281,00,28,17,339,42,,,,*45
$PGRME,10.3,M,15.2,M,16.7,M*1A
$GPGLL,4527.458,S,16709.164,E,225341,A*33
$PGRMZ,44,f,3*2B
$PGRMM,WGS 84*06
$GPBOD,,T,,M,,*47
$GPRTE,1,1,c,0*07
$GPRMC,225342,A,4527.458,S,16709.164,E,000.0,094.5,060601,024.1,E*62
$GPRMB,A,,,,,,,,,,,,V*71
$GPGGA,225342,4527.458,S,16709.164,E,1,05,2.4,13.8,M,1.1,M,,*51
$GPGSA,A,3,01,,,,13,20,22,,,,28,,4.1,2.4,3.0*39
$GPGSV,3,1,11,01,78,221,46,03,09,042,00,04,05,242,00,06,04,149,00*71
$GPGSV,3,2,11,13,37,235,48,20,40,333,47,22,65,083,46,24,02,205,00*79
$GPGSV,3,3,11,25,19,107,00,27,08,281,00,28,17,339,43,,,,*44
$PGRME,10.3,M,15.2,M,16.7,M*1A
$GPGLL,4527.458,S,16709.164,E,225343,A*31
$PGRMZ,47,f,3*28
$PGRMM,WGS 84*06
$GPBOD,,T,,M,,*47
$GPRTE,1,1,c,0*07
$GPRMC,225344,A,4527.458,S,16709.164,E,000.0,094.5,060601,024.1,E*64
$GPRMB,A,,,,,,,,,,,,V*71
$GPGGA,225344,4527.458,S,16709.164,E,1,05,2.4,14.5,M,1.1,M,,*5D
$GPGSA,A,3,01,,,,13,20,22,,,,28,,4.1,2.4,3.1*38
$GPGSV,3,1,11,01,78,221,46,03,09,042,00,04,05,242,00,06,04,149,00*71
$GPGSV,3,2,11,13,37,235,48,20,40,333,47,22,65,083,46,24,02,205,00*79
$GPGSV,3,3,11,25,19,107,00,27,08,281,00,28,17,339,43,,,,*44
$PGRME,10.3,M,15.2,M,16.9,M*14
$GPGLL,4527.458,S,16709.164,E,225345,A*37
$PGRMZ,49,f,3*26
$PGRMM,WGS 84*06
$GPBOD,,T,,M,,*47
$GPRTE,1,1,c,0*07
$GPRMC,225346,A,4527.458,S,16709.164,E,000.0,094.5,060601,024.1,E*66
$GPRMB,A,,,,,,,,,,,,V*71
$GPGGA,225346,4527.458,S,16709.164,E,1,05,2.4,15.0,M,1.1,M,,*5B
$GPGSA,A,3,01,,,,13,20,22,,,,28,,4.1,2.4,3.1*38
$GPGSV,3,1,11,01,78,221,46,03,09,042,00,04,05,242,00,06,04,149,00*71
$GPGSV,3,2,11,13,37,235,48,20,40,333,47,22,65,083,46,24,02,205,00*79
$GPGSV,3,3,11,25,19,107,00,27,08,281,00,28,17,339,43,,,,*44
$PGRME,10.3,M,15.2,M,16.9,M*14
$GPGLL,4527.458,S,16709.164,E,225347,A*35
$PGRMZ,50,f,3*2E
$PGRMM,WGS 84*06
$GPBOD,,T,,M,,*47
$GPRTE,1,1,c,0*07
$GPRMC,225348,A,4527.458,S,16709.163,E,000.0,094.5,060601,024.1,E*6F
$GPRMB,A,,,,,,,,,,,,V*71
$GPGGA,225348,4527.458,S,16709.163,E,1,05,2.4,15.3,M,1.1,M,,*51
$GPGSA,A,3,01,,,,13,20,22,,,,28,,4.1,2.4,3.1*38
$GPGSV,3,1,11,01,78,221,46,03,09,042,00,04,05,242,00,06,04,149,00*71
$GPGSV,3,2,11,13,37,235,48,20,40,333,47,22,65,083,46,24,02,205,00*79
$GPGSV,3,3,11,25,19,107,00,27,08,281,00,28,17,339,43,,,,*44
$PGRME,10.3,M,15.2,M,16.9,M*14
$GPGLL,4527.458,S,16709.163,E,225349,A*3C
$PGRMZ,50,f,3*2E
$PGRMM,WGS 84*06
$GPBOD,,T,,M,,*47
$GPRTE,1,1,c,0*07
$GPRMC,225350,A,4527.458,S,16709.163,E,000.0,094.5,060601,024.1,E*66
$GPRMB,A,,,,,,,,,,,,V*71
$GPGGA,225350,4527.458,S,16709.163,E,1,05,2.4,15.4,M,1.1,M,,*5F
$GPGSA,A,3,01,,,,13,20,22,,,,28,,4.1,2.4,3.1*38
$GPGSV,3,1,11,01,78,221,46,03,09,042,00,04,05,242,00,06,04,149,00*71
$GPGSV,3,2,11,13,37,235,47,20,40,333,48,22,65,083,46,24,02,205,00*79
$GPGSV,3,3,11,25,19,107,00,27,08,281,00,28,18,339,43,,,,*4B
$PGRME,10.3,M,15.2,M,16.9,M*14
$GPGLL,4527.458,S,16709.163,E,225351,A*35
$PGRMZ,51,f,3*2F
$PGRMM,WGS 84*06
$GPBOD,,T,,M,,*47
$GPRTE,1,1,c,0*07
$GPRMC,225352,A,4527.458,S,16709.163,E,000.0,094.5,060601,024.1,E*64
$GPRMB,A,,,,,,,,,,,,V*71
$GPGGA,225352,4527.458,S,16709.163,E,1,05,2.4,15.6,M,1.1,M,,*5F
$GPGSA,A,3,01,,,,13,20,22,,,,28,,4.1,2.4,3.1*38
$GPGSV,3,1,11,01,78,221,46,03,09,042,00,04,05,242,00,06,04,149,00*71
$GPGSV,3,2,11,13,37,235,47,20,40,333,47,22,65,083,46,24,02,205,00*76
$GPGSV,3,3,11,25,19,107,00,27,08,281,00,28,18,339,43,,,,*4B
$PGRME,10.3,M,15.2,M,16.9,M*14
$GPGLL,4527.458,S,16709.163,E,225353,A*37
$PGRMZ,52,f,3*2C
$PGRMM,WGS 84*06
$GPBOD,,T,,M,,*47
$GPRTE,1,1,c,0*07
$GPRMC,225354,A,4527.458,S,16709.163,E,000.0,094.5,060601,024.1,E*62
$GPRMB,A,,,,,,,,,,,,V*71
$GPGGA,225354,4527.458,S,16709.163,E,1,05,2.4,15.9,M,1.1,M,,*56
$GPGSA,A,3,01,,,,13,20,22,,,,28,,4.1,2.4,3.1*38
$GPGSV,3,1,11,01,78,221,47,03,09,042,00,04,05,242,00,06,04,149,00*70
$GPGSV,3,2,11,13,37,235,47,20,40,333,47,22,65,083,46,24,02,205,00*76
$GPGSV,3,3,11,25,19,107,00,27,08,281,00,28,18,339,43,,,,*4B
$PGRME,10.4,M,15.2,M,17.0,M*1B
$GPGLL,4527.458,S,16709.163,E,225355,A*31
$PGRMZ,52,f,3*2C
$PGRMM,WGS 84*06
$GPBOD,,T,,M,,*47
$GPRTE,1,1,c,0*07
$GPRMC,225356,A,4527.458,S,16709.163,E,000.0,094.5,060601,024.1,E*60
$GPRMB,A,,,,,,,,,,,,V*71
$GPGGA,225356,4527.458,S,16709.163,E,1,05,2.4,15.9,M,1.1,M,,*54
$GPGSA,A,3,01,,,,13,20,22,,,,28,,4.1,2.4,3.1*38
$GPGSV,3,1,11,01,78,221,46,03,09,042,00,04,05,242,00,06,04,149,00*71
$GPGSV,3,2,11,13,37,235,47,20,40,333,47,22,65,083,46,24,02,205,00*76
$GPGSV,3,3,11,25,19,107,00,27,08,281,00,28,18,339,43,,,,*4B
$PGRME,10.4,M,15.2,M,17.0,M*1B
$GPGLL,4527.458,S,16709.163,E,225357,A*33
$PGRMZ,53,f,3*2D
$PGRMM,WGS 84*06
$GPBOD,,T,,M,,*47
$GPRTE,1,1,c,0*07
$GPRMC,225358,A,4527.458,S,16709.163,E,000.0,094.5,060601,024.1,E*6E
$GPRMB,A,,,,,,,,,,,,V*71
$GPGGA,225358,4527.458,S,16709.163,E,1,05,2.4,16.3,M,1.1,M,,*53
$GPGSA,A,3,01,,,,13,20,22,,,,28,,4.1,2.4,3.1*38
$GPGSV,3,1,11,01,78,221,46,03,09,042,00,04,05,242,00,06,04,149,00*71
$GPGSV,3,2,11,13,37,235,47,20,40,333,47,22,65,083,45,24,02,205,00*75
$GPGSV,3,3,11,25,19,107,00,27,08,281,00,28,18,339,43,,,,*4B
$PGRME,10.4,M,15.2,M,17.0,M*1B
$GPGLL,4527.458,S,16709.163,E,225359,A*3D
$PGRMZ,54,f,3*2A
$PGRMM,WGS 84*06
$GPBOD,,T,,M,,*47
$GPRTE,1,1,c,0*07
$GPRMC,225400,A,4527.458,S,16709.163,E,000.0,094.5,060601,024.1,E*64
$GPRMB,A,,,,,,,,,,,,V*71
$GPGGA,225400,4527.458,S,16709.163,E,1,05,2.4,16.6,M,1.1,M,,*5C
$GPGSA,A,3,01,,,,13,20,22,,,,28,,4.1,2.4,3.1*38
$GPGSV,3,1,11,01,78,221,46,03,09,042,00,04,05,242,00,06,04,149,00*71
$GPGSV,3,2,11,13,37,235,46,20,40,333,48,22,65,083,45,24,02,205,00*7B
$GPGSV,3,3,11,25,19,107,00,27,08,281,00,28,18,339,43,,,,*4B
$PGRME,10.4,M,15.2,M,17.0,M*1B
$GPGLL,4527.458,S,16709.163,E,225401,A*37
$PGRMZ,54,f,3*2A
$PGRMM,WGS 84*06
$GPBOD,,T,,M,,*47
$GPRTE,1,1,c,0*07
$GPRMC,225402,A,4527.458,S,16709.163,E,000.0,094.5,060601,024.1,E*66
$GPRMB,A,,,,,,,,,,,,V*71
$GPGGA,225402,4527.458,S,16709.163,E,1,05,2.4,16.6,M,1.1,M,,*5E
$GPGSA,A,3,01,,,,13,20,22,,,,28,,4.1,2.4,3.1*38
$GPGSV,3,1,11,01,78,221,46,03,09,042,00,04,05,242,00,06,04,149,00*71
$GPGSV,3,2,11,13,37,235,46,20,40,333,48,22,65,083,45,24,02,205,00*7B
$GPGSV,3,3,11,25,19,107,00,27,08,281,00,28,18,339,43,,,,*4B
$PGRME,10.4,M,15.2,M,17.0,M*1B
$GPGLL,4527.458,S,16709.163,E,225403,A*35
$PGRMZ,55,f,3*2B
$PGRMM,WGS 84*06
$GPBOD,,T,,M,,*47
$GPRTE,1,1,c,0*07
$GPRMC,225404,A,4527.458,S,16709.162,E,000.0,094.5,060601,024.1,E*61
$GPRMB,A,,,,,,,,,,,,V*71
$GPGGA,225404,4527.458,S,16709.162,E,1,05,2.4,17.0,M,1.1,M,,*5E
$GPGSA,A,3,01,,,,13,20,22,,,,28,,4.2,2.4,3.2*38
$GPGSV,3,1,11,01,78,221,46,03,09,042,00,04,05,242,00,06,04,149,00*71
$GPGSV,3,2,11,13,37,235,45,20,40,333,48,22,65,083,45,24,02,205,00*78
$GPGSV,3,3,11,25,19,107,00,27,08,281,00,28,18,339,42,,,,*4A
$PGRME,10.4,M,15.2,M,17.0,M*1B
$GPGLL,4527.458,S,16709.162,E,225405,A*32
$PGRMZ,56,f,3*28
$PGRMM,WGS 84*06
$GPBOD,,T,,M,,*47
$GPRTE,1,1,c,0*07
$GPRMC,225406,A,4527.459,S,16709.162,E,000.0,094.5,060601,024.1,E*62
$GPRMB,A,,,,,,,,,,,,V*71
$GPGGA,225406,4527.459,S,16709.162,E,1,05,2.4,16.8,M,1.1,M,,*54
$GPGSA,A,3,01,,,,13,20,22,,,,28,,4.2,2.4,3.2*38
$GPGSV,3,1,11,01,78,221,46,03,09,042,00,04,05,242,00,06,04,149,00*71
$GPGSV,3,2,11,13,37,235,45,20,40,333,48,22,65,083,45,24,02,205,00*78
$GPGSV,3,3,11,25,19,107,00,27,08,281,00,28,18,339,42,,,,*4A
$PGRME,10.4,M,15.2,M,17.2,M*19
$GPGLL,4527.459,S,16709.163,E,225407,A*30
$PGRMZ,54,f,3*2A
$PGRMM,WGS 84*06
$GPBOD,,T,,M,,*47
$GPRTE,1,1,c,0*07
$GPRMC,225408,A,4527.459,S,16709.163,E,000.0,094.5,060601,024.1,E*6D
$GPRMB,A,,,,,,,,,,,,V*71
$GPGGA,225408,4527.459,S,16709.163,E,1,05,2.4,16.3,M,1.1,M,,*50
$GPGSA,A,3,01,,,,13,20,22,,,,28,,4.2,2.4,3.2*38
$GPGSV,3,1,11,01,78,221,47,03,09,042,00,04,05,242,00,06,04,149,00*70
$GPGSV,3,2,11,13,37,235,46,20,40,333,48,22,65,083,45,24,02,205,00*7B
$GPGSV,3,3,11,25,19,107,00,27,08,281,00,28,18,339,41,,,,*49
$PGRME,10.4,M,15.2,M,17.2,M*19
$GPGLL,4527.459,S,16709.163,E,225409,A*3E
$PGRMZ,52,f,3*2C
$PGRMM,WGS 84*06
$GPBOD,,T,,M,,*47
$GPRTE,1,1,c,0*07
$GPRMC,225410,A,4527.459,S,16709.163,E,000.0,094.5,060601,024.1,E*64
$GPRMB,A,,,,,,,,,,,,V*71
$GPGGA,225410,4527.459,S,16709.163,E,1,05,2.4,15.6,M,1.1,M,,*5F
$GPGSA,A,3,01,,,,13,20,22,,,,28,,4.2,2.4,3.2*38
$GPGSV,3,1,11,01,78,221,47,03,09,042,00,04,05,242,00,06,04,149,00*70
$GPGSV,3,2,11,13,37,235,45,20,40,333,48,22,65,083,45,24,02,205,00*78
$GPGSV,3,3,11,25,19,107,00,27,08,281,00,28,18,339,41,,,,*49
$PGRME,10.4,M,15.2,M,17.2,M*19
$GPGLL,4527.459,S,16709.163,E,225411,A*37
$PGRMZ,51,f,3*2F
$PGRMM,WGS 84*06
$GPBOD,,T,,M,,*47
$GPRTE,1,1,c,0*07
$GPRMC,225412,A,4527.459,S,16709.163,E,000.0,094.5,060601,024.1,E*66
$GPRMB,A,,,,,,,,,,,,V*71
$GPGGA,225412,4527.459,S,16709.163,E,1,05,2.4,15.4,M,1.1,M,,*5F
$GPGSA,A,3,01,,,,13,20,22,,,,28,,4.2,2.4,3.2*38
$GPGSV,3,1,11,01,79,220,46,03,09,042,00,04,05,242,00,06,04,149,00*71
$GPGSV,3,2,11,13,37,235,45,20,40,333,48,22,65,083,46,24,02,205,00*7B
$GPGSV,3,3,11,25,19,107,00,27,08,281,00,28,18,339,42,,,,*4A
$PGRME,10.4,M,15.2,M,17.2,M*19
$GPGLL,4527.459,S,16709.163,E,225413,A*35
$PGRMZ,51,f,3*2F
$PGRMM,WGS 84*06
$GPBOD,,T,,M,,*47
$GPRTE,1,1,c,0*07
$GPRMC,225414,A,4527.459,S,16709.163,E,000.0,094.5,060601,024.1,E*60
$GPRMB,A,,,,,,,,,,,,V*71
$GPGGA,225414,4527.459,S,16709.163,E,1,05,2.4,15.7,M,1.1,M,,*5A
$GPGSA,A,3,01,,,,13,20,22,,,,28,,4.2,2.4,3.2*38
$GPGSV,3,1,11,01,79,220,46,03,09,042,00,04,05,242,00,06,04,149,00*71
$GPGSV,3,2,11,13,37,235,45,20,40,333,48,22,65,083,46,24,02,205,00*7B
$GPGSV,3,3,11,25,19,107,00,27,08,281,00,28,18,339,42,,,,*4A
$PGRME,10.4,M,15.2,M,17.2,M*19
$GPGLL,4527.459,S,16709.162,E,225415,A*32
$PGRMZ,52,f,3*2C
$PGRMM,WGS 84*06
$GPBOD,,T,,M,,*47
$GPRTE,1,1,c,0*07
$GPRMC,225416,A,4527.459,S,16709.162,E,000.0,094.5,060601,024.1,E*63
$GPRMB,A,,,,,,,,,,,,V*71
$GPGGA,225416,4527.459,S,16709.162,E,1,05,2.4,15.9,M,1.1,M,,*57
$GPGSA,A,3,01,,,,13,20,22,,,,28,,4.2,2.4,3.2*38
$GPGSV,3,1,11,01,79,220,46,03,09,042,00,04,05,242,00,06,04,149,00*71
$GPGSV,3,2,11,13,37,235,45,20,40,333,48,22,65,083,46,24,02,205,00*7B
$GPGSV,3,3,11,25,19,107,00,27,08,281,00,28,18,339,42,,,,*4A
$PGRME,10.4,M,15.2,M,17.3,M*18
$GPGLL,4527.459,S,16709.162,E,225417,A*30
$PGRMZ,52,f,3*2C
$PGRMM,WGS 84*06
$GPBOD,,T,,M,,*47
$GPRTE,1,1,c,0*07
$GPRMC,225418,A,4527.459,S,16709.162,E,000.0,094.5,060601,024.1,E*6D
$GPRMB,A,,,,,,,,,,,,V*71
$GPGGA,225418,4527.459,S,16709.162,E,1,05,2.4,15.9,M,1.1,M,,*59
$GPGSA,A,3,01,,,,13,20,22,,,,28,,4.2,2.4,3.2*38
$GPGSV,3,1,11,01,79,220,46,03,09,042,00,04,05,242,00,06,04,149,00*71
$GPGSV,3,2,11,13,37,235,45,20,40,333,48,22,65,083,46,24,02,205,00*7B
$GPGSV,3,3,11,25,19,107,00,27,08,281,00,28,18,339,42,,,,*4A
$PGRME,10.4,M,15.2,M,17.3,M*18
$GPGLL,4527.459,S,16709.162,E,225419,A*3E
$PGRMZ,52,f,3*2C
$PGRMM,WGS 84*06
$GPBOD,,T,,M,,*47
$GPRTE,1,1,c,0*07
$GPRMC,225420,A,4527.459,S,16709.162,E,000.0,094.5,060601,024.1,E*66
$GPRMB,A,,,,,,,,,,,,V*71
$GPGGA,225420,4527.459,S,16709.162,E,1,05,2.4,15.8,M,1.1,M,,*53
$GPGSA,A,3,01,,,,13,20,22,,,,28,,4.2,2.4,3.2*38
$GPGSV,3,1,11,01,79,220,47,03,10,043,00,04,05,242,00,06,04,149,00*79
$GPGSV,3,2,11,13,37,235,46,20,40,333,47,22,65,083,46,24,02,205,00*77
$GPGSV,3,3,11,25,19,107,00,27,08,281,00,28,18,339,42,,,,*4A
$PGRME,10.4,M,15.2,M,17.3,M*18
$GPGLL,4527.459,S,16709.162,E,225421,A*35
$PGRMZ,51,f,3*2F
$PGRMM,WGS 84*06
$GPBOD,,T,,M,,*47
$GPRTE,1,1,c,0*07
$GPRMC,225422,A,4527.459,S,16709.162,E,000.0,094.5,060601,024.1,E*64
$GPRMB,A,,,,,,,,,,,,V*71
$GPGGA,225422,4527.459,S,16709.162,E,1,05,2.4,15.4,M,1.1,M,,*5D
$GPGSA,A,3,01,,,,13,20,22,,,,28,,4.2,2.4,3.2*38
$GPGSV,3,1,11,01,79,220,47,03,10,043,00,04,05,242,00,06,04,149,00*79
$GPGSV,3,2,11,13,37,235,46,20,40,333,48,22,65,083,46,24,02,205,00*78
$GPGSV,3,3,11,25,19,107,00,27,08,281,00,28,18,339,42,,,,*4A
$PGRME,10.4,M,15.2,M,17.3,M*18
$GPGLL,4527.459,S,16709.162,E,225423,A*37
$PGRMZ,50,f,3*2E
$PGRMM,WGS 84*06
$GPBOD,,T,,M,,*47
$GPRTE,1,1,c,0*07
$GPRMC,225424,A,4527.459,S,16709.161,E,000.0,094.5,060601,024.1,E*61
$GPRMB,A,,,,,,,,,,,,V*71
$GPGGA,225424,4527.459,S,16709.161,E,1,05,2.4,15.2,M,1.1,M,,*5E
$GPGSA,A,3,01,,,,13,20,22,,,,28,,4.2,2.4,3.3*39
$GPGSV,3,1,11,01,79,220,47,03,10,043,00,04,05,243,00,06,04,149,00*78
$GPGSV,3,2,11,13,37,235,46,20,40,333,47,22,65,083,46,24,02,205,00*77
$GPGSV,3,3,11,25,19,107,00,27,08,281,00,28,18,339,42,,,,*4A
$PGRME,10.4,M,15.2,M,17.3,M*18
$GPGLL,4527.459,S,16709.161,E,225425,A*32
$PGRMZ,49,f,3*26
$PGRMM,WGS 84*06
$GPBOD,,T,,M,,*47
$GPRTE,1,1,c,0*07
$GPRMC,225426,A,4527.459,S,16709.161,E,000.0,094.5,060601,024.1,E*63
$GPRMB,A,,,,,,,,,,,,V*71
$GPGGA,225426,4527.459,S,16709.161,E,1,05,2.4,14.9,M,1.1,M,,*56
$GPGSA,A,3,01,,,,13,20,22,,,,28,,4.2,2.4,3.3*39
$GPGSV,3,1,11,01,79,220,47,03,10,043,00,04,05,243,00,06,04,149,00*78
$GPGSV,3,2,11,13,37,235,46,20,40,333,47,22,65,083,46,24,02,205,00*77
$GPGSV,3,3,11,25,19,107,00,27,08,281,00,28,18,339,42,,,,*4A
$PGRME,10.4,M,15.2,M,17.4,M*1F
$GPGLL,4527.459,S,16709.161,E,225427,A*30
$PGRMZ,49,f,3*26
$PGRMM,WGS 84*06
$GPBOD,,T,,M,,*47
$GPRTE,1,1,c,0*07
$GPRMC,225428,A,4527.459,S,16709.160,E,000.0,094.5,060601,024.1,E*6C
$GPRMB,A,,,,,,,,,,,,V*71
$GPGGA,225428,4527.459,S,16709.160,E,1,05,2.4,14.7,M,1.1,M,,*57
$GPGSA,A,3,01,,,,13,20,22,,,,28,,4.2,2.4,3.3*39
$GPGSV,3,1,11,01,79,220,47,03,10,043,00,04,05,243,00,06,04,149,00*78
$GPGSV,3,2,11,13,37,235,46,20,40,333,47,22,65,083,45,24,02,205,00*74
$GPGSV,3,3,11,25,19,107,00,27,08,281,00,28,18,339,42,,,,*4A
$PGRME,10.4,M,15.2,M,17.4,M*1F
$GPGLL,4527.460,S,16709.160,E,225429,A*35
$PGRMZ,48,f,3*27
$PGRMM,WGS 84*06
$GPBOD,,T,,M,,*47
$GPRTE,1,1,c,0*07
$GPRMC,225430,A,4527.460,S,16709.160,E,000.0,094.5,060601,024.1,E*6F
$GPRMB,A,,,,,,,,,,,,V*71
$GPGGA,225430,4527.460,S,16709.159,E,1,05,2.4,14.5,M,1.1,M,,*5C
$GPGSA,A,3,01,,,,13,20,22,,,,28,,4.2,2.4,3.3*39
$GPGSV,3,1,11,01,79,220,46,03,10,043,00,04,05,243,00,06,04,149,00*79
$GPGSV,3,2,11,13,37,235,46,20,40,333,47,22,65,083,45,24,02,205,00*74
$GPGSV,3,3,11,25,19,107,00,27,08,281,00,28,18,339,42,,,,*4A
$PGRME,10.4,M,15.2,M,17.4,M*1F
$GPGLL,4527.460,S,16709.159,E,225431,A*36
$PGRMZ,48,f,3*27
$PGRMM,WGS 84*06
$GPBOD,,T,,M,,*47
$GPRTE,1,1,c,0*07
$GPRMC,225432,A,4527.460,S,16709.159,E,000.0,094.5,060601,024.1,E*67
$GPRMB,A,,,,,,,,,,,,V*71
$GPGGA,225432,4527.460,S,16709.159,E,1,05,2.4,14.5,M,1.1,M,,*5E
$GPGSA,A,3,01,,,,13,20,22,,,,28,,4.2,2.4,3.3*39
$GPGSV,3,1,11,01,79,220,47,03,10,043,00,04,05,243,00,06,04,149,00*78
$GPGSV,3,2,11,13,37,235,46,20,40,333,47,22,65,083,45,24,02,205,00*74
$GPGSV,3,3,11,25,19,107,00,27,08,281,00,28,18,339,43,,,,*4B
$PGRME,10.4,M,15.2,M,17.4,M*1F
$GPGLL,4527.460,S,16709.158,E,225433,A*35
$PGRMZ,47,f,3*28
$PGRMM,WGS 84*06
$GPBOD,,T,,M,,*47
$GPRTE,1,1,c,0*07
$GPRMC,225434,A,4527.460,S,16709.158,E,000.0,094.5,060601,024.1,E*60
$GPRMB,A,,,,,,,,,,,,V*71
$GPGGA,225434,4527.460,S,16709.158,E,1,05,2.4,14.5,M,1.1,M,,*59
$GPGSA,A,3,01,,,,13,20,22,,,,28,,4.2,2.4,3.3*39
$GPGSV,3,1,11,01,79,220,47,03,10,043,00,04,05,243,00,06,04,150,00*70
$GPGSV,3,2,11,13,37,235,46,20,40,333,47,22,65,083,45,24,02,205,00*74
$GPGSV,3,3,11,25,19,107,00,27,08,281,00,28,18,339,43,,,,*4B
$PGRME,10.4,M,15.2,M,17.4,M*1F
$GPGLL,4527.460,S,16709.157,E,225435,A*3C
$PGRMZ,47,f,3*28
$PGRMM,WGS 84*06
$GPBOD,,T,,M,,*47
$GPRTE,1,1,c,0*07
$GPRMC,225436,A,4527.460,S,16709.157,E,000.0,094.5,060601,024.1,E*6D
$GPRMB,A,,,,,,,,,,,,V*71
$GPGGA,225436,4527.460,S,16709.157,E,1,05,2.4,14.4,M,1.1,M,,*55
$GPGSA,A,3,01,,,,13,20,22,,,,28,,4.2,2.4,3.3*39
$GPGSV,3,1,11,01,79,220,47,03,10,043,00,04,05,243,00,06,04,150,00*70
$GPGSV,3,2,11,13,37,235,47,20,40,333,47,22,65,083,45,24,02,205,00*75
$GPGSV,3,3,11,25,19,107,00,27,08,281,00,28,18,339,43,,,,*4B
$PGRME,10.4,M,15.2,M,17.4,M*1F
$GPGLL,4527.460,S,16709.156,E,225437,A*3F
$PGRMZ,47,f,3*28
$PGRMM,WGS 84*06
$GPBOD,,T,,M,,*47
$GPRTE,1,1,c,0*07
$GPRMC,225438,A,4527.460,S,16709.155,E,000.0,094.5,060601,024.1,E*61
$GPRMB,A,,,,,,,,,,,,V*71
$GPGGA,225438,4527.460,S,16709.155,E,1,05,2.4,14.4,M,1.1,M,,*59
$GPGSA,A,3,01,,,,13,20,22,,,,28,,4.2,2.4,3.3*39
$GPGSV,3,1,11,01,79,220,47,03,10,043,00,04,05,243,00,06,04,150,00*70
$GPGSV,3,2,11,13,37,235,47,20,40,333,47,22,65,083,45,24,02,205,00*75
$GPGSV,3,3,11,25,19,107,00,27,08,281,00,28,18,339,43,,,,*4B
$PGRME,10.4,M,15.3,M,17.6,M*1C
$GPGLL,4527.460,S,16709.155,E,225439,A*32
$PGRMZ,48,f,3*27
$PGRMM,WGS 84*06
$GPBOD,,T,,M,,*47
$GPRTE,1,1,c,0*07
$GPRMC,225440,A,4527.460,S,16709.154,E,000.9,094.5,060601,024.1,E*66
$GPRMB,A,,,,,,,,,,,,V*71
$GPGGA,225440,4527.460,S,16709.154,E,1,05,2.4,14.5,M,1.1,M,,*56
$GPGSA,A,3,01,,,,13,20,22,,,,28,,4.2,2.4,3.3*39
$GPGSV,3,1,11,01,79,220,47,03,10,043,00,04,05,243,00,06,04,150,00*70
$GPGSV,3,2,11,13,37,235,47,20,40,333,47,22,65,083,45,24,02,205,00*75
$GPGSV,3,3,11,25,19,107,00,27,08,281,00,28,18,339,43,,,,*4B
$PGRME,10.4,M,15.3,M,17.6,M*1C
$GPGLL,4527.460,S,16709.154,E,225441,A*3C
$PGRMZ,47,f,3*28
$PGRMM,WGS 84*06
$GPBOD,,T,,M,,*47
$GPRTE,1,1,c,0*07
$GPRMC,225442,A,4527.461,S,16709.153,E,001.0,094.5,060601,024.1,E*6A
$GPRMB,A,,,,,,,,,,,,V*71
$GPGGA,225442,4527.461,S,16709.153,E,1,05,2.4,14.4,M,1.1,M,,*53
$GPGSA,A,3,01,,,,13,20,22,,,,28,,4.2,2.4,3.3*39
$GPGSV,3,1,11,01,79,220,47,03,10,043,00,04,05,243,00,06,04,150,00*70
$GPGSV,3,2,11,13,37,235,47,20,40,333,47,22,65,083,45,24,02,205,00*75
$GPGSV,3,3,11,25,19,107,00,27,08,281,00,28,18,339,43,,,,*4B
$PGRME,10.4,M,15.3,M,17.6,M*1C
$GPGLL,4527.461,S,16709.153,E,225443,A*38
$PGRMZ,47,f,3*28
$PGRMM,WGS 84*06
$GPBOD,,T,,M,,*47
$GPRTE,1,1,c,0*07
$GPRMC,225444,A,4527.461,S,16709.152,E,001.1,094.5,060601,024.1,E*6C
$GPRMB,A,,,,,,,,,,,,V*71
$GPGGA,225444,4527.461,S,16709.152,E,1,05,2.4,14.4,M,1.1,M,,*54
$GPGSA,A,3,01,,,,13,20,22,,,,28,,4.2,2.4,3.4*3E
$GPGSV,3,1,11,01,79,220,47,03,10,043,00,04,05,243,00,06,04,150,00*70
$GPGSV,3,2,11,13,37,235,47,20,40,333,46,22,65,083,45,24,02,205,00*74
$GPGSV,3,3,11,25,19,107,00,27,08,281,00,28,18,339,43,,,,*4B
$PGRME,10.4,M,15.3,M,17.6,M*1C
$GPGLL,4527.461,S,16709.151,E,225445,A*3C
$PGRMZ,47,f,3*28
$PGRMM,WGS 84*06
$GPBOD,,T,,M,,*47
$GPRTE,1,1,c,0*07
$GPRMC,225446,A,4527.461,S,16709.151,E,001.2,094.5,060601,024.1,E*6E
$GPRMB,A,,,,,,,,,,,,V*71
$GPGGA,225446,4527.461,S,16709.151,E,1,05,2.4,14.3,M,1.1,M,,*52
$GPGSA,A,3,01,,,,13,20,22,,,,28,,4.2,2.4,3.4*3E
$GPGSV,3,1,11,01,79,220,47,03,10,043,00,04,05,243,00,06,04,150,00*70
$GPGSV,3,2,11,13,37,235,47,20,40,333,46,22,65,083,45,24,02,205,00*74
$GPGSV,3,3,11,25,19,107,00,27,08,281,00,28,18,339,43,,,,*4B
$PGRME,10.4,M,15.3,M,17.6,M*1C
$GPGLL,4527.461,S,16709.150,E,225447,A*3F
$PGRMZ,47,f,3*28
$PGRMM,WGS 84*06
$GPBOD,,T,,M,,*47
$GPRTE,1,1,c,0*07
$GPRMC,225448,A,4527.461,S,16709.149,E,001.2,094.5,060601,024.1,E*69
$GPRMB,A,,,,,,,,,,,,V*71
$GPGGA,225448,4527.461,S,16709.149,E,1,05,2.4,14.2,M,1.1,M,,*54
$GPGSA,A,3,01,,,,13,20,22,,,,28,,4.2,2.4,3.4*3E
$GPGSV,3,1,11,01,79,220,47,03,10,043,00,04,05,243,00,06,04,150,00*70
$GPGSV,3,2,11,13,37,235,47,20,40,333,46,22,65,083,45,24,02,205,00*74
$GPGSV,3,3,11,25,19,107,00,27,08,281,00,28,18,339,43,,,,*4B
$PGRME,10.4,M,15.3,M,17.7,M*1D
$GPGLL,4527.461,S,16709.149,E,225449,A*39
$PGRMZ,46,f,3*29
$PGRMM,WGS 84*06
$GPBOD,,T,,M,,*47
$GPRTE,1,1,c,0*07
$GPRMC,225450,A,4527.461,S,16709.148,E,001.3,094.5,060601,024.1,E*60
$GPRMB,A,,,,,,,,,,,,V*71
$GPGGA,225450,4527.461,S,16709.148,E,1,05,2.4,14.1,M,1.1,M,,*5F
$GPGSA,A,3,01,,,,13,20,22,,,,28,,4.2,2.4,3.4*3E
$GPGSV,3,1,11,01,79,220,47,03,10,043,00,04,05,243,00,06,04,150,00*70
$GPGSV,3,2,11,13,37,235,47,20,40,333,47,22,65,083,45,24,02,205,00*75
$GPGSV,3,3,11,25,19,107,00,27,08,281,00,28,18,339,43,,,,*4B
$PGRME,10.4,M,15.3,M,17.7,M*1D
$GPGLL,4527.461,S,16709.148,E,225451,A*31
$PGRMZ,46,f,3*29
$PGRMM,WGS 84*06
$GPBOD,,T,,M,,*47
$GPRTE,1,1,c,0*07
$GPRMC,225452,A,4527.461,S,16709.147,E,001.3,259.4,060601,024.1,E*6F
$GPRMB,A,,,,,,,,,,,,V*71
$GPGGA,225452,4527.461,S,16709.147,E,1,05,2.4,14.2,M,1.1,M,,*51
$GPGSA,A,3,01,,,,13,20,22,,,,28,,4.2,2.4,3.4*3E
$GPGSV,3,1,11,01,79,220,47,03,10,043,00,04,05,243,00,06,04,150,00*70
$GPGSV,3,2,11,13,37,235,47,20,40,333,46,22,65,083,45,24,02,205,00*74
$GPGSV,3,3,11,25,19,107,00,27,08,281,00,28,18,339,43,,,,*4B
$PGRME,10.4,M,15.3,M,17.7,M*1D
$GPGLL,4527.461,S,16709.146,E,225453,A*3D
$PGRMZ,46,f,3*29
$PGRMM,WGS 84*06
$GPBOD,,T,,M,,*47
$GPRTE,1,1,c,0*07
$GPRMC,225454,A,4527.461,S,16709.146,E,001.4,259.7,060601,024.1,E*6C
$GPRMB,A,,,,,,,,,,,,V*71
$GPGGA,225454,4527.461,S,16709.146,E,1,05,2.4,14.1,M,1.1,M,,*55
$GPGSA,A,3,01,,,,13,20,22,,,,28,,4.3,2.4,3.4*3F
$GPGSV,3,1,11,01,79,220,47,03,10,043,00,04,05,243,00,06,04,150,00*70
$GPGSV,3,2,11,13,37,235,47,20,40,333,46,22,65,083,45,24,02,205,00*74
$GPGSV,3,3,11,25,19,107,00,27,08,281,00,28,18,339,43,,,,*4B
$PGRME,10.4,M,15.3,M,17.7,M*1D
$GPGLL,4527.462,S,16709.145,E,225455,A*3B
$PGRMZ,46,f,3*29
$PGRMM,WGS 84*06
$GPBOD,,T,,M,,*47
$GPRTE,1,1,c,0*07
$GPRMC,225456,A,4527.462,S,16709.145,E,001.4,259.9,060601,024.1,E*60
$GPRMB,A,,,,,,,,,,,,V*71
$GPGGA,225456,4527.462,S,16709.144,E,1,05,2.4,14.1,M,1.1,M,,*56
$GPGSA,A,3,01,,,,13,20,22,,,,28,,4.3,2.4,3.4*3F
$GPGSV,3,1,11,01,79,220,47,03,10,043,00,04,05,243,00,06,04,150,00*70
$GPGSV,3,2,11,13,37,235,47,20,40,333,46,22,65,083,45,24,02,205,00*74
$GPGSV,3,3,11,25,19,107,00,27,08,281,00,28,18,339,43,,,,*4B
$PGRME,10.4,M,15.3,M,17.7,M*1D
$GPGLL,4527.462,S,16709.144,E,225457,A*38
$PGRMZ,46,f,3*29
$PGRMM,WGS 84*06
$GPBOD,,T,,M,,*47
$GPRTE,1,1,c,0*07
$GPRMC,225458,A,4527.462,S,16709.143,E,001.4,260.0,060601,024.1,E*6B
$GPRMB,A,,,,,,,,,,,,V*71
$GPGGA,225458,4527.462,S,16709.143,E,1,05,2.4,14.2,M,1.1,M,,*5C
$GPGSA,A,3,01,,,,13,20,22,,,,28,,4.3,2.4,3.4*3F
$GPGSV,3,1,11,01,79,220,47,03,10,043,00,04,05,243,00,06,04,150,00*70
$GPGSV,3,2,11,13,37,235,47,20,40,333,46,22,65,083,45,24,02,205,00*74
$GPGSV,3,3,11,25,19,107,00,27,08,281,00,28,18,339,43,,,,*4B
$PGRME,10.4,M,15.3,M,17.7,M*1D
$GPGLL,4527.462,S,16709.143,E,225459,A*31
$PGRMZ,47,f,3*28
$PGRMM,WGS 84*06
$GPBOD,,T,,M,,*47
$GPRTE,1,1,c,0*07
$GPRMC,225500,A,4527.462,S,16709.142,E,001.5,260.1,060601,024.1,E*66
$GPRMB,A,,,,,,,,,,,,V*71
$GPGGA,225500,4527.462,S,16709.142,E,1,05,2.4,14.3,M,1.1,M,,*50
$GPGSA,A,3,01,,,,13,20,22,,,,28,,4.3,2.4,3.4*3F
$GPGSV,3,1,11,01,79,220,47,03,10,043,00,04,05,243,00,06,04,150,00*70
$GPGSV,3,2,11,13,37,235,47,20,40,333,46,22,65,083,45,24,02,205,00*74
$GPGSV,3,3,11,25,19,107,00,27,08,281,00,28,18,339,43,,,,*4B
$PGRME,10.4,M,15.3,M,17.8,M*12
$GPGLL,4527.462,S,16709.141,E,225501,A*3F
$PGRMZ,47,f,3*28
$PGRMM,WGS 84*06
$GPBOD,,T,,M,,*47
$GPRTE,1,1,c,0*07
$GPRMC,225502,A,4527.462,S,16709.141,E,001.5,260.1,060601,024.1,E*67
$GPRMB,A,,,,,,,,,,,,V*71
$GPGGA,225502,4527.462,S,16709.141,E,1,05,2.4,14.4,M,1.1,M,,*56
$GPGSA,A,3,01,,,,13,20,22,,,,28,,4.3,2.4,3.4*3F
$GPGSV,3,1,11,01,79,220,47,03,10,043,00,04,05,243,00,06,04,150,00*70
$GPGSV,3,2,11,13,37,235,47,20,40,333,46,22,65,083,45,24,02,205,00*74
$GPGSV,3,3,11,25,19,107,00,27,08,281,00,28,18,339,43,,,,*4B
$PGRME,10.4,M,15.3,M,17.8,M*12
$GPGLL,4527.462,S,16709.140,E,225503,A*3C
$PGRMZ,47,f,3*28
$PGRMM,WGS 84*06
$GPBOD,,T,,M,,*47
$GPRTE,1,1,c,0*07
$GPRMC,225504,A,4527.462,S,16709.139,E,001.5,260.0,060601,024.1,E*6F
$GPRMB,A,,,,,,,,,,,,V*71
$GPGGA,225504,4527.462,S,16709.139,E,1,05,2.4,14.4,M,1.1,M,,*5F
$GPGSA,A,3,01,,,,13,20,22,,,,28,,4.3,2.4,3.4*3F
$GPGSV,3,1,11,01,79,220,47,03,10,043,00,04,05,243,00,06,04,150,00*70
$GPGSV,3,2,11,13,38,235,47,20,40,333,47,22,65,083,45,24,02,205,00*7A
$GPGSV,3,3,11,25,19,107,00,27,08,281,00,28,18,339,43,,,,*4B
$PGRME,10.4,M,15.3,M,17.8,M*12
$GPGLL,4527.462,S,16709.139,E,225505,A*34
$PGRMZ,47,f,3*28
$PGRMM,WGS 84*06
$GPBOD,,T,,M,,*47
$GPRTE,1,1,c,0*07
$GPRMC,225506,A,4527.462,S,16709.138,E,001.5,259.9,060601,024.1,E*6F
$GPRMB,A,,,,,,,,,,,,V*71
$GPGGA,225506,4527.462,S,16709.138,E,1,05,2.4,14.4,M,1.1,M,,*5C
$GPGSA,A,3,01,,,,13,20,22,,,,28,,4.3,2.4,3.4*3F
$GPGSV,3,1,11,01,79,220,47,03,10,043,00,04,05,243,00,06,04,150,00*70
$GPGSV,3,2,11,13,38,235,47,20,40,333,47,22,65,083,45,24,02,205,00*7A
$GPGSV,3,3,11,25,19,107,00,27,08,281,00,28,18,339,43,,,,*4B
$PGRME,10.4,M,15.3,M,17.8,M*12
$GPGLL,4527.462,S,16709.138,E,225507,A*37
$PGRMZ,47,f,3*28
$PGRMM,WGS 84*06
$GPBOD,,T,,M,,*47
$GPRTE,1,1,c,0*07
$GPRMC,225508,A,4527.462,S,16709.137,E,001.6,259.8,060601,024.1,E*6C
$GPRMB,A,,,,,,,,,,,,V*71
$GPGGA,225508,4527.462,S,16709.137,E,1,05,2.4,14.5,M,1.1,M,,*5C
$GPGSA,A,3,01,,,,13,20,22,,,,28,,4.3,2.4,3.4*3F
$GPGSV,3,1,11,01,79,220,47,03,10,043,00,04,05,243,00,06,04,150,00*70
$GPGSV,3,2,11,13,38,235,47,20,40,333,47,22,65,083,45,24,02,205,00*7A
$GPGSV,3,3,11,25,19,107,00,27,08,281,00,28,18,339,43,,,,*4B
$PGRME,10.4,M,15.3,M,17.8,M*12
$GPGLL,4527.463,S,16709.136,E,225509,A*36
$PGRMZ,48,f,3*27
$PGRMM,WGS 84*06
$GPBOD,,T,,M,,*47
$GPRTE,1,1,c,0*07
$GPRMC,225510,A,4527.463,S,16709.136,E,001.6,259.6,060601,024.1,E*6B
$GPRMB,A,,,,,,,,,,,,V*71
$GPGGA,225510,4527.463,S,16709.135,E,1,05,2.4,14.5,M,1.1,M,,*56
$GPGSA,A,3,01,,,,13,20,22,,,,28,,4.3,2.4,3.4*3F
$GPGSV,3,1,11,01,79,220,47,03,10,043,00,04,05,243,00,06,04,150,00*70
$GPGSV,3,2,11,13,38,235,47,20,40,333,47,22,65,083,45,24,02,205,00*7A
$GPGSV,3,3,11,25,19,107,00,27,08,281,00,28,18,339,43,,,,*4B
$PGRME,10.4,M,15.3,M,17.9,M*13
$GPGLL,4527.463,S,16709.135,E,225511,A*3C
$PGRMZ,48,f,3*27
$PGRMM,WGS 84*06
$GPBOD,,T,,M,,*47
$GPRTE,1,1,c,0*07
$GPRMC,225512,A,4527.463,S,16709.134,E,001.6,259.3,060601,024.1,E*6E
$GPRMB,A,,,,,,,,,,,,V*71
$GPGGA,225512,4527.463,S,16709.134,E,1,05,2.4,14.6,M,1.1,M,,*56
$GPGSA,A,3,01,,,,13,20,22,,,,28,,4.3,2.4,3.4*3F
$GPGSV,3,1,11,01,79,220,47,03,10,043,00,04,05,243,00,06,04,150,00*70
$GPGSV,3,2,11,13,38,235,47,20,40,333,47,22,65,083,45,24,02,205,00*7A
$GPGSV,3,3,11,25,19,107,00,27,08,281,00,28,18,339,43,,,,*4B
$PGRME,10.4,M,15.3,M,17.9,M*13
$GPGLL,4527.463,S,16709.134,E,225513,A*3F
$PGRMZ,48,f,3*27
$PGRMM,WGS 84*06
$GPBOD,,T,,M,,*47
$GPRTE,1,1,c,0*07
$GPRMC,225514,A,4527.463,S,16709.133,E,001.6,259.0,060601,024.1,E*6C
$GPRMB,A,,,,,,,,,,,,V*71
$GPGGA,225514,4527.463,S,16709.133,E,1,05,2.4,14.9,M,1.1,M,,*58
$GPGSA,A,3,01,,,,13,20,22,,,,28,,4.3,2.4,3.5*3E
$GPGSV,3,1,11,01,79,220,47,03,10,043,00,04,05,243,00,06,04,150,00*70
$GPGSV,3,2,11,13,38,235,47,20,40,333,47,22,65,083,45,24,02,205,00*7A
$GPGSV,3,3,11,25,19,107,00,27,08,281,00,28,18,339,43,,,,*4B
$PGRME,10.4,M,15.3,M,17.9,M*13
$GPGLL,4527.463,S,16709.132,E,225515,A*3F
$PGRMZ,49,f,3*26
$PGRMM,WGS 84*06
$GPBOD,,T,,M,,*47
$GPRTE,1,1,c,0*07
$GPRMC,225516,A,4527.463,S,16709.132,E,001.6,258.5,060601,024.1,E*6B
$GPRMB,A,,,,,,,,,,,,V*71
$GPGGA,225516,4527.463,S,16709.131,E,1,05,2.4,15.0,M,1.1,M,,*50
$GPGSA,A,3,01,,,,13,20,22,,,,28,,4.3,2.4,3.5*3E
$GPGSV,3,1,11,01,79,220,47,03,10,043,00,04,05,243,00,06,04,150,00*70
$GPGSV,3,2,11,13,38,235,47,20,40,333,47,22,65,083,45,24,02,205,00*7A
$GPGSV,3,3,11,25,19,107,00,27,08,281,00,28,18,339,43,,,,*4B
$PGRME,10.4,M,15.3,M,17.9,M*13
$GPGLL,4527.463,S,16709.131,E,225517,A*3E
$PGRMZ,49,f,3*26
$PGRMM,WGS 84*06
$GPBOD,,T,,M,,*47
$GPRTE,1,1,c,0*07
$GPRMC,225518,A,4527.463,S,16709.130,E,001.6,258.0,060601,024.1,E*62
$GPRMB,A,,,,,,,,,,,,V*71
$GPGGA,225519,4527.463,S,16709.130,E,1,05,2.4,14.9,M,1.1,M,,*56
$GPGSA,A,3,01,,,,13,20,22,,,,28,,4.3,2.4,3.5*3E
$GPGSV,3,1,11,01,79,220,47,03,10,043,00,04,05,243,00,06,04,150,00*70
$GPGSV,3,2,11,13,38,235,47,20,40,333,47,22,65,083,46,24,02,205,00*79
$GPGSV,3,3,11,25,19,107,00,27,08,281,00,28,18,339,42,,,,*4A
$PGRME,10.4,M,15.3,M,17.9,M*13
$GPGLL,4527.463,S,16709.130,E,225519,A*31
$PGRMZ,49,f,3*26
$PGRMM,WGS 84*06
$GPBOD,,T,,M,,*47
$GPRTE,1,1,c,0*07
$GPRMC,225520,A,4527.464,S,16709.129,E,001.6,257.4,060601,024.1,E*6D
$GPRMB,A,,,,,,,,,,,,V*71
$GPGGA,225520,4527.464,S,16709.129,E,1,05,2.4,14.8,M,1.1,M,,*52
$GPGSA,A,3,01,,,,13,20,22,,,,28,,4.3,2.4,3.5*3E
$GPGSV,3,1,11,01,79,220,46,03,10,043,00,04,05,243,00,06,04,150,00*71
$GPGSV,3,2,11,13,38,235,47,20,40,333,47,22,65,083,45,24,02,205,00*7A
$GPGSV,3,3,11,25,19,107,00,27,08,281,00,28,18,339,42,,,,*4A
$PGRME,10.4,M,15.4,M,18.0,M*12
$GPGLL,4527.464,S,16709.129,E,225521,A*35
$PGRMZ,48,f,3*27
$PGRMM,WGS 84*06
$GPBOD,,T,,M,,*47
$GPRTE,1,1,c,0*07
$GPRMC,225522,A,4527.464,S,16709.128,E,001.6,256.9,060601,024.1,E*62
$GPRMB,A,,,,,,,,,,,,V*71
$GPGGA,225522,4527.464,S,16709.128,E,1,05,2.4,14.6,M,1.1,M,,*5F
$GPGSA,A,3,01,,,,13,20,22,,,,28,,4.3,2.4,3.5*3E
$GPGSV,3,1,11,01,79,220,46,03,10,043,00,04,05,243,00,06,04,150,00*71
$GPGSV,3,2,11,13,38,235,47,20,40,333,47,22,65,083,46,24,02,205,00*79
$GPGSV,3,3,11,25,19,107,00,27,08,281,00,28,18,339,42,,,,*4A
$PGRME,10.4,M,15.4,M,18.0,M*12
$GPGLL,4527.464,S,16709.128,E,225523,A*36
$PGRMZ,48,f,3*27
$PGRMM,WGS 84*06
$GPBOD,,T,,M,,*47
$GPRTE,1,1,c,0*07
$GPRMC,225524,A,4527.464,S,16709.127,E,001.6,256.5,060601,024.1,E*67
$GPRMB,A,,,,,,,,,,,,V*71
$GPGGA,225524,4527.464,S,16709.127,E,1,05,2.4,14.6,M,1.1,M,,*56
$GPGSA,A,3,01,,,,13,20,22,,,,28,,4.3,2.4,3.5*3E
$GPGSV,3,1,11,01,79,220,47,03,10,043,00,04,05,243,00,06,04,150,00*70
$GPGSV,3,2,11,13,38,235,47,20,40,333,47,22,65,083,45,24,02,205,00*7A
$GPGSV,3,3,11,25,19,107,00,27,08,281,00,28,18,339,42,,,,*4A
$PGRME,10.4,M,15.4,M,18.0,M*12
$GPGLL,4527.464,S,16709.126,E,225525,A*3E
$PGRMZ,48,f,3*27
$PGRMM,WGS 84*06
$GPBOD,,T,,M,,*47
$GPRTE,1,1,c,0*07
$GPRMC,225526,A,4527.464,S,16709.126,E,001.6,256.2,060601,024.1,E*63
$GPRMB,A,,,,,,,,,,,,V*71
$GPGGA,225526,4527.464,S,16709.125,E,1,05,2.4,14.6,M,1.1,M,,*56
$GPGSA,A,3,01,,,,13,20,22,,,,28,,4.3,2.4,3.5*3E
$GPGSV,3,1,11,01,79,220,47,03,10,043,00,04,05,243,00,06,04,150,00*70
$GPGSV,3,2,11,13,38,235,47,20,40,333,47,22,65,083,45,24,02,205,00*7A
$GPGSV,3,3,11,25,19,107,00,27,08,281,00,28,18,339,42,,,,*4A
$PGRME,10.4,M,15.4,M,18.0,M*12
$GPGLL,4527.464,S,16709.125,E,225527,A*3F
$PGRMZ,48,f,3*27
$PGRMM,WGS 84*06
$GPBOD,,T,,M,,*47
$GPRTE,1,1,c,0*07
$GPRMC,225528,A,4527.465,S,16709.124,E,001.6,256.2,060601,024.1,E*6E
$GPRMB,A,,,,,,,,,,,,V*71
$GPGGA,225528,4527.465,S,16709.124,E,1,05,2.4,14.6,M,1.1,M,,*58
$GPGSA,A,3,01,,,,13,20,22,,,,28,,4.3,2.4,3.5*3E
$GPGSV,3,1,11,01,79,220,47,03,10,043,00,04,05,243,00,06,04,150,00*70
$GPGSV,3,2,11,13,38,235,47,20,40,333,47,22,65,083,45,24,02,205,00*7A
$GPGSV,3,3,11,25,19,107,00,27,08,281,00,28,18,339,42,,,,*4A
$PGRME,10.4,M,15.4,M,18.0,M*12
$GPGLL,4527.465,S,16709.124,E,225529,A*31
$PGRMZ,48,f,3*27
$PGRMM,WGS 84*06
$GPBOD,,T,,M,,*47
$GPRTE,1,1,c,0*07
$GPRMC,225530,A,4527.465,S,16709.123,E,001.6,256.0,060601,024.1,E*62
$GPRMB,A,,,,,,,,,,,,V*71
$GPGGA,225530,4527.465,S,16709.123,E,1,05,2.4,14.5,M,1.1,M,,*55
$GPGSA,A,3,01,,,,13,20,22,,,,28,,4.3,2.4,3.5*3E
$GPGSV,3,1,11,01,79,220,47,03,10,043,00,04,05,243,00,06,04,150,00*70
$GPGSV,3,2,11,13,38,235,47,20,40,333,47,22,65,083,45,24,02,205,00*7A
$GPGSV,3,3,11,25,19,107,00,27,08,281,00,28,18,339,42,,,,*4A
$PGRME,10.4,M,15.4,M,18.0,M*12
$GPGLL,4527.465,S,16709.123,E,225531,A*3F
$PGRMZ,48,f,3*27
$PGRMM,WGS 84*06
$GPBOD,,T,,M,,*47
$GPRTE,1,1,c,0*07
$GPRMC,225532,A,4527.465,S,16709.122,E,001.6,255.8,060601,024.1,E*6A
$GPRMB,A,,,,,,,,,,,,V*71
$GPGGA,225532,4527.465,S,16709.122,E,1,05,2.4,14.5,M,1.1,M,,*56
$GPGSA,A,3,01,,,,13,20,22,,,,28,,4.3,2.4,3.5*3E
$GPGSV,3,1,11,01,79,220,47,03,10,043,00,04,05,243,00,06,04,150,00*70
$GPGSV,3,2,11,13,38,235,47,20,40,333,47,22,65,083,45,24,02,205,00*7A
$GPGSV,3,3,11,25,19,107,00,27,08,281,00,28,18,339,42,,,,*4A
$PGRME,10.4,M,15.4,M,18.1,M*13
$GPGLL,4527.465,S,16709.121,E,225533,A*3F
$PGRMZ,47,f,3*28
$PGRMM,WGS 84*06
$GPBOD,,T,,M,,*47
$GPRTE,1,1,c,0*07
$GPRMC,225534,A,4527.465,S,16709.121,E,001.6,255.5,060601,024.1,E*62
$GPRMB,A,,,,,,,,,,,,V*71
$GPGGA,225534,4527.465,S,16709.120,E,1,05,2.4,14.4,M,1.1,M,,*53
$GPGSA,A,3,01,,,,13,20,22,,,,28,,4.3,2.4,3.5*3E
$GPGSV,3,1,11,01,79,220,47,03,10,043,00,04,05,243,00,06,04,150,00*70
$GPGSV,3,2,11,13,38,235,47,20,39,334,47,22,65,083,45,24,02,205,00*73
$GPGSV,3,3,11,25,19,107,00,27,08,281,00,28,18,339,43,,,,*4B
$PGRME,10.4,M,15.4,M,18.1,M*13
$GPGLL,4527.465,S,16709.120,E,225535,A*38
$PGRMZ,47,f,3*28
$PGRMM,WGS 84*06
$GPBOD,,T,,M,,*47
$GPRTE,1,1,c,0*07
$GPRMC,225536,A,4527.466,S,16709.119,E,001.6,255.2,060601,024.1,E*6F
$GPRMB,A,,,,,,,,,,,,V*71
$GPGGA,225536,4527.466,S,16709.119,E,1,05,2.4,14.4,M,1.1,M,,*58
$GPGSA,A,3,01,,,,13,20,22,,,,28,,4.3,2.4,3.5*3E
$GPGSV,3,1,11,01,79,220,47,03,10,043,00,04,05,243,00,06,04,150,00*70
$GPGSV,3,2,11,13,38,235,47,20,39,334,47,22,65,083,45,24,02,205,00*73
$GPGSV,3,3,11,25,19,107,00,27,08,281,00,28,18,339,42,,,,*4A
$PGRME,10.4,M,15.4,M,18.1,M*13
$GPGLL,4527.466,S,16709.119,E,225537,A*33
$PGRMZ,47,f,3*28
$PGRMM,WGS 84*06
$GPBOD,,T,,M,,*47
$GPRTE,1,1,c,0*07
$GPRMC,225538,A,4527.466,S,16709.118,E,001.6,254.9,060601,024.1,E*6A
$GPRMB,A,,,,,,,,,,,,V*71
$GPGGA,225538,4527.466,S,16709.118,E,1,05,2.4,14.3,M,1.1,M,,*50
$GPGSA,A,3,01,,,,13,20,22,,,,28,,4.3,2.4,3.5*3E
$GPGSV,3,1,11,01,79,220,47,03,10,043,00,04,05,243,00,06,04,150,00*70
$GPGSV,3,2,11,13,38,235,47,20,39,334,47,22,65,083,45,24,02,205,00*73
$GPGSV,3,3,11,25,19,107,00,27,08,281,00,28,18,339,42,,,,*4A
$PGRME,10.4,M,15.4,M,18.1,M*13
$GPGLL,4527.466,S,16709.118,E,225539,A*3C
$PGRMZ,47,f,3*28
$PGRMM,WGS 84*06
$GPBOD,,T,,M,,*47
$GPRTE,1,1,c,0*07
$GPRMC,225540,A,4527.466,S,16709.117,E,001.6,254.8,060601,024.1,E*6B
$GPRMB,A,,,,,,,,,,,,V*71
$GPGGA,225541,4527.466,S,16709.117,E,1,05,2.4,14.3,M,1.1,M,,*51
$GPGSA,A,3,01,,,,13,20,22,,,,28,,4.3,2.4,3.5*3E
$GPGSV,3,1,11,01,79,220,47,03,10,043,00,04,05,243,00,06,04,150,00*70
$GPGSV,3,2,11,13,38,235,47,20,39,334,47,22,65,083,45,24,02,205,00*73
$GPGSV,3,3,11,25,19,107,00,27,08,281,00,28,18,339,42,,,,*4A
$PGRME,10.4,M,15.4,M,18.1,M*13
$GPGLL,4527.466,S,16709.116,E,225541,A*3D
$PGRMZ,47,f,3*28
$PGRMM,WGS 84*06
$GPBOD,,T,,M,,*47
$GPRTE,1,1,c,0*07
$GPRMC,225542,A,4527.466,S,16709.116,E,001.6,254.7,060601,024.1,E*67
$GPRMB,A,,,,,,,,,,,,V*71
$GPGGA,225542,4527.467,S,16709.115,E,1,05,2.4,14.2,M,1.1,M,,*50
$GPGSA,A,3,01,,,,13,20,22,,,,28,,4.3,2.4,3.5*3E
$GPGSV,3,1,11,01,79,220,47,03,10,043,00,04,05,243,00,06,04,150,00*70
$GPGSV,3,2,11,13,38,235,47,20,39,334,47,22,65,086,45,24,02,205,00*76
$GPGSV,3,3,11,25,19,107,00,27,08,281,00,28,18,339,42,,,,*4A
$PGRME,10.4,M,15.5,M,18.2,M*11
$GPGLL,4527.467,S,16709.115,E,225543,A*3D
$PGRMZ,47,f,3*28
$PGRMM,WGS 84*06
$GPBOD,,T,,M,,*47
$GPRTE,1,1,c,0*07
$GPRMC,225544,A,4527.467,S,16709.114,E,001.6,254.6,060601,024.1,E*63
$GPRMB,A,,,,,,,,,,,,V*71
$GPGGA,225544,4527.467,S,16709.114,E,1,05,2.4,14.3,M,1.1,M,,*56
$GPGSA,A,3,01,,,,13,20,22,,,,28,,4.3,2.4,3.6*3D
$GPGSV,3,1,11,01,79,220,47,03,10,043,00,04,05,243,00,06,04,150,00*70
$GPGSV,3,2,11,13,38,235,47,20,39,334,48,22,65,086,45,24,02,205,00*79
$GPGSV,3,3,11,25,19,107,00,27,08,281,00,28,18,339,43,,,,*4B
$PGRME,10.4,M,15.5,M,18.2,M*11
$GPGLL,4527.467,S,16709.114,E,225545,A*3A
$PGRMZ,47,f,3*28
$PGRMM,WGS 84*06
$GPBOD,,T,,M,,*47
$GPRTE,1,1,c,0*07
$GPRMC,225546,A,4527.467,S,16709.113,E,001.6,254.6,060601,024.1,E*66
$GPRMB,A,,,,,,,,,,,,V*71
$GPGGA,225546,4527.467,S,16709.113,E,1,05,2.4,14.2,M,1.1,M,,*52
$GPGSA,A,3,01,,,,13,20,22,,,,28,,4.3,2.4,3.6*3D
$GPGSV,3,1,11,01,79,220,46,03,10,043,00,04,05,243,00,06,04,150,00*71
$GPGSV,3,2,11,13,38,235,47,20,39,334,47,22,65,086,45,24,02,205,00*76
$GPGSV,3,3,11,25,19,107,00,27,08,281,00,28,18,339,43,,,,*4B
$PGRME,10.4,M,15.5,M,18.2,M*11
$GPGLL,4527.467,S,16709.113,E,225547,A*3F
$PGRMZ,47,f,3*28
$PGRMM,WGS 84*06
$GPBOD,,T,,M,,*47
$GPRTE,1,1,c,0*07
$GPRMC,225548,A,4527.467,S,16709.112,E,001.7,254.7,060601,024.1,E*69
$GPRMB,A,,,,,,,,,,,,V*71
$GPGGA,225548,4527.467,S,16709.112,E,1,05,2.4,14.4,M,1.1,M,,*5B
$GPGSA,A,3,01,,,,13,20,22,,,,28,,4.3,2.4,3.6*3D
$GPGSV,3,1,11,01,79,220,47,03,10,043,00,04,05,243,00,06,04,150,00*70
$GPGSV,3,2,11,13,38,235,47,20,39,334,47,22,65,086,45,24,02,205,00*76
$GPGSV,3,3,11,25,19,107,00,27,08,281,00,28,18,339,43,,,,*4B
$PGRME,10.4,M,15.5,M,18.2,M*11
$GPGLL,4527.467,S,16709.111,E,225549,A*33
$PGRMZ,47,f,3*28
$PGRMM,WGS 84*06
$GPBOD,,T,,M,,*47
$GPRTE,1,1,c,0*07
$GPRMC,225550,A,4527.467,S,16709.110,E,001.7,254.7,060601,024.1,E*62
$GPRMB,A,,,,,,,,,,,,V*71
$GPGGA,225550,4527.467,S,16709.110,E,1,05,2.4,14.4,M,1.1,M,,*50
$GPGSA,A,3,01,,,,13,20,22,,,,28,,4.3,2.4,3.6*3D
$GPGSV,3,1,11,01,79,220,47,03,10,043,00,04,05,243,00,06,04,150,00*70
$GPGSV,3,2,11,13,38,235,47,20,39,334,47,22,65,086,45,24,02,206,00*75
$GPGSV,3,3,11,25,19,107,00,27,08,281,00,28,18,339,43,,,,*4B
$PGRME,10.4,M,15.5,M,18.2,M*11
$GPGLL,4527.467,S,16709.110,E,225551,A*3B
$PGRMZ,47,f,3*28
$PGRMM,WGS 84*06
$GPBOD,,T,,M,,*47
$GPRTE,1,1,c,0*07
$GPRMC,225552,A,4527.468,S,16709.109,E,001.7,254.9,060601,024.1,E*69
$GPRMB,A,,,,,,,,,,,,V*71
$GPGGA,225552,4527.468,S,16709.109,E,1,05,2.4,14.5,M,1.1,M,,*54
$GPGSA,A,3,01,,,,13,20,22,,,,28,,4.3,2.4,3.6*3D
$GPGSV,3,1,11,01,79,220,47,03,10,043,00,04,05,243,00,06,04,150,00*70
$GPGSV,3,2,11,13,38,235,47,20,39,334,48,22,65,086,45,24,02,206,00*7A
$GPGSV,3,3,11,25,19,107,00,27,08,281,00,28,18,339,43,,,,*4B
$PGRME,10.4,M,15.5,M,18.2,M*11
$GPGLL,4527.468,S,16709.109,E,225553,A*3E
$PGRMZ,47,f,3*28
$PGRMM,WGS 84*06
$GPBOD,,T,,M,,*47
$GPRTE,1,1,c,0*07
$GPRMC,225554,A,4527.468,S,16709.108,E,001.7,254.9,060601,024.1,E*6E
$GPRMB,A,,,,,,,,,,,,V*71
$GPGGA,225554,4527.468,S,16709.108,E,1,05,2.4,14.3,M,1.1,M,,*55
$GPGSA,A,3,01,,,,13,20,22,,,,28,,4.4,2.4,3.6*3A
$GPGSV,3,1,11,01,79,220,47,03,10,043,00,04,05,243,00,06,04,150,00*70
$GPGSV,3,2,11,13,38,235,47,20,39,334,48,22,65,086,45,24,02,206,00*7A
$GPGSV,3,3,11,25,18,106,00,27,08,281,00,28,18,339,43,,,,*4B
$PGRME,10.4,M,15.5,M,18.2,M*11
$GPGLL,4527.468,S,16709.107,E,225555,A*36
$PGRMZ,47,f,3*28
$PGRMM,WGS 84*06
$GPBOD,,T,,M,,*47
$GPRTE,1,1,c,0*07
$GPRMC,225556,A,4527.468,S,16709.107,E,001.7,255.1,060601,024.1,E*6A
$GPRMB,A,,,,,,,,,,,,V*71
$GPGGA,225556,4527.468,S,16709.106,E,1,05,2.4,14.3,M,1.1,M,,*59
$GPGSA,A,3,01,,,,13,20,22,,,,28,,4.4,2.4,3.6*3A
$GPGSV,3,1,11,01,79,220,47,03,10,043,00,04,05,243,00,06,04,150,00*70
$GPGSV,3,2,11,13,38,235,47,20,39,334,48,22,65,086,45,24,02,206,00*7A
$GPGSV,3,3,11,25,18,106,00,27,08,281,00,28,18,339,43,,,,*4B
$PGRME,10.4,M,15.5,M,18.2,M*11
$GPGLL,4527.468,S,16709.106,E,225557,A*35
$PGRMZ,47,f,3*28
$PGRMM,WGS 84*06
$GPBOD,,T,,M,,*47
$GPRTE,1,1,c,0*07
$GPRMC,225558,A,4527.468,S,16709.105,E,001.7,255.2,060601,024.1,E*65
$GPRMB,A,,,,,,,,,,,,V*71
$GPGGA,225558,4527.468,S,16709.105,E,1,05,2.4,14.4,M,1.1,M,,*53
$GPGSA,A,3,01,,,,13,20,22,,,,28,,4.4,2.4,3.6*3A
$GPGSV,3,1,11,01,79,220,47,03,10,043,00,04,05,243,00,06,04,150,00*70
$GPGSV,3,2,11,13,38,235,47,20,39,334,48,22,65,086,45,24,02,206,00*7A
$GPGSV,3,3,11,25,18,106,00,27,08,281,00,28,18,339,43,,,,*4B
$PGRME,10.4,M,15.5,M,18.2,M*11
$GPGLL,4527.468,S,16709.105,E,225559,A*38
$PGRMZ,47,f,3*28
$PGRMM,WGS 84*06
$GPBOD,,T,,M,,*47
$GPRTE,1,1,c,0*07
$GPRMC,225600,A,4527.469,S,16709.104,E,001.7,255.4,060601,024.1,E*6D
$GPRMB,A,,,,,,,,,,,,V*71
$GPGGA,225600,4527.469,S,16709.104,E,1,05,2.4,14.4,M,1.1,M,,*5D
$GPGSA,A,3,01,,,,13,20,22,,,,28,,4.4,2.4,3.6*3A
$GPGSV,3,1,11,01,79,220,47,03,10,043,00,04,05,243,00,06,04,150,00*70
$GPGSV,3,2,11,13,38,235,47,20,39,334,48,22,65,086,45,24,02,206,00*7A
$GPGSV,3,3,11,25,18,106,00,27,08,281,00,28,18,339,42,,,,*4A
$PGRME,10.4,M,15.5,M,18.2,M*11
$GPGLL,4527.469,S,16709.103,E,225601,A*31
$PGRMZ,47,f,3*28
$PGRMM,WGS 84*06
$GPBOD,,T,,M,,*47
$GPRTE,1,1,c,0*07
$GPRMC,225602,A,4527.469,S,16709.103,E,001.7,255.5,060601,024.1,E*69
$GPRMB,A,,,,,,,,,,,,V*71
$GPGGA,225602,4527.469,S,16709.103,E,1,05,2.4,14.5,M,1.1,M,,*59
$GPGSA,A,3,01,,,,13,20,22,,,,28,,4.4,2.4,3.6*3A
$GPGSV,3,1,11,01,79,220,47,03,10,043,00,04,05,243,00,06,04,150,00*70
$GPGSV,3,2,11,13,38,235,47,20,39,334,48,22,65,086,45,24,02,206,00*7A
$GPGSV,3,3,11,25,18,106,00,27,08,281,00,28,18,339,43,,,,*4B
$PGRME,10.4,M,15.5,M,18.2,M*11
$GPGLL,4527.469,S,16709.102,E,225603,A*32
$PGRMZ,47,f,3*28
$PGRMM,WGS 84*06
$GPBOD,,T,,M,,*47
$GPRTE,1,1,c,0*07
$GPRMC,225604,A,4527.469,S,16709.101,E,001.7,255.7,060601,024.1,E*6F
$GPRMB,A,,,,,,,,,,,,V*71
$GPGGA,225605,4527.469,S,16709.101,E,1,05,2.4,14.3,M,1.1,M,,*5A
$GPGSA,A,3,01,,,,13,20,22,,,,28,,4.4,2.4,3.6*3A
$GPGSV,3,1,11,01,79,220,46,03,10,043,00,04,05,243,00,06,04,150,00*71
$GPGSV,3,2,11,13,38,235,47,20,39,334,48,22,65,086,45,24,02,206,00*7A
$GPGSV,3,3,11,25,18,106,00,27,09,280,00,28,18,339,43,,,,*4B
$PGRME,10.4,M,15.5,M,18.3,M*10
$GPGLL,4527.469,S,16709.101,E,225605,A*37
$PGRMZ,47,f,3*28
$PGRMM,WGS 84*06
$GPBOD,,T,,M,,*47
$GPRTE,1,1,c,0*07
$GPRMC,225606,A,4527.469,S,16709.100,E,001.7,255.9,060601,024.1,E*62
$GPRMB,A,,,,,,,,,,,,V*71
$GPGGA,225606,4527.469,S,16709.100,E,1,05,2.4,14.4,M,1.1,M,,*5F
$GPGSA,A,3,01,,,,13,20,22,,,,28,,4.4,2.4,3.6*3A
$GPGSV,3,1,11,01,79,220,46,03,10,043,00,04,05,243,00,06,04,150,00*71
$GPGSV,3,2,11,13,38,235,47,20,39,334,48,22,65,086,45,24,02,206,00*7A
$GPGSV,3,3,11,25,18,106,00,27,09,280,00,28,18,339,43,,,,*4B
$PGRME,10.4,M,15.5,M,18.3,M*10
$GPGLL,4527.469,S,16709.100,E,225607,A*34
$PGRMZ,47,f,3*28
$PGRMM,WGS 84*06
$GPBOD,,T,,M,,*47
$GPRTE,1,1,c,0*07
$GPRMC,225608,A,4527.469,S,16709.099,E,001.7,256.3,060601,024.1,E*64
$GPRMB,A,,,,,,,,,,,,V*71
$GPGGA,225609,4527.469,S,16709.099,E,1,05,2.4,14.4,M,1.1,M,,*51
$GPGSA,A,3,01,,,,13,20,22,,,,28,,4.4,2.4,3.6*3A
$GPGSV,3,1,11,01,79,220,46,03,10,043,00,04,05,243,00,06,04,150,00*71
$GPGSV,3,2,11,13,38,235,47,20,39,334,47,22,65,086,45,24,02,206,00*75
$GPGSV,3,3,11,25,18,106,00,27,09,280,00,28,19,339,44,,,,*4D
$PGRME,10.4,M,15.5,M,18.3,M*10
$GPGLL,4527.469,S,16709.098,E,225609,A*3A
$PGRMZ,47,f,3*28
$PGRMM,WGS 84*06
$GPBOD,,T,,M,,*47
$GPRTE,1,1,c,0*07
$GPRMC,225610,A,4527.470,S,16709.097,E,001.7,256.7,060601,024.1,E*6F
$GPRMB,A,,,,,,,,,,,,V*71
$GPGGA,225611,4527.470,S,16709.097,E,1,05,2.4,14.4,M,1.1,M,,*5E
$GPGSA,A,3,01,,,,13,20,22,,,,28,,4.4,2.4,3.6*3A
$GPGSV,3,1,11,01,79,220,47,03,10,043,00,04,05,243,00,06,04,150,00*70
$GPGSV,3,2,11,13,38,235,46,20,39,334,47,22,65,086,45,24,02,206,00*74
$GPGSV,3,3,11,25,18,106,00,27,09,280,00,28,19,339,44,,,,*4D
$PGRME,10.4,M,15.5,M,18.3,M*10
$GPGLL,4527.470,S,16709.097,E,225611,A*34
$PGRMZ,47,f,3*28
$PGRMM,WGS 84*06
$GPBOD,,T,,M,,*47
$GPRTE,1,1,c,0*07
$GPRMC,225612,A,4527.470,S,16709.096,E,001.7,257.3,060601,024.1,E*69
$GPRMB,A,,,,,,,,,,,,V*71
$GPGGA,225613,4527.470,S,16709.096,E,1,05,2.4,14.5,M,1.1,M,,*5C
$GPGSA,A,3,01,,,,13,20,22,,,,28,,4.4,2.4,3.6*3A
$GPGSV,3,1,11,01,79,220,46,03,10,043,00,04,05,243,00,06,04,150,00*71
$GPGSV,3,2,11,13,38,235,46,20,39,334,48,22,65,086,45,24,02,206,00*7B
$GPGSV,3,3,11,25,18,106,00,27,09,280,00,28,19,339,44,,,,*4D
$PGRME,10.4,M,15.5,M,18.3,M*10
$GPGLL,4527.470,S,16709.096,E,225613,A*37
$PGRMZ,48,f,3*27
$PGRMM,WGS 84*06
$GPBOD,,T,,M,,*47
$GPRTE,1,1,c,0*07
$GPRMC,225614,A,4527.470,S,16709.095,E,001.7,258.0,060601,024.1,E*60
$GPRMB,A,,,,,,,,,,,,V*71
$GPGGA,225615,4527.470,S,16709.095,E,1,05,2.4,14.5,M,1.1,M,,*59
$GPGSA,A,3,01,,,,13,20,22,,,,28,,4.4,2.4,3.6*3A
$GPGSV,3,1,11,01,79,220,46,03,10,043,00,04,05,243,00,06,04,150,00*71
$GPGSV,3,2,11,13,38,235,45,20,39,334,47,22,65,086,45,24,02,206,00*77
$GPGSV,3,3,11,25,18,106,00,27,09,280,00,28,19,339,44,,,,*4D
$PGRME,10.4,M,15.6,M,18.4,M*14
$GPGLL,4527.470,S,16709.094,E,225615,A*33
$PGRMZ,48,f,3*27
$PGRMM,WGS 84*06
$GPBOD,,T,,M,,*47
$GPRTE,1,1,c,0*07
$GPRMC,225616,A,4527.470,S,16709.093,E,001.7,258.8,060601,024.1,E*6C
$GPRMB,A,,,,,,,,,,,,V*71
$GPGGA,225617,4527.470,S,16709.093,E,1,05,2.4,14.6,M,1.1,M,,*5E
$GPGSA,A,3,01,,,,13,20,22,,,,28,,4.4,2.4,3.6*3A
$GPGSV,3,1,11,01,79,220,46,03,10,043,00,04,05,243,00,06,04,150,00*71
$GPGSV,3,2,11,13,38,235,45,20,39,334,47,22,65,086,45,24,02,206,00*77
$GPGSV,3,3,11,25,18,106,00,27,09,280,00,28,19,339,43,,,,*4A
$PGRME,10.4,M,15.6,M,18.4,M*14
$GPGLL,4527.470,S,16709.093,E,225617,A*36
$PGRMZ,48,f,3*27
$PGRMM,WGS 84*06
$GPBOD,,T,,M,,*47
$GPRTE,1,1,c,0*07
$GPRMC,225618,A,4527.470,S,16709.092,E,001.7,259.6,060601,024.1,E*6C
$GPRMB,A,,,,,,,,,,,,V*71
$GPGGA,225619,4527.470,S,16709.092,E,1,05,2.4,14.6,M,1.1,M,,*51
$GPGSA,A,3,01,,,,13,20,22,,,,28,,4.4,2.4,3.6*3A
$GPGSV,3,1,11,01,79,220,46,03,10,043,00,04,05,243,00,06,04,150,00*71
$GPGSV,3,2,11,13,38,235,45,20,39,334,46,22,65,086,45,24,02,206,00*76
$GPGSV,3,3,11,25,18,106,00,27,09,280,00,28,19,339,44,,,,*4D
$PGRME,10.4,M,15.6,M,18.4,M*14
$GPGLL,4527.470,S,16709.091,E,225619,A*3A
$PGRMZ,48,f,3*27
$PGRMM,WGS 84*06
$GPBOD,,T,,M,,*47
$GPRTE,1,1,c,0*07
$GPRMC,225620,A,4527.470,S,16709.091,E,001.7,260.3,060601,024.1,E*6B
$GPRMB,A,,,,,,,,,,,,V*71
$GPGGA,225621,4527.470,S,16709.090,E,1,05,2.4,14.8,M,1.1,M,,*56
$GPGSA,A,3,01,,,,13,20,22,,,,28,,4.4,2.4,3.6*3A
$GPGSV,3,1,11,01,79,220,46,03,10,043,00,04,05,243,00,06,04,150,00*71
$GPGSV,3,2,11,13,38,235,45,20,39,334,46,22,65,086,45,24,02,206,00*76
$GPGSV,3,3,11,25,18,106,00,27,09,280,00,28,19,339,44,,,,*4D
$PGRME,10.4,M,15.6,M,18.4,M*14
$GPGLL,4527.470,S,16709.090,E,225621,A*30
$PGRMZ,49,f,3*26
$PGRMM,WGS 84*06
$GPBOD,,T,,M,,*47
$GPRTE,1,1,c,0*07
$GPRMC,225622,A,4527.470,S,16709.089,E,001.7,261.1,060601,024.1,E*63
$GPRMB,A,,,,,,,,,,,,V*71
$GPGGA,225623,4527.470,S,16709.089,E,1,05,2.4,15.1,M,1.1,M,,*54
$GPGSA,A,3,01,,,,13,20,22,,,,28,,4.4,2.4,3.6*3A
$GPGSV,3,1,11,01,79,220,46,03,10,043,00,04,05,243,00,06,04,150,00*71
$GPGSV,3,2,11,13,38,235,45,20,39,334,46,22,65,086,45,24,02,206,00*76
$GPGSV,3,3,11,25,18,106,00,27,09,280,00,28,19,339,44,,,,*4D
$PGRME,10.4,M,15.6,M,18.4,M*14
$GPGLL,4527.470,S,16709.089,E,225623,A*3A
$PGRMZ,49,f,3*26
$PGRMM,WGS 84*06
$GPBOD,,T,,M,,*47
$GPRTE,1,1,c,0*07
$GPRMC,225624,A,4527.470,S,16709.088,E,001.7,261.9,060601,024.1,E*6C
$GPRMB,A,,,,,,,,,,,,V*71
$GPGGA,225625,4527.470,S,16709.088,E,1,05,2.4,15.1,M,1.1,M,,*53
$GPGSA,A,3,01,,,,13,20,22,,,,28,,4.4,2.4,3.6*3A
$GPGSV,3,1,11,01,79,220,46,03,10,043,00,04,05,243,00,06,04,150,00*71
$GPGSV,3,2,11,13,38,235,45,20,39,334,46,22,65,086,45,24,02,206,00*76
$GPGSV,3,3,11,25,18,106,00,27,09,280,00,28,19,339,43,,,,*4A
$PGRME,10.4,M,15.6,M,18.4,M*14
$GPGLL,4527.470,S,16709.087,E,225625,A*32
$PGRMZ,50,f,3*2E
$PGRMM,WGS 84*06
$GPBOD,,T,,M,,*47
$GPRTE,1,1,c,0*07
$GPRMC,225626,A,4527.470,S,16709.086,E,001.7,262.4,060601,024.1,E*6E
$GPRMB,A,,,,,,,,,,,,V*71
$GPGGA,225627,4527.470,S,16709.086,E,1,05,2.4,15.1,M,1.1,M,,*5F
$GPGSA,A,3,01,,,,13,20,22,,,,28,,4.4,2.4,3.6*3A
$GPGSV,3,1,11,01,79,220,46,03,10,043,00,04,05,243,00,06,04,150,00*71
$GPGSV,3,2,11,13,38,235,45,20,39,334,45,22,65,086,45,24,02,206,00*75
$GPGSV,3,3,11,25,18,106,00,27,09,280,00,28,19,339,43,,,,*4A
$PGRME,10.4,M,15.6,M,18.5,M*15
$GPGLL,4527.470,S,16709.086,E,225627,A*31
$PGRMZ,50,f,3*2E
$PGRMM,WGS 84*06
$GPBOD,,T,,M,,*47
$GPRTE,1,1,c,0*07
$GPRMC,225628,A,4527.470,S,16709.085,E,001.7,263.1,060601,024.1,E*67
$GPRMB,A,,,,,,,,,,,,V*71
$GPGGA,225629,4527.470,S,16709.085,E,1,05,2.4,15.2,M,1.1,M,,*51
$GPGSA,A,3,01,,,,13,20,22,,,,28,,4.4,2.4,3.6*3A
$GPGSV,3,1,11,01,79,220,46,03,10,043,00,04,05,243,00,06,04,150,00*71
$GPGSV,3,2,11,13,38,235,45,20,39,334,46,22,65,086,46,24,02,206,00*75
$GPGSV,3,3,11,25,18,106,00,27,09,280,00,28,19,339,43,,,,*4A
$PGRME,10.4,M,15.6,M,18.5,M*15
$GPGLL,4527.470,S,16709.085,E,225629,A*3C
$PGRMZ,50,f,3*2E
$PGRMM,WGS 84*06
$GPBOD,,T,,M,,*47
$GPRTE,1,1,c,0*07
$GPRMC,225630,A,4527.470,S,16709.084,E,001.7,263.5,060601,024.1,E*6B
$GPRMB,A,,,,,,,,,,,,V*71
$GPGGA,225631,4527.470,S,16709.084,E,1,05,2.4,15.3,M,1.1,M,,*58
$GPGSA,A,3,01,,,,13,20,22,,,,28,,4.4,2.4,3.6*3A
$GPGSV,3,1,11,01,80,219,46,03,10,043,00,04,05,243,00,06,04,150,00*7D
$GPGSV,3,2,11,13,38,235,45,20,39,334,46,22,65,086,46,24,02,206,00*75
$GPGSV,3,3,11,25,18,106,00,27,09,280,00,28,19,339,43,,,,*4A
$PGRME,10.4,M,15.6,M,18.5,M*15
$GPGLL,4527.470,S,16709.083,E,225631,A*33
$PGRMZ,50,f,3*2E
$PGRMM,WGS 84*06
$GPBOD,,T,,M,,*47
$GPRTE,1,1,c,0*07
$GPRMC,225632,A,4527.470,S,16709.082,E,001.7,263.5,060601,024.1,E*6F
$GPRMB,A,,,,,,,,,,,,V*71
$GPGGA,225633,4527.470,S,16709.082,E,1,05,2.4,15.3,M,1.1,M,,*5C
$GPGSA,A,3,01,,,,13,20,22,,,,28,,4.4,2.4,3.6*3A
$GPGSV,3,1,11,01,80,219,46,03,10,043,00,04,05,243,00,06,04,150,00*7D
$GPGSV,3,2,11,13,38,235,46,20,39,334,46,22,65,086,45,24,02,206,00*75
$GPGSV,3,3,11,25,18,106,00,27,09,280,00,28,19,339,43,,,,*4A
$PGRME,10.4,M,15.6,M,18.5,M*15
$GPGLL,4527.470,S,16709.082,E,225633,A*30
$PGRMZ,50,f,3*2E
$PGRMM,WGS 84*06
$GPBOD,,T,,M,,*47
$GPRTE,1,1,c,0*07
$GPRMC,225634,A,4527.471,S,16709.081,E,001.8,262.3,060601,024.1,E*63
$GPRMB,A,,,,,,,,,,,,V*71
$GPGGA,225635,4527.471,S,16709.081,E,1,05,2.4,15.1,M,1.1,M,,*5A
$GPGSA,A,3,01,,,,13,20,22,,,,28,,4.4,2.4,3.7*3B
$GPGSV,3,1,11,01,80,219,47,03,10,043,00,04,05,243,00,06,04,150,00*7C
$GPGSV,3,2,11,13,38,235,46,20,39,334,47,22,65,086,46,24,02,206,00*77
$GPGSV,3,3,11,25,18,106,00,27,09,280,00,28,19,339,43,,,,*4A
$PGRME,10.4,M,15.6,M,18.5,M*15
$GPGLL,4527.471,S,16709.080,E,225635,A*35
$PGRMZ,50,f,3*2E
$PGRMM,WGS 84*06
$GPBOD,,T,,M,,*47
$GPRTE,1,1,c,0*07
$GPRMC,225636,A,4527.471,S,16709.079,E,001.8,259.0,060601,024.1,E*6D
$GPRMB,A,,,,,,,,,,,,V*71
$GPGGA,225637,4527.471,S,16709.079,E,1,05,2.4,15.1,M,1.1,M,,*5F
$GPGSA,A,3,01,,,,13,20,22,,,,28,,4.4,2.4,3.7*3B
$GPGSV,3,1,11,01,80,219,47,03,10,043,00,04,05,243,00,06,04,150,00*7C
$GPGSV,3,2,11,13,38,235,46,20,39,334,47,22,65,086,46,24,02,206,00*77
$GPGSV,3,3,11,25,18,106,00,27,09,280,00,28,19,339,42,,,,*4B
$PGRME,10.4,M,15.7,M,18.5,M*14
$GPGLL,4527.472,S,16709.079,E,225637,A*32
$PGRMZ,49,f,3*26
$PGRMM,WGS 84*06
$GPBOD,,T,,M,,*47
$GPRTE,1,1,c,0*07
$GPRMC,225638,A,4527.472,S,16709.078,E,001.8,252.8,060601,024.1,E*62
$GPRMB,A,,,,,,,,,,,,V*71
$GPGGA,225639,4527.472,S,16709.078,E,1,05,2.4,14.9,M,1.1,M,,*5A
$GPGSA,A,3,01,,,,13,20,22,,,,28,,4.5,2.4,3.8*35
$GPGSV,3,1,11,01,80,219,47,03,11,044,00,04,05,243,00,06,04,150,00*7A
$GPGSV,3,2,11,13,38,235,47,20,39,334,45,22,65,086,45,24,02,206,00*77
$GPGSV,3,3,11,25,18,106,00,27,09,280,00,28,19,339,40,,,,*49
$PGRME,10.4,M,15.7,M,18.5,M*14
$GPGLL,4527.473,S,16709.078,E,225639,A*3C
$PGRMZ,49,f,3*26
$PGRMM,WGS 84*06
$GPBOD,,T,,M,,*47
$GPRTE,1,1,c,0*07
$GPRMC,225640,A,4527.474,S,16709.077,E,001.9,243.8,060601,024.1,E*65
$GPRMB,A,,,,,,,,,,,,V*71
$GPGGA,225641,4527.474,S,16709.077,E,1,05,2.4,14.7,M,1.1,M,,*52
$GPGSA,A,3,01,,,,13,20,22,,,,28,,4.5,2.4,3.8*35
$GPGSV,3,1,11,01,80,219,48,03,11,044,00,04,05,243,00,06,04,150,00*75
$GPGSV,3,2,11,13,38,235,47,20,39,334,44,22,65,086,45,24,02,206,00*76
$GPGSV,3,3,11,25,18,106,00,27,09,280,00,28,19,339,39,,,,*47
$PGRME,10.4,M,15.7,M,18.5,M*14
$GPGLL,4527.474,S,16709.077,E,225641,A*3B
$PGRMZ,48,f,3*27
$PGRMM,WGS 84*06
$GPBOD,,T,,M,,*47
$GPRTE,1,1,c,0*07
$GPRMC,225642,A,4527.475,S,16709.076,E,001.9,233.1,060601,024.1,E*69
$GPRMB,A,,,,,,,,,,,,V*71
$GPGGA,225643,4527.475,S,16709.076,E,1,05,2.4,14.8,M,1.1,M,,*5F
$GPGSA,A,3,01,,,,13,20,22,,,,28,,4.7,2.4,4.0*38
$GPGSV,3,1,11,01,80,219,47,03,11,044,00,04,05,244,00,06,04,150,00*7D
$GPGSV,3,2,11,13,38,235,47,20,39,334,44,22,65,086,45,24,02,206,00*76
$GPGSV,3,3,11,25,18,106,00,27,09,280,00,28,19,339,36,,,,*48
$PGRME,10.4,M,15.7,M,18.5,M*14
$GPGLL,4527.476,S,16709.077,E,225643,A*3B
$PGRMZ,49,f,3*26
$PGRMM,WGS 84*06
$GPBOD,,T,,M,,*47
$GPRTE,1,1,c,0*07
$GPRMC,225644,A,4527.477,S,16709.077,E,001.9,220.9,060601,024.1,E*66
$GPRMB,A,,,,,,,,,,,,V*71
$GPGGA,225645,4527.477,S,16709.077,E,1,05,2.4,15.0,M,1.1,M,,*53
$GPGSA,A,3,01,,,,13,20,22,,,,28,,4.7,2.4,4.0*38
$GPGSV,3,1,11,01,80,219,47,03,11,044,00,04,05,244,00,06,04,150,00*7D
$GPGSV,3,2,11,13,38,235,47,20,39,334,43,22,65,086,45,24,02,206,00*71
$GPGSV,3,3,11,25,18,106,00,27,09,280,00,28,19,339,37,,,,*49
$PGRME,10.4,M,15.7,M,18.5,M*14
$GPGLL,4527.478,S,16709.077,E,225645,A*33
$PGRMZ,50,f,3*2E
$PGRMM,WGS 84*06
$GPBOD,,T,,M,,*47
$GPRTE,1,1,c,0*07
$GPRMC,225646,A,4527.479,S,16709.078,E,001.9,207.4,060601,024.1,E*6D
$GPRMB,A,,,,,,,,,,,,V*71
$GPGGA,225647,4527.479,S,16709.077,E,1,05,2.4,15.4,M,1.1,M,,*5B
$GPGSA,A,3,01,,,,13,20,22,,,,28,,4.6,2.4,3.9*37
$GPGSV,3,1,11,01,80,219,47,03,11,044,00,04,05,244,00,06,04,150,00*7D
$GPGSV,3,2,11,13,38,235,48,20,39,334,43,22,65,086,46,24,02,206,00*7D
$GPGSV,3,3,11,25,18,106,00,27,09,280,00,28,19,339,38,,,,*46
$PGRME,10.4,M,15.7,M,18.5,M*14
$GPGLL,4527.479,S,16709.078,E,225647,A*3F
$PGRMZ,51,f,3*2F
$PGRMM,WGS 84*06
$GPBOD,,T,,M,,*47
$GPRTE,1,1,c,0*07
$GPRMC,225648,A,4527.480,S,16709.079,E,001.9,193.0,060601,024.1,E*6E
$GPRMB,A,,,,,,,,,,,,V*71
$GPGGA,225649,4527.480,S,16709.079,E,1,05,2.4,15.7,M,1.1,M,,*5E
$GPGSA,A,3,01,,,,13,20,22,,,,28,,4.6,2.4,3.9*37
$GPGSV,3,1,11,01,80,219,46,03,11,044,00,04,05,244,00,06,04,150,00*7C
$GPGSV,3,2,11,13,38,235,46,20,39,334,42,22,65,086,47,24,02,206,00*73
$GPGSV,3,3,11,25,18,106,00,27,09,280,00,28,19,339,40,,,,*49
$PGRME,10.4,M,15.7,M,18.6,M*17
$GPGLL,4527.480,S,16709.080,E,225649,A*30
$PGRMZ,52,f,3*2C
$PGRMM,WGS 84*06
$GPBOD,,T,,M,,*47
$GPRTE,1,1,c,0*07
$GPRMC,225650,A,4527.481,S,16709.081,E,001.8,178.4,060601,024.1,E*61
$GPRMB,A,,,,,,,,,,,,V*71
$GPGGA,225651,4527.481,S,16709.081,E,1,05,2.4,16.0,M,1.1,M,,*55
$GPGSA,A,3,01,,,,13,20,22,,,,28,,4.6,2.4,3.9*37
$GPGSV,3,1,11,01,80,219,46,03,11,044,00,04,05,244,00,06,04,151,00*7D
$GPGSV,3,2,11,13,38,235,45,20,39,334,43,22,65,086,47,24,02,206,00*71
$GPGSV,3,3,11,25,18,106,00,27,09,280,00,28,19,339,40,,,,*49
$PGRME,10.4,M,15.7,M,18.6,M*17
$GPGLL,4527.481,S,16709.082,E,225651,A*3A
$PGRMZ,52,f,3*2C
$PGRMM,WGS 84*06
$GPBOD,,T,,M,,*47
$GPRTE,1,1,c,0*07
$GPRMC,225652,A,4527.481,S,16709.083,E,001.6,163.7,060601,024.1,E*66
$GPRMB,A,,,,,,,,,,,,V*71
$GPGGA,225653,4527.481,S,16709.083,E,1,05,2.4,16.0,M,1.1,M,,*55
$GPGSA,A,3,01,,,,13,20,22,,,,28,,4.6,2.4,3.9*37
$GPGSV,3,1,11,01,80,219,46,03,11,044,00,04,05,244,00,06,04,151,00*7D
$GPGSV,3,2,11,13,38,235,44,20,39,334,43,22,65,086,47,24,02,206,00*70
$GPGSV,3,3,11,25,18,106,00,27,09,280,00,28,19,339,40,,,,*49
$PGRME,10.4,M,15.7,M,18.6,M*17
$GPGLL,4527.480,S,16709.085,E,225653,A*3E
$PGRMZ,52,f,3*2C
$PGRMM,WGS 84*06
$GPBOD,,T,,M,,*47
$GPRTE,1,1,c,0*07
$GPRMC,225654,A,4527.480,S,16709.086,E,001.4,146.0,060601,024.1,E*66
$GPRMB,A,,,,,,,,,,,,V*71
$GPGGA,225655,4527.480,S,16709.086,E,1,05,2.4,15.9,M,1.1,M,,*5D
