GPSD,W=1,R=1
$GPGGA,000416.984,0000.0000,N,00000.0000,E,0,00,50.0,0.0,M,0.0,M,0.0,0000*70
$GPGSA,A,1,,,,,,,,,,,,,50.0,50.0,50.0*05
GPSD,O=?
$GPRMC,000416.984,V,36000.0000,N,72000.0000,E,0.000000,,260120,,*3B
$GPGGA,000417.984,0000.0000,N,00000.0000,E,0,00,50.0,0.0,M,0.0,M,0.0,0000*71
$GPGSA,A,1,,,,,,,,,,,,,50.0,50.0,50.0*05
GPSD,O=?
$GPRMC,000417.984,V,36000.0000,N,72000.0000,E,0.000000,,260120,,*3A
$GPGGA,000418.983,0000.0000,N,00000.0000,E,0,00,50.0,0.0,M,0.0,M,0.0,0000*79
$GPGSA,A,1,,,,,,,,,,,,,50.0,50.0,50.0*05
GPSD,O=?
$GPRMC,000418.983,V,36000.0000,N,72000.0000,E,0.000000,,260120,,*32
$GPGGA,000419.983,0000.0000,N,00000.0000,E,0,00,50.0,0.0,M,0.0,M,0.0,0000*78
$GPGSA,A,1,,,,,,,,,,,,,50.0,50.0,50.0*05
GPSD,O=?
$GPRMC,000419.983,V,36000.0000,N,72000.0000,E,0.000000,,260120,,*33
$GPGGA,000420.983,0000.0000,N,00000.0000,E,0,00,50.0,0.0,M,0.0,M,0.0,0000*72
$GPGSA,A,1,,,,,,,,,,,,,50.0,50.0,50.0*05
GPSD,O=?
$GPRMC,000420.983,V,36000.0000,N,72000.0000,E,0.000000,,260120,,*39
$GPGGA,000421.983,0000.0000,N,00000.0000,E,0,00,50.0,0.0,M,0.0,M,0.0,0000*73
$GPGSA,A,1,,,,,,,,,,,,,50.0,50.0,50.0*05
GPSD,O=?
$GPRMC,000421.983,V,36000.0000,N,72000.0000,E,0.000000,,260120,,*38
$GPGGA,000422.983,0000.0000,N,00000.0000,E,0,00,50.0,0.0,M,0.0,M,0.0,0000*70
$GPGSA,A,1,,,,,,,,,,,,,50.0,50.0,50.0*05
GPSD,O=?
$GPRMC,000422.983,V,36000.0000,N,72000.0000,E,0.000000,,260120,,*3B
$GPGGA,000423.983,0000.0000,N,00000.0000,E,0,00,50.0,0.0,M,0.0,M,0.0,0000*71
$GPGSA,A,1,,,,,,,,,,,,,50.0,50.0,50.0*05
GPSD,O=?
$GPRMC,000423.983,V,36000.0000,N,72000.0000,E,0.000000,,260120,,*3A
$GPGGA,000424.983,0000.0000,N,00000.0000,E,0,00,50.0,0.0,M,0.0,M,0.0,0000*76
$GPGSA,A,1,,,,,,,,,,,,,50.0,50.0,50.0*05
GPSD,O=?
$GPRMC,000424.983,V,36000.0000,N,72000.0000,E,0.000000,,260120,,*3D
$GPGGA,000425.983,0000.0000,N,00000.0000,E,0,00,50.0,0.0,M,0.0,M,0.0,0000*77
$GPGSA,A,1,,,,,,,,,,,,,50.0,50.0,50.0*05
GPSD,O=?
$GPRMC,000425.983,V,36000.0000,N,72000.0000,E,0.000000,,260120,,*3C
$GPGGA,000426.983,0000.0000,N,00000.0000,E,0,00,50.0,0.0,M,0.0,M,0.0,0000*74
$GPGSA,A,1,,,,,,,,,,,,,50.0,50.0,50.0*05
GPSD,O=?
$GPGSV,3,1,12,25,89,000,36,27,89,000,00,08,79,000,,26,79,000,00*73
$GPGSV,3,2,12,01,62,000,46,05,57,000,00,22,42,000,00,13,32,000,00*7E
$GPGSV,3,3,12,09,20,000,00,24,20,000,00,04,17,000,00,15,12,000,00*70
$GPRMC,000426.983,V,36000.0000,N,72000.0000,E,0.000000,,260120,,*3F
$GPGGA,000427.983,0000.0000,N,00000.0000,E,0,00,50.0,0.0,M,0.0,M,0.0,0000*75
$GPGSA,A,1,,,,,,,,,,,,,50.0,50.0,50.0*05
GPSD,O=?
$GPRMC,000427.983,V,36000.0000,N,72000.0000,E,0.000000,,260120,,*3E
$GPGGA,000428.983,0000.0000,N,00000.0000,E,0,00,50.0,0.0,M,0.0,M,0.0,0000*7A
$GPGSA,A,1,,,,,,,,,,,,,50.0,50.0,50.0*05
GPSD,O=?
$GPRMC,000428.983,V,36000.0000,N,72000.0000,E,0.000000,,260120,,*31
$GPGGA,000429.983,0000.0000,N,00000.0000,E,0,00,50.0,0.0,M,0.0,M,0.0,0000*7B
$GPGSA,A,1,,,,,,,,,,,,,50.0,50.0,50.0*05
GPSD,O=?
$GPRMC,000429.983,V,36000.0000,N,72000.0000,E,0.000000,,260120,,*30
$GPGGA,000430.983,0000.0000,N,00000.0000,E,0,00,50.0,0.0,M,0.0,M,0.0,0000*73
$GPGSA,A,1,,,,,,,,,,,,,50.0,50.0,50.0*05
GPSD,O=?
$GPRMC,000430.983,V,36000.0000,N,72000.0000,E,0.000000,,260120,,*38
$GPGGA,000431.983,0000.0000,N,00000.0000,E,0,00,50.0,0.0,M,0.0,M,0.0,0000*72
$GPGSA,A,1,,,,,,,,,,,,,50.0,50.0,50.0*05
GPSD,O=?
$GPGSV,3,1,12,25,89,000,36,27,89,000,00,08,79,000,,26,79,000,00*73
$GPGSV,3,2,12,01,62,000,45,05,57,000,00,22,42,000,00,13,32,000,00*7D
$GPGSV,3,3,12,09,20,000,00,24,20,000,00,04,17,000,00,15,12,000,00*70
$GPRMC,000431.983,V,36000.0000,N,72000.0000,E,0.000000,,260120,,*39
$GPGGA,204137.079,0000.0000,N,00000.0000,E,0,00,50.0,0.0,M,0.0,M,0.0,0000*7B
$GPGSA,A,1,,,,,,,,,,,,,50.0,50.0,50.0*05
GPSD,O=?
$GPRMC,204137.079,V,36000.0000,N,72000.0000,E,0.000000,,290120,,*3F
$GPGGA,204138.079,0000.0000,N,00000.0000,E,0,00,50.0,0.0,M,0.0,M,0.0,0000*74
$GPGSA,A,1,,,,,,,,,,,,,50.0,50.0,50.0*05
GPSD,O=?
$GPRMC,204138.079,V,36000.0000,N,72000.0000,E,0.000000,,290120,,*30
$GPGGA,204139.079,0000.0000,N,00000.0000,E,0,00,50.0,0.0,M,0.0,M,0.0,0000*75
$GPGSA,A,1,,,,,,,,,,,,,50.0,50.0,50.0*05
GPSD,O=?
$GPRMC,204139.079,V,36000.0000,N,72000.0000,E,0.000000,,290120,,*31
$GPGGA,204140.079,0000.0000,N,00000.0000,E,0,00,50.0,0.0,M,0.0,M,0.0,0000*7B
$GPGSA,A,1,,,,,,,,,,,,,50.0,50.0,50.0*05
GPSD,O=?
$GPRMC,204140.079,V,36000.0000,N,72000.0000,E,0.000000,,290120,,*3F
$GPGGA,204141.079,0000.0000,N,00000.0000,E,0,00,50.0,0.0,M,0.0,M,0.0,0000*7A
$GPGSA,A,1,,,,,,,,,,,,,50.0,50.0,50.0*05
GPSD,O=?
$GPGSV,3,1,12,25,89,000,36,27,89,000,00,08,79,000,,26,79,000,00*73
$GPGSV,3,2,12,01,62,000,46,05,57,000,00,22,42,000,00,13,32,000,00*7E
$GPGSV,3,3,12,09,20,000,00,24,20,000,00,04,17,000,00,15,12,000,00*70
$GPRMC,204141.079,V,36000.0000,N,72000.0000,E,0.000000,,290120,,*3E
$GPGGA,204142.079,0000.0000,N,00000.0000,E,0,00,50.0,0.0,M,0.0,M,0.0,0000*79
$GPGSA,A,1,,,,,,,,,,,,,50.0,50.0,50.0*05
GPSD,O=?
$GPRMC,204142.079,V,36000.0000,N,72000.0000,E,0.000000,,290120,,*3D
$GPGGA,204143.079,0000.0000,N,00000.0000,E,0,00,50.0,0.0,M,0.0,M,0.0,0000*78
$GPGSA,A,1,,,,,,,,,,,,,50.0,50.0,50.0*05
GPSD,O=?
$GPRMC,204143.079,V,36000.0000,N,72000.0000,E,0.000000,,290120,,*3C
$GPGGA,204144.079,0000.0000,N,00000.0000,E,0,00,50.0,0.0,M,0.0,M,0.0,0000*7F
$GPGSA,A,1,,,,,,,,,,,,,50.0,50.0,50.0*05
GPSD,O=?
$GPRMC,204144.079,V,36000.0000,N,72000.0000,E,0.000000,,290120,,*3B
$GPGGA,204145.079,0000.0000,N,00000.0000,E,0,00,50.0,0.0,M,0.0,M,0.0,0000*7E
$GPGSA,A,1,,,,,,,,,,,,,50.0,50.0,50.0*05
GPSD,O=?
$GPRMC,204145.079,V,36000.0000,N,72000.0000,E,0.000000,,290120,,*3A
$GPGGA,204146.079,0000.0000,N,00000.0000,E,0,00,50.0,0.0,M,0.0,M,0.0,0000*7D
$GPGSA,A,1,,,,,,,,,,,,,50.0,50.0,50.0*05
GPSD,O=?
$GPGSV,3,1,12,25,89,000,34,27,89,000,00,08,79,000,,26,79,000,00*71
$GPGSV,3,2,12,01,62,000,45,05,57,000,00,22,42,000,40,13,32,000,00*79
$GPGSV,3,3,12,09,20,000,00,24,20,000,00,04,17,000,00,15,12,000,00*70
$GPRMC,204146.079,V,36000.0000,N,72000.0000,E,0.000000,,290120,,*39
$GPGGA,204147.079,0000.0000,N,00000.0000,E,0,00,50.0,0.0,M,0.0,M,0.0,0000*7C
$GPGSA,A,1,,,,,,,,,,,,,50.0,50.0,50.0*05
GPSD,O=?
$GPRMC,204147.079,V,36000.0000,N,72000.0000,E,0.000000,,290120,,*38
$GPGGA,204148.079,0000.0000,N,00000.0000,E,0,00,50.0,0.0,M,0.0,M,0.0,0000*73
$GPGSA,A,1,,,,,,,,,,,,,50.0,50.0,50.0*05
GPSD,O=?
$GPRMC,204148.079,V,36000.0000,N,72000.0000,E,0.000000,,290120,,*37
$GPGGA,204149.079,0000.0000,N,00000.0000,E,0,00,50.0,0.0,M,0.0,M,0.0,0000*72
$GPGSA,A,1,,,,,,,,,,,,,50.0,50.0,50.0*05
GPSD,O=?
$GPRMC,204149.079,V,36000.0000,N,72000.0000,E,0.000000,,290120,,*36
$GPGGA,204150.079,0000.0000,N,00000.0000,E,0,00,50.0,0.0,M,0.0,M,0.0,0000*7A
$GPGSA,A,1,,,,,,,,,,,,,50.0,50.0,50.0*05
GPSD,O=?
$GPRMC,204150.079,V,36000.0000,N,72000.0000,E,0.000000,,290120,,*3E
$GPGGA,204151.078,0000.0000,N,00000.0000,E,0,00,50.0,0.0,M,0.0,M,0.0,0000*7A
$GPGSA,A,1,,,,,,,,,,,,,50.0,50.0,50.0*05
GPSD,O=?
$GPGSV,3,1,12,25,89,000,34,27,89,000,00,08,79,000,,26,79,000,00*71
$GPGSV,3,2,12,01,62,000,45,05,57,000,00,22,42,000,41,13,32,000,00*78
$GPGSV,3,3,12,09,20,000,00,24,20,000,00,04,17,000,00,15,12,000,00*70
$GPRMC,204151.078,V,36000.0000,N,72000.0000,E,0.000000,,290120,,*3E
$GPGGA,204152.078,0000.0000,N,00000.0000,E,0,00,50.0,0.0,M,0.0,M,0.0,0000*79
$GPGSA,A,1,,,,,,,,,,,,,50.0,50.0,50.0*05
GPSD,O=?
$GPRMC,204152.078,V,36000.0000,N,72000.0000,E,0.000000,,290120,,*3D
$GPGGA,204153.078,0000.0000,N,00000.0000,E,0,00,50.0,0.0,M,0.0,M,0.0,0000*78
$GPGSA,A,1,,,,,,,,,,,,,50.0,50.0,50.0*05
GPSD,O=?
$GPRMC,204153.078,V,36000.0000,N,72000.0000,E,0.000000,,080605,,*3F
$GPGGA,204154.078,0000.0000,N,00000.0000,E,0,00,50.0,0.0,M,0.0,M,0.0,0000*7F
$GPGSA,A,1,,,,,,,,,,,,,50.0,50.0,50.0*05
GPSD,O=?
$GPRMC,204154.078,V,36000.0000,N,72000.0000,E,0.000000,,080605,,*38
$GPGGA,204155.078,0000.0000,N,00000.0000,E,0,00,50.0,0.0,M,0.0,M,0.0,0000*7E
$GPGSA,A,1,,,,,,,,,,,,,50.0,50.0,50.0*05
GPSD,O=?
$GPRMC,204155.078,V,36000.0000,N,72000.0000,E,0.000000,,080605,,*39
$GPGGA,204156.078,0000.0000,N,00000.0000,E,0,00,50.0,0.0,M,0.0,M,0.0,0000*7D
$GPGSA,A,1,,,,,,,,,,,,,50.0,50.0,50.0*05
GPSD,O=?
$GPGSV,3,1,12,25,65,000,34,01,51,000,45,14,51,000,00,22,48,000,42*74
$GPGSV,3,2,12,15,26,000,00,11,20,000,00,30,20,000,00,18,19,000,*79
$GPGSV,3,3,12,19,07,000,00,05,05,000,00,03,02,000,,16,-03,000,00*5D
$GPRMC,204156.078,V,36000.0000,N,72000.0000,E,0.000000,,080605,,*3A
$GPGGA,204157.078,0000.0000,N,00000.0000,E,0,00,50.0,0.0,M,0.0,M,0.0,0000*7C
$GPGSA,A,1,,,,,,,,,,,,,50.0,50.0,50.0*05
GPSD,O=?
$GPRMC,204157.078,V,36000.0000,N,72000.0000,E,0.000000,,080605,,*3B
$GPGGA,204158.078,0000.0000,N,00000.0000,E,0,00,50.0,0.0,M,0.0,M,0.0,0000*73
$GPGSA,A,1,,,,,,,,,,,,,50.0,50.0,50.0*05
GPSD,O=?
$GPRMC,204158.078,V,36000.0000,N,72000.0000,E,0.000000,,080605,,*34
$GPGGA,204159.078,0000.0000,N,00000.0000,E,0,00,50.0,0.0,M,0.0,M,0.0,0000*72
$GPGSA,A,1,,,,,,,,,,,,,50.0,50.0,50.0*05
GPSD,O=?
$GPRMC,204159.078,V,36000.0000,N,72000.0000,E,0.000000,,080605,,*35
$GPGGA,204200.078,0000.0000,N,00000.0000,E,0,00,50.0,0.0,M,0.0,M,0.0,0000*7D
$GPGSA,A,1,,,,,,,,,,,,,50.0,50.0,50.0*05
GPSD,O=?
$GPRMC,204200.078,V,36000.0000,N,72000.0000,E,0.000000,,080605,,*3A
$GPGGA,204201.078,0000.0000,N,00000.0000,E,0,00,50.0,0.0,M,0.0,M,0.0,0000*7C
$GPGSA,A,1,,,,,,,,,,,,,50.0,50.0,50.0*05
GPSD,O=?
$GPGSV,3,1,12,25,65,000,,01,51,000,45,14,51,000,00,22,48,000,44*75
$GPGSV,3,2,12,15,26,000,00,11,20,000,00,30,20,000,00,18,19,000,*79
$GPGSV,3,3,12,19,07,000,00,05,05,000,00,03,02,000,,16,-03,000,00*5D
$GPRMC,204201.078,V,36000.0000,N,72000.0000,E,0.000000,,080605,,*3B
$GPGGA,204202.078,0000.0000,N,00000.0000,E,0,00,50.0,0.0,M,0.0,M,0.0,0000*7F
$GPGSA,A,1,,,,,,,,,,,,,50.0,50.0,50.0*05
GPSD,O=?
$GPRMC,204202.078,V,36000.0000,N,72000.0000,E,0.000000,,080605,,*38
$GPGGA,204203.078,0000.0000,N,00000.0000,E,0,00,50.0,0.0,M,0.0,M,0.0,0000*7E
$GPGSA,A,1,,,,,,,,,,,,,50.0,50.0,50.0*05
GPSD,O=?
$GPRMC,204203.078,V,36000.0000,N,72000.0000,E,0.000000,,080605,,*39
$GPGGA,204204.078,0000.0000,N,00000.0000,E,0,00,50.0,0.0,M,0.0,M,0.0,0000*79
$GPGSA,A,1,,,,,,,,,,,,,50.0,50.0,50.0*05
GPSD,O=?
$GPRMC,204204.078,V,36000.0000,N,72000.0000,E,0.000000,,080605,,*3E
$GPGGA,204205.078,0000.0000,N,00000.0000,E,0,00,50.0,0.0,M,0.0,M,0.0,0000*78
$GPGSA,A,1,,,,,,,,,,,,,50.0,50.0,50.0*05
GPSD,O=?
$GPRMC,204205.078,V,36000.0000,N,72000.0000,E,0.000000,,080605,,*3F
$GPGGA,204206.078,0000.0000,N,00000.0000,E,0,00,50.0,0.0,M,0.0,M,0.0,0000*7B
$GPGSA,A,1,,,,,,,,,,,,,50.0,50.0,50.0*05
GPSD,O=?
$GPGSV,3,1,12,25,65,000,,01,51,000,45,14,51,000,45,22,48,000,44*74
$GPGSV,3,2,12,15,26,000,00,11,20,000,43,30,20,000,00,18,19,000,*7E
$GPGSV,3,3,12,19,07,000,00,05,05,000,00,03,02,000,,16,-03,000,00*5D
$GPRMC,204206.078,V,36000.0000,N,72000.0000,E,0.000000,,080605,,*3C
$GPGGA,204207.078,0000.0000,N,00000.0000,E,0,00,50.0,0.0,M,0.0,M,0.0,0000*7A
$GPGSA,A,1,,,,,,,,,,,,,50.0,50.0,50.0*05
GPSD,O=?
$GPRMC,204207.078,V,36000.0000,N,72000.0000,E,0.000000,,080605,,*3D
$GPGGA,204208.077,0000.0000,N,00000.0000,E,0,00,50.0,0.0,M,0.0,M,0.0,0000*7A
$GPGSA,A,1,,,,,,,,,,,,,50.0,50.0,50.0*05
GPSD,O=?
$GPRMC,204208.077,V,36000.0000,N,72000.0000,E,0.000000,,080605,,*3D
$GPGGA,204209.077,0000.0000,N,00000.0000,E,0,00,50.0,0.0,M,0.0,M,0.0,0000*7B
$GPGSA,A,1,,,,,,,,,,,,,50.0,50.0,50.0*05
GPSD,O=?
$GPRMC,204209.077,V,36000.0000,N,72000.0000,E,0.000000,,080605,,*3C
$GPGGA,204210.077,0000.0000,N,00000.0000,E,0,00,50.0,0.0,M,0.0,M,0.0,0000*73
$GPGSA,A,1,,,,,,,,,,,,,50.0,50.0,50.0*05
GPSD,O=?
$GPRMC,204210.077,V,36000.0000,N,72000.0000,E,0.000000,,080605,,*34
$GPGGA,204211.077,0000.0000,N,00000.0000,E,0,00,50.0,0.0,M,0.0,M,0.0,0000*72
$GPGSA,A,1,,,,,,,,,,,,,50.0,50.0,50.0*05
GPSD,O=?
$GPGSV,3,1,12,25,65,000,,01,51,000,45,14,51,000,46,22,48,000,44*77
$GPGSV,3,2,12,15,26,000,00,11,20,000,42,30,20,000,00,18,19,000,*7F
$GPGSV,3,3,12,19,07,000,00,05,05,000,00,03,02,000,,16,-03,000,00*5D
$GPRMC,204211.077,V,36000.0000,N,72000.0000,E,0.000000,,080605,,*35
$GPGGA,204212.077,0000.0000,N,00000.0000,E,0,00,50.0,0.0,M,0.0,M,0.0,0000*71
$GPGSA,A,1,,,,,,,,,,,,,50.0,50.0,50.0*05
GPSD,O=?
$GPRMC,204212.077,V,36000.0000,N,72000.0000,E,0.000000,,080605,,*36
$GPGGA,204213.077,0000.0000,N,00000.0000,E,0,00,50.0,0.0,M,0.0,M,0.0,0000*70
$GPGSA,A,1,,,,,,,,,,,,,50.0,50.0,50.0*05
GPSD,O=?
$GPRMC,204213.077,V,36000.0000,N,72000.0000,E,0.000000,,080605,,*37
$GPGGA,204214.077,0000.0000,N,00000.0000,E,0,00,50.0,0.0,M,0.0,M,0.0,0000*77
$GPGSA,A,1,,,,,,,,,,,,,50.0,50.0,50.0*05
GPSD,O=?
$GPRMC,204214.077,V,36000.0000,N,72000.0000,E,0.000000,,080605,,*30
$GPGGA,204215.077,0000.0000,N,00000.0000,E,0,00,50.0,0.0,M,0.0,M,0.0,0000*76
$GPGSA,A,1,,,,,,,,,,,,,50.0,50.0,50.0*05
GPSD,O=?
$GPRMC,204215.077,V,36000.0000,N,72000.0000,E,0.000000,,080605,,*31
$GPGGA,204216.077,0000.0000,N,00000.0000,E,0,00,50.0,0.0,M,0.0,M,0.0,0000*75
$GPGSA,A,1,,,,,,,,,,,,,50.0,50.0,50.0*05
GPSD,O=?
$GPGSV,3,1,12,25,65,000,,01,51,000,44,14,51,000,46,22,48,000,44*76
$GPGSV,3,2,12,15,26,000,00,11,20,000,42,30,20,000,00,18,19,000,*7F
$GPGSV,3,3,12,19,07,000,00,05,05,000,00,03,02,000,,16,-03,000,00*5D
$GPRMC,204216.077,V,36000.0000,N,72000.0000,E,0.000000,,080605,,*32
$GPGGA,204217.077,0000.0000,N,00000.0000,E,0,00,50.0,0.0,M,0.0,M,0.0,0000*74
$GPGSA,A,1,,,,,,,,,,,,,50.0,50.0,50.0*05
GPSD,O=?
$GPRMC,204217.077,V,36000.0000,N,72000.0000,E,0.000000,,080605,,*33
$GPGGA,204218.077,0000.0000,N,00000.0000,E,0,00,50.0,0.0,M,0.0,M,0.0,0000*7B
$GPGSA,A,1,,,,,,,,,,,,,50.0,50.0,50.0*05
GPSD,O=?
$GPRMC,204218.077,V,36000.0000,N,72000.0000,E,0.000000,,080605,,*3C
$GPGGA,204219.077,0000.0000,N,00000.0000,E,0,00,50.0,0.0,M,0.0,M,0.0,0000*7A
$GPGSA,A,1,,,,,,,,,,,,,50.0,50.0,50.0*05
GPSD,O=?
$GPRMC,204219.077,V,36000.0000,N,72000.0000,E,0.000000,,080605,,*3D
$GPGGA,204220.077,0000.0000,N,00000.0000,E,0,00,50.0,0.0,M,0.0,M,0.0,0000*70
$GPGSA,A,1,,,,,,,,,,,,,50.0,50.0,50.0*05
GPSD,O=?
$GPRMC,204220.077,V,36000.0000,N,72000.0000,E,0.000000,,080605,,*37
$GPGGA,204221.077,0000.0000,N,00000.0000,E,0,00,50.0,0.0,M,0.0,M,0.0,0000*71
$GPGSA,A,1,,,,,,,,,,,,,50.0,50.0,50.0*05
GPSD,O=?
$GPGSV,3,1,12,25,65,000,,01,51,000,44,14,51,000,46,22,48,000,43*71
$GPGSV,3,2,12,15,26,000,00,11,20,000,42,30,20,000,00,18,19,000,*7F
$GPGSV,3,3,12,19,07,000,00,05,05,000,00,03,02,000,,16,-03,000,00*5D
$GPRMC,204221.077,V,36000.0000,N,72000.0000,E,0.000000,,080605,,*36
$GPGGA,204222.077,0000.0000,N,00000.0000,E,0,00,50.0,0.0,M,0.0,M,0.0,0000*72
$GPGSA,A,1,,,,,,,,,,,,,50.0,50.0,50.0*05
GPSD,O=?
$GPRMC,204222.077,V,36000.0000,N,72000.0000,E,0.000000,,080605,,*35
$GPGGA,204223.077,0000.0000,N,00000.0000,E,0,00,50.0,0.0,M,0.0,M,0.0,0000*73
$GPGSA,A,1,,,,,,,,,,,,,50.0,50.0,50.0*05
GPSD,O=?
$GPRMC,204223.077,V,36000.0000,N,72000.0000,E,0.000000,,080605,,*34
$GPGGA,204224.076,0000.0000,N,00000.0000,E,0,00,50.0,0.0,M,0.0,M,0.0,0000*75
$GPGSA,A,1,,,,,,,,,,,,,50.0,50.0,50.0*05
GPSD,O=?
$GPRMC,204224.076,V,36000.0000,N,72000.0000,E,0.000000,,080605,,*32
$GPGGA,204225.076,0000.0000,N,00000.0000,E,0,00,50.0,0.0,M,0.0,M,0.0,0000*74
$GPGSA,A,1,,,,,,,,,,,,,50.0,50.0,50.0*05
GPSD,O=?
$GPRMC,204225.076,V,36000.0000,N,72000.0000,E,0.000000,,080605,,*33
$GPGGA,204226.076,0000.0000,N,00000.0000,E,0,00,50.0,0.0,M,0.0,M,0.0,0000*77
$GPGSA,A,1,,,,,,,,,,,,,50.0,50.0,50.0*05
GPSD,O=?
$GPGSV,3,1,12,25,65,000,,01,51,000,43,14,51,000,46,22,48,000,43*76
$GPGSV,3,2,12,15,26,000,00,11,20,000,43,30,20,000,00,18,19,000,*7E
$GPGSV,3,3,12,19,07,000,00,05,05,000,00,03,02,000,,16,-03,000,00*5D
$GPRMC,204226.076,V,36000.0000,N,72000.0000,E,0.000000,,080605,,*30
$GPGGA,204227.076,0000.0000,N,00000.0000,E,0,00,50.0,0.0,M,0.0,M,0.0,0000*76
$GPGSA,A,1,,,,,,,,,,,,,50.0,50.0,50.0*05
GPSD,O=?
$GPRMC,204227.076,V,36000.0000,N,72000.0000,E,0.000000,,080605,,*31
$GPGGA,204228.076,0000.0000,N,00000.0000,E,0,00,50.0,0.0,M,0.0,M,0.0,0000*79
$GPGSA,A,1,,,,,,,,,,,,,50.0,50.0,50.0*05
GPSD,O=?
$GPRMC,204228.076,V,36000.0000,N,72000.0000,E,0.000000,,080605,,*3E
$GPGGA,204229.076,0000.0000,N,00000.0000,E,0,00,50.0,0.0,M,0.0,M,0.0,0000*78
$GPGSA,A,1,,,,,,,,,,,,,50.0,50.0,50.0*05
GPSD,O=?
$GPRMC,204229.076,V,36000.0000,N,72000.0000,E,0.000000,,080605,,*3F
$GPGGA,204230.076,0000.0000,N,00000.0000,E,0,00,50.0,0.0,M,0.0,M,0.0,0000*70
$GPGSA,A,1,,,,,,,,,,,,,50.0,50.0,50.0*05
GPSD,O=?
$GPRMC,204230.076,V,36000.0000,N,72000.0000,E,0.000000,,080605,,*37
$GPGGA,204231.076,0000.0000,N,00000.0000,E,0,00,50.0,0.0,M,0.0,M,0.0,0000*71
$GPGSA,A,1,,,,,,,,,,,,,50.0,50.0,50.0*05
GPSD,O=?
$GPGSV,3,1,12,25,65,000,40,01,51,000,44,14,51,000,46,22,48,000,43*75
$GPGSV,3,2,12,15,26,000,,11,20,000,43,30,20,000,00,18,19,000,*7E
$GPGSV,3,3,12,19,07,000,00,05,05,000,,03,02,000,,16,-03,000,00*5D
$GPRMC,204231.076,V,36000.0000,N,72000.0000,E,0.000000,,080605,,*36
$GPGGA,204232.076,0000.0000,N,00000.0000,E,0,00,50.0,0.0,M,0.0,M,0.0,0000*72
$GPGSA,A,1,,,,,,,,,,,,,50.0,50.0,50.0*05
GPSD,O=?
$GPRMC,204232.076,V,36000.0000,N,72000.0000,E,0.000000,,080605,,*35
$GPGGA,204233.076,0000.0000,N,00000.0000,E,0,00,50.0,0.0,M,0.0,M,0.0,0000*73
$GPGSA,A,1,,,,,,,,,,,,,50.0,50.0,50.0*05
GPSD,O=?
$GPRMC,204233.076,V,36000.0000,N,72000.0000,E,0.000000,,080605,,*34
$GPGGA,204234.076,0000.0000,N,00000.0000,E,0,00,50.0,0.0,M,0.0,M,0.0,0000*74
$GPGSA,A,1,,,,,,,,,,,,,50.0,50.0,50.0*05
GPSD,O=?
$GPRMC,204234.076,V,36000.0000,N,72000.0000,E,0.000000,,080605,,*33
$GPGGA,204235.076,0000.0000,N,00000.0000,E,0,00,50.0,0.0,M,0.0,M,0.0,0000*75
$GPGSA,A,1,,,,,,,,,,,,,50.0,50.0,50.0*05
GPSD,O=?
$GPRMC,204235.076,V,36000.0000,N,72000.0000,E,0.000000,,080605,,*32
$GPGGA,204236.080,5331.5526,N,11331.7210,W,1,04,3.0,637.8,M,-19.7,M,0.0,0000*43
GPSD,O=?
$GPGSA,A,3,14,11,01,22,,,,,,,,,4.5,3.0,3.2*35
GPSD,O=GSA 0.00 0.005 53.525877 -113.528683  637.80  0.00  0.00        ?        ?  0.000 ?      ?      ?
$GPGSV,3,1,12,25,65,000,40,01,51,000,44,14,51,000,46,22,48,000,43*75
$GPGSV,3,2,12,15,26,000,,11,20,000,43,30,20,000,00,18,19,000,*7E
$GPGSV,3,3,12,19,07,000,00,05,05,000,,03,02,000,,16,-03,000,00*5D
$GPRMC,204236.080,A,5331.5526,N,11331.7210,W,0.117939,11.74,080605,,*21
GPSD,O=RMC 1118263356.08 0.005 53.525877 -113.528683  637.80  0.00  0.00  11.7400    0.061  0.000 ?      ?      ?
$GPGGA,204237.080,5331.5512,N,11331.7219,W,1,04,3.0,638.1,M,-19.7,M,0.0,0000*4A
GPSD,O=GGA 1118263357.08 0.005 53.525853 -113.528698  638.10  0.00  0.00  11.7400    0.061  0.300 ?  0.00      ?
$GPGSA,A,3,14,11,01,22,,,,,,,,,4.5,3.0,3.2*35
GPSD,O=GSA 1118263357.08 0.005 53.525853 -113.528698  638.10  0.00  0.00  11.7400    0.061  0.300 ?      ?      ?
$GPRMC,204237.080,A,5331.5512,N,11331.7219,W,0.128947,6.93,080605,,*14
GPSD,O=RMC 1118263357.08 0.005 53.525853 -113.528698  638.10  0.00  0.00   6.9300    0.066  0.300 ?      ?      ?
$GPGGA,204238.080,5331.5511,N,11331.7216,W,1,04,3.0,639.0,M,-19.7,M,0.0,0000*49
GPSD,O=GGA 1118263358.08 0.005 53.525852 -113.528693  639.00  0.00  0.00   6.9300    0.066  0.900 ?  0.00      ?
$GPGSA,A,3,14,11,01,22,,,,,,,,,4.5,3.0,3.2*35
GPSD,O=GSA 1118263358.08 0.005 53.525852 -113.528693  639.00  0.00  0.00   6.9300    0.066  0.900 ?      ?      ?
$GPRMC,204238.080,A,5331.5511,N,11331.7216,W,0.137133,10.79,080605,,*21
GPSD,O=RMC 1118263358.08 0.005 53.525852 -113.528693  639.00  0.00  0.00  10.7900    0.071  0.900 ?      ?      ?
$GPGGA,204239.080,5331.5516,N,11331.7213,W,1,04,3.0,638.4,M,-19.7,M,0.0,0000*4F
GPSD,O=GGA 1118263359.08 0.005 53.525860 -113.528688  638.40  0.00  0.00  10.7900    0.071 -0.600 ?  0.00      ?
$GPGSA,A,3,14,11,01,22,,,,,,,,,4.5,3.0,3.2*35
GPSD,O=GSA 1118263359.08 0.005 53.525860 -113.528688  638.40  0.00  0.00  10.7900    0.071 -0.600 ?      ?      ?
$GPRMC,204239.080,A,5331.5516,N,11331.7213,W,0.116835,9.28,080605,,*12
GPSD,O=RMC 1118263359.08 0.005 53.525860 -113.528688  638.40  0.00  0.00   9.2800    0.060 -0.600 ?      ?      ?
$GPGGA,204240.080,5331.5513,N,11331.7211,W,1,04,3.0,638.2,M,-19.7,M,0.0,0000*40
GPSD,O=GGA 1118263360.08 0.005 53.525855 -113.528685  638.20  0.00  0.00   9.2800    0.060 -0.200 ?  0.00      ?
$GPGSA,A,3,14,11,01,22,,,,,,,,,4.5,3.0,3.2*35
GPSD,O=GSA 1118263360.08 0.005 53.525855 -113.528685  638.20  0.00  0.00   9.2800    0.060 -0.200 ?      ?      ?
$GPRMC,204240.080,A,5331.5513,N,11331.7211,W,0.149728,10.85,080605,,*2D
GPSD,O=RMC 1118263360.08 0.005 53.525855 -113.528685  638.20  0.00  0.00  10.8500    0.077 -0.200 ?      ?      ?
$GPGGA,204241.080,5331.5512,N,11331.7213,W,1,04,3.0,638.2,M,-19.7,M,0.0,0000*42
GPSD,O=GGA 1118263361.08 0.005 53.525853 -113.528688  638.20  0.00  0.00  10.8500    0.077  0.000 ?  0.00      ?
$GPGSA,A,3,14,11,01,22,,,,,,,,,4.5,3.0,3.2*35
GPSD,O=GSA 1118263361.08 0.005 53.525853 -113.528688  638.20  0.00  0.00  10.8500    0.077  0.000 ?      ?      ?
$GPGSV,3,1,10,14,70,069,45,01,65,235,44,11,43,279,43,25,35,172,40*7D
$GPGSV,3,2,10,22,31,110,42,05,14,055,00,20,11,291,00,30,08,095,00*72
$GPGSV,3,3,10,07,06,342,00,09,05,032,00*71
GPSD,Y=GSV ? 10:14 70 69 45 1:1 65 235 44 1:11 43 279 43 1:25 35 172 40 0:22 31 110 42 1:5 14 55 0 0:20 11 291 0 0:30 8 95 0 0:7 6 342 0 0:9 5 32 0 0:
$GPRMC,204241.080,A,5331.5512,N,11331.7213,W,0.139079,11.32,080605,,*26
GPSD,O=RMC 1118263361.08 0.005 53.525853 -113.528688  638.20  0.00  0.00  11.3200    0.072  0.000 ?      ?      ?
$GPGGA,204242.080,5331.5504,N,11331.7216,W,1,04,3.0,638.8,M,-19.7,M,0.0,0000*49
GPSD,O=GGA 1118263362.08 0.005 53.525840 -113.528693  638.80  0.00  0.00  11.3200    0.072  0.600 ?  0.00      ?
$GPGSA,A,3,14,11,01,22,,,,,,,,,4.5,3.0,3.2*35
GPSD,O=GSA 1118263362.08 0.005 53.525840 -113.528693  638.80  0.00  0.00  11.3200    0.072  0.600 ?      ?      ?
$GPRMC,204242.080,A,5331.5504,N,11331.7216,W,0.121292,6.90,080605,,*17
GPSD,O=RMC 1118263362.08 0.005 53.525840 -113.528693  638.80  0.00  0.00   6.9000    0.062  0.600 ?      ?      ?
$GPGGA,204243.080,5331.5499,N,11331.7216,W,1,04,3.0,639.7,M,-19.7,M,0.0,0000*43
GPSD,O=GGA 1118263363.08 0.005 53.525832 -113.528693  639.70  0.00  0.00   6.9000    0.062  0.900 ?  0.00      ?
$GPGSA,A,3,14,11,01,22,,,,,,,,,4.5,3.0,3.2*35
GPSD,O=GSA 1118263363.08 0.005 53.525832 -113.528693  639.70  0.00  0.00   6.9000    0.062  0.900 ?      ?      ?
$GPRMC,204243.080,A,5331.5499,N,11331.7216,W,0.115521,12.66,080605,,*27
GPSD,O=RMC 1118263363.08 0.005 53.525832 -113.528693  639.70  0.00  0.00  12.6600    0.059  0.900 ?      ?      ?
$GPGGA,204244.080,5331.5492,N,11331.7216,W,1,04,3.0,640.8,M,-19.7,M,0.0,0000*4E
GPSD,O=GGA 1118263364.08 0.005 53.525820 -113.528693  640.80  0.00  0.00  12.6600    0.059  1.100 ?  0.00      ?
$GPGSA,A,3,14,11,01,22,,,,,,,,,4.5,3.0,3.2*35
GPSD,O=GSA 1118263364.08 0.005 53.525820 -113.528693  640.80  0.00  0.00  12.6600    0.059  1.100 ?      ?      ?
$GPRMC,204244.080,A,5331.5492,N,11331.7216,W,0.137719,7.17,080605,,*10
GPSD,O=RMC 1118263364.08 0.005 53.525820 -113.528693  640.80  0.00  0.00   7.1700    0.071  1.100 ?      ?      ?
$GPGGA,204245.080,5331.5485,N,11331.7215,W,1,04,3.0,641.9,M,-19.7,M,0.0,0000*4A
GPSD,O=GGA 1118263365.08 0.005 53.525808 -113.528692  641.90  0.00  0.00   7.1700    0.071  1.100 ?  0.00      ?
$GPGSA,A,3,14,11,01,22,,,,,,,,,4.5,3.0,3.2*35
GPSD,O=GSA 1118263365.08 0.005 53.525808 -113.528692  641.90  0.00  0.00   7.1700    0.071  1.100 ?      ?      ?
$GPRMC,204245.080,A,5331.5485,N,11331.7215,W,0.150928,12.38,080605,,*20
GPSD,O=RMC 1118263365.08 0.005 53.525808 -113.528692  641.90  0.00  0.00  12.3800    0.078  1.100 ?      ?      ?
$GPGGA,204246.080,5331.5478,N,11331.7214,W,1,04,3.0,642.9,M,-19.7,M,0.0,0000*49
GPSD,O=GGA 1118263366.08 0.005 53.525797 -113.528690  642.90  0.00  0.00  12.3800    0.078  1.000 ?  0.00      ?
$GPGSA,A,3,14,11,01,22,,,,,,,,,4.5,3.0,3.2*35
GPSD,O=GSA 1118263366.08 0.005 53.525797 -113.528690  642.90  0.00  0.00  12.3800    0.078  1.000 ?      ?      ?
$GPGSV,3,1,10,14,70,069,46,01,65,235,44,11,43,279,44,25,35,172,40*79
$GPGSV,3,2,10,22,31,110,42,05,14,055,00,20,11,291,00,30,08,095,00*72
$GPGSV,3,3,10,07,06,342,00,09,05,032,00*71
GPSD,Y=GSV ? 10:14 70 69 46 1:1 65 235 44 1:11 43 279 44 1:25 35 172 40 0:22 31 110 42 1:5 14 55 0 0:20 11 291 0 0:30 8 95 0 0:7 6 342 0 0:9 5 32 0 0:
$GPRMC,204246.080,A,5331.5478,N,11331.7214,W,0.125084,10.21,080605,,*27
GPSD,O=RMC 1118263366.08 0.005 53.525797 -113.528690  642.90  0.00  0.00  10.2100    0.064  1.000 ?      ?      ?
$GPGGA,204247.080,5331.5473,N,11331.7212,W,1,04,3.0,643.4,M,-19.7,M,0.0,0000*49
GPSD,O=GGA 1118263367.08 0.005 53.525788 -113.528687  643.40  0.00  0.00  10.2100    0.064  0.500 ?  0.00      ?
$GPGSA,A,3,14,11,01,22,,,,,,,,,4.5,3.0,3.2*35
GPSD,O=GSA 1118263367.08 0.005 53.525788 -113.528687  643.40  0.00  0.00  10.2100    0.064  0.500 ?      ?      ?
$GPRMC,204247.080,A,5331.5473,N,11331.7212,W,0.124798,14.10,080605,,*26
GPSD,O=RMC 1118263367.08 0.005 53.525788 -113.528687  643.40  0.00  0.00  14.1000    0.064  0.500 ?      ?      ?
$GPGGA,204248.080,5331.5468,N,11331.7210,W,1,04,3.0,643.7,M,-19.7,M,0.0,0000*4D
GPSD,O=GGA 1118263368.08 0.005 53.525780 -113.528683  643.70  0.00  0.00  14.1000    0.064  0.300 ?  0.00      ?
$GPGSA,A,3,14,11,01,22,,,,,,,,,4.5,3.0,3.2*35
GPSD,O=GSA 1118263368.08 0.005 53.525780 -113.528683  643.70  0.00  0.00  14.1000    0.064  0.300 ?      ?      ?
$GPRMC,204248.080,A,5331.5468,N,11331.7210,W,0.141363,6.79,080605,,*1E
GPSD,O=RMC 1118263368.08 0.005 53.525780 -113.528683  643.70  0.00  0.00   6.7900    0.073  0.300 ?      ?      ?
$GPGGA,204249.080,5331.5464,N,11331.7207,W,1,04,3.0,644.3,M,-19.7,M,0.0,0000*45
GPSD,O=GGA 1118263369.08 0.005 53.525773 -113.528678  644.30  0.00  0.00   6.7900    0.073  0.600 ?  0.00      ?
$GPGSA,A,3,14,11,01,22,,,,,,,,,4.5,3.0,3.2*35
GPSD,O=GSA 1118263369.08 0.005 53.525773 -113.528678  644.30  0.00  0.00   6.7900    0.073  0.600 ?      ?      ?
$GPRMC,204249.080,A,5331.5464,N,11331.7207,W,0.114464,15.33,080605,,*29
GPSD,O=RMC 1118263369.08 0.005 53.525773 -113.528678  644.30  0.00  0.00  15.3300    0.059  0.600 ?      ?      ?
$GPGGA,204250.080,5331.5462,N,11331.7203,W,1,04,3.0,645.3,M,-19.7,M,0.0,0000*4E
GPSD,O=GGA 1118263370.08 0.005 53.525770 -113.528672  645.30  0.00  0.00  15.3300    0.059  1.000 ?  0.00      ?
$GPGSA,A,3,14,11,01,22,,,,,,,,,4.5,3.0,3.2*35
GPSD,O=GSA 1118263370.08 0.005 53.525770 -113.528672  645.30  0.00  0.00  15.3300    0.059  1.000 ?      ?      ?
$GPRMC,204250.080,A,5331.5462,N,11331.7203,W,0.136265,10.24,080605,,*27
GPSD,O=RMC 1118263370.08 0.005 53.525770 -113.528672  645.30  0.00  0.00  10.2400    0.070  1.000 ?      ?      ?
$GPGGA,204251.080,5331.5461,N,11331.7199,W,1,04,3.0,646.3,M,-19.7,M,0.0,0000*4F
GPSD,O=GGA 1118263371.08 0.005 53.525768 -113.528665  646.30  0.00  0.00  10.2400    0.070  1.000 ?  0.00      ?
$GPGSA,A,3,14,11,01,22,,,,,,,,,4.5,3.0,3.2*35
GPSD,O=GSA 1118263371.08 0.005 53.525768 -113.528665  646.30  0.00  0.00  10.2400    0.070  1.000 ?      ?      ?
$GPGSV,3,1,09,14,69,069,45,01,66,235,43,11,43,279,45,25,35,172,39*71
$GPGSV,3,2,09,22,31,110,41,05,14,054,00,20,11,291,00,30,09,095,00*79
$GPGSV,3,3,09,07,06,342,00*44
GPSD,Y=GSV ? 9:14 69 69 45 1:1 66 235 43 1:11 43 279 45 1:25 35 172 39 0:22 31 110 41 1:5 14 54 0 0:20 11 291 0 0:30 9 95 0 0:7 6 342 0 0:
$GPRMC,204251.080,A,5331.5461,N,11331.7199,W,0.119978,16.11,080605,,*2F
GPSD,O=RMC 1118263371.08 0.005 53.525768 -113.528665  646.30  0.00  0.00  16.1100    0.062  1.000 ?      ?      ?
$GPGGA,204252.079,5331.5461,N,11331.7194,W,1,04,3.0,646.9,M,-19.7,M,0.0,0000*4D
GPSD,O=GGA 1118263372.08 0.005 53.525768 -113.528657  646.90  0.00  0.00  16.1100    0.062  0.601 ?  0.00      ?
$GPGSA,A,3,14,11,01,22,,,,,,,,,4.5,3.0,3.2*35
GPSD,O=GSA 1118263372.08 0.005 53.525768 -113.528657  646.90  0.00  0.00  16.1100    0.062  0.601 ?      ?      ?
$GPRMC,204252.079,A,5331.5461,N,11331.7194,W,0.146637,10.04,080605,,*2B
GPSD,O=RMC 1118263372.08 0.005 53.525768 -113.528657  646.90  0.00  0.00  10.0400    0.075  0.601 ?      ?      ?
$GPGGA,204253.079,5331.5463,N,11331.7191,W,1,04,3.0,647.0,M,-19.7,M,0.0,0000*43
GPSD,O=GGA 1118263373.08 0.005 53.525772 -113.528652  647.00  0.00  0.00  10.0400    0.075  0.100 ?  0.00      ?
$GPGSA,A,3,14,11,01,22,,,,,,,,,4.5,3.0,3.2*35
GPSD,O=GSA 1118263373.08 0.005 53.525772 -113.528652  647.00  0.00  0.00  10.0400    0.075  0.100 ?      ?      ?
$GPRMC,204253.079,A,5331.5463,N,11331.7191,W,0.132413,12.14,080605,,*29
GPSD,O=RMC 1118263373.08 0.005 53.525772 -113.528652  647.00  0.00  0.00  12.1400    0.068  0.100 ?      ?      ?
$GPGGA,204254.079,5331.5466,N,11331.7186,W,1,04,3.0,647.2,M,-19.7,M,0.0,0000*45
GPSD,O=GGA 1118263374.08 0.005 53.525777 -113.528643  647.20  0.00  0.00  12.1400    0.068  0.200 ?  0.00      ?
$GPGSA,A,3,14,11,01,22,,,,,,,,,4.5,3.0,3.2*35
GPSD,O=GSA 1118263374.08 0.005 53.525777 -113.528643  647.20  0.00  0.00  12.1400    0.068  0.200 ?      ?      ?
$GPRMC,204254.079,A,5331.5466,N,11331.7186,W,0.140612,12.82,080605,,*24
GPSD,O=RMC 1118263374.08 0.005 53.525777 -113.528643  647.20  0.00  0.00  12.8200    0.072  0.200 ?      ?      ?
$GPGGA,204255.079,5331.5468,N,11331.7181,W,1,04,3.0,647.3,M,-19.7,M,0.0,0000*4C
GPSD,O=GGA 1118263375.08 0.005 53.525780 -113.528635  647.30  0.00  0.00  12.8200    0.072  0.100 ?  0.00      ?
$GPGSA,A,3,14,11,01,22,,,,,,,,,4.5,3.0,3.2*35
GPSD,O=GSA 1118263375.08 0.005 53.525780 -113.528635  647.30  0.00  0.00  12.8200    0.072  0.100 ?      ?      ?
$GPRMC,204255.079,A,5331.5468,N,11331.7181,W,0.126574,7.64,080605,,*13
GPSD,O=RMC 1118263375.08 0.005 53.525780 -113.528635  647.30  0.00  0.00   7.6400    0.065  0.100 ?      ?      ?
$GPGGA,204256.079,5331.5470,N,11331.7176,W,1,04,3.0,647.1,M,-19.7,M,0.0,0000*4C
GPSD,O=GGA 1118263376.08 0.005 53.525783 -113.528627  647.10  0.00  0.00   7.6400    0.065 -0.200 ?  0.00      ?
$GPGSA,A,3,14,11,01,22,,,,,,,,,4.5,3.0,3.2*35
GPSD,O=GSA 1118263376.08 0.005 53.525783 -113.528627  647.10  0.00  0.00   7.6400    0.065 -0.200 ?      ?      ?
$GPGSV,3,1,09,14,69,069,44,01,66,235,45,11,43,279,45,25,35,172,38*77
$GPGSV,3,2,09,22,31,110,41,05,14,054,00,20,11,291,00,30,09,095,00*79
$GPGSV,3,3,09,07,06,342,00*44
GPSD,Y=GSV ? 9:14 69 69 44 1:1 66 235 45 1:11 43 279 45 1:25 35 172 38 0:22 31 110 41 1:5 14 54 0 0:20 11 291 0 0:30 9 95 0 0:7 6 342 0 0:
$GPRMC,204256.079,A,5331.5470,N,11331.7176,W,0.132700,12.27,080605,,*26
GPSD,O=RMC 1118263376.08 0.005 53.525783 -113.528627  647.10  0.00  0.00  12.2700    0.068 -0.200 ?      ?      ?
$GPGGA,204257.079,5331.5473,N,11331.7172,W,1,04,3.0,646.7,M,-19.7,M,0.0,0000*4D
GPSD,O=GGA 1118263377.08 0.005 53.525788 -113.528620  646.70  0.00  0.00  12.2700    0.068 -0.400 ?  0.00      ?
$GPGSA,A,3,14,11,01,22,,,,,,,,,4.5,3.0,3.2*35
GPSD,O=GSA 1118263377.08 0.005 53.525788 -113.528620  646.70  0.00  0.00  12.2700    0.068 -0.400 ?      ?      ?
$GPRMC,204257.079,A,5331.5473,N,11331.7172,W,0.126754,11.60,080605,,*24
GPSD,O=RMC 1118263377.08 0.005 53.525788 -113.528620  646.70  0.00  0.00  11.6000    0.065 -0.400 ?      ?      ?
$GPGGA,204258.079,5331.5476,N,11331.7170,W,1,04,3.0,646.4,M,-19.7,M,0.0,0000*46
GPSD,O=GGA 1118263378.08 0.005 53.525793 -113.528617  646.40  0.00  0.00  11.6000    0.065 -0.300 ?  0.00      ?
$GPGSA,A,3,14,11,01,22,,,,,,,,,4.5,3.0,3.2*35
GPSD,O=GSA 1118263378.08 0.005 53.525793 -113.528617  646.40  0.00  0.00  11.6000    0.065 -0.300 ?      ?      ?
$GPRMC,204258.079,A,5331.5476,N,11331.7170,W,0.161638,12.10,080605,,*20
GPSD,O=RMC 1118263378.08 0.005 53.525793 -113.528617  646.40  0.00  0.00  12.1000    0.083 -0.300 ?      ?      ?
$GPGGA,204259.079,5331.5478,N,11331.7170,W,1,04,3.0,646.1,M,-19.7,M,0.0,0000*4C
GPSD,O=GGA 1118263379.08 0.005 53.525797 -113.528617  646.10  0.00  0.00  12.1000    0.083 -0.300 ?  0.00      ?
$GPGSA,A,3,14,11,01,22,,,,,,,,,4.5,3.0,3.2*35
GPSD,O=GSA 1118263379.08 0.005 53.525797 -113.528617  646.10  0.00  0.00  12.1000    0.083 -0.300 ?      ?      ?
$GPRMC,204259.079,A,5331.5478,N,11331.7170,W,0.116472,8.50,080605,,*1C
GPSD,O=RMC 1118263379.08 0.005 53.525797 -113.528617  646.10  0.00  0.00   8.5000    0.060 -0.300 ?      ?      ?
$GPGGA,204300.079,5331.5478,N,11331.7171,W,1,04,3.0,645.8,M,-19.7,M,0.0,0000*4A
GPSD,O=GGA 1118263380.08 0.005 53.525797 -113.528618  645.80  0.00  0.00   8.5000    0.060 -0.300 ?  0.00      ?
$GPGSA,A,3,14,11,01,22,,,,,,,,,4.5,3.0,3.2*35
GPSD,O=GSA 1118263380.08 0.005 53.525797 -113.528618  645.80  0.00  0.00   8.5000    0.060 -0.300 ?      ?      ?
$GPRMC,204300.079,A,5331.5478,N,11331.7171,W,0.152329,11.33,080605,,*24
GPSD,O=RMC 1118263380.08 0.005 53.525797 -113.528618  645.80  0.00  0.00  11.3300    0.078 -0.300 ?      ?      ?
$GPGGA,204301.079,5331.5479,N,11331.7173,W,1,04,3.0,645.7,M,-19.7,M,0.0,0000*47
GPSD,O=GGA 1118263381.08 0.005 53.525798 -113.528622  645.70  0.00  0.00  11.3300    0.078 -0.100 ?  0.00      ?
$GPGSA,A,3,14,11,01,22,,,,,,,,,4.5,3.0,3.2*35
GPSD,O=GSA 1118263381.08 0.005 53.525798 -113.528622  645.70  0.00  0.00  11.3300    0.078 -0.100 ?      ?      ?
$GPGSV,3,1,09,14,69,069,45,01,66,236,45,11,43,279,45,25,35,172,37*7A
$GPGSV,3,2,09,22,31,110,42,05,14,054,00,20,11,291,00,30,09,095,00*7A
$GPGSV,3,3,09,07,06,342,00*44
GPSD,Y=GSV ? 9:14 69 69 45 1:1 66 236 45 1:11 43 279 45 1:25 35 172 37 0:22 31 110 42 1:5 14 54 0 0:20 11 291 0 0:30 9 95 0 0:7 6 342 0 0:
$GPRMC,204301.079,A,5331.5479,N,11331.7173,W,0.129858,12.15,080605,,*20
GPSD,O=RMC 1118263381.08 0.005 53.525798 -113.528622  645.70  0.00  0.00  12.1500    0.067 -0.100 ?      ?      ?
$GPGGA,204302.079,5331.5479,N,11331.7175,W,1,04,3.0,645.5,M,-19.7,M,0.0,0000*40
GPSD,O=GGA 1118263382.08 0.005 53.525798 -113.528625  645.50  0.00  0.00  12.1500    0.067 -0.200 ?  0.00      ?
$GPGSA,A,3,14,11,01,22,,,,,,,,,4.5,3.0,3.2*35
GPSD,O=GSA 1118263382.08 0.005 53.525798 -113.528625  645.50  0.00  0.00  12.1500    0.067 -0.200 ?      ?      ?
$GPRMC,204302.079,A,5331.5479,N,11331.7175,W,0.131102,10.88,080605,,*2C
GPSD,O=RMC 1118263382.08 0.005 53.525798 -113.528625  645.50  0.00  0.00  10.8800    0.067 -0.200 ?      ?      ?
$GPGGA,204303.079,5331.5480,N,11331.7177,W,1,04,3.0,645.0,M,-19.7,M,0.0,0000*40
GPSD,O=GGA 1118263383.08 0.005 53.525800 -113.528628  645.00  0.00  0.00  10.8800    0.067 -0.500 ?  0.00      ?
$GPGSA,A,3,14,11,01,22,,,,,,,,,4.5,3.0,3.2*35
GPSD,O=GSA 1118263383.08 0.005 53.525800 -113.528628  645.00  0.00  0.00  10.8800    0.067 -0.500 ?      ?      ?
$GPRMC,204303.079,A,5331.5480,N,11331.7177,W,0.124858,8.67,080605,,*13
GPSD,O=RMC 1118263383.08 0.005 53.525800 -113.528628  645.00  0.00  0.00   8.6700    0.064 -0.500 ?      ?      ?
$GPGGA,204304.079,5331.5480,N,11331.7180,W,1,04,3.0,644.8,M,-19.7,M,0.0,0000*46
GPSD,O=GGA 1118263384.08 0.005 53.525800 -113.528633  644.80  0.00  0.00   8.6700    0.064 -0.200 ?  0.00      ?
$GPGSA,A,3,14,11,01,22,,,,,,,,,4.5,3.0,3.2*35
GPSD,O=GSA 1118263384.08 0.005 53.525800 -113.528633  644.80  0.00  0.00   8.6700    0.064 -0.200 ?      ?      ?
$GPRMC,204304.079,A,5331.5480,N,11331.7180,W,0.122355,9.39,080605,,*16
GPSD,O=RMC 1118263384.08 0.005 53.525800 -113.528633  644.80  0.00  0.00   9.3900    0.063 -0.200 ?      ?      ?
$GPGGA,204305.079,5331.5480,N,11331.7184,W,1,04,3.0,644.5,M,-19.7,M,0.0,0000*4E
GPSD,O=GGA 1118263385.08 0.005 53.525800 -113.528640  644.50  0.00  0.00   9.3900    0.063 -0.300 ?  0.00      ?
$GPGSA,A,3,14,11,01,22,,,,,,,,,4.5,3.0,3.2*35
GPSD,O=GSA 1118263385.08 0.005 53.525800 -113.528640  644.50  0.00  0.00   9.3900    0.063 -0.300 ?      ?      ?
$GPRMC,204305.079,A,5331.5480,N,11331.7184,W,0.128085,8.53,080605,,*1A
GPSD,O=RMC 1118263385.08 0.005 53.525800 -113.528640  644.50  0.00  0.00   8.5300    0.066 -0.300 ?      ?      ?
$GPGGA,204306.079,5331.5480,N,11331.7188,W,1,04,3.0,643.9,M,-19.7,M,0.0,0000*4A
GPSD,O=GGA 1118263386.08 0.005 53.525800 -113.528647  643.90  0.00  0.00   8.5300    0.066 -0.600 ?  0.00      ?
$GPGSA,A,3,14,11,01,22,,,,,,,,,4.5,3.0,3.2*35
GPSD,O=GSA 1118263386.08 0.005 53.525800 -113.528647  643.90  0.00  0.00   8.5300    0.066 -0.600 ?      ?      ?
$GPGSV,3,1,09,14,69,069,46,01,66,236,44,11,43,279,45,25,35,172,37*78
$GPGSV,3,2,09,22,31,110,41,05,14,054,00,20,11,291,00,30,09,095,00*79
$GPGSV,3,3,09,07,06,342,00*44
GPSD,Y=GSV ? 9:14 69 69 46 1:1 66 236 44 1:11 43 279 45 1:25 35 172 37 0:22 31 110 41 1:5 14 54 0 0:20 11 291 0 0:30 9 95 0 0:7 6 342 0 0:
$GPRMC,204306.079,A,5331.5480,N,11331.7188,W,0.133571,9.46,080605,,*14
GPSD,O=RMC 1118263386.08 0.005 53.525800 -113.528647  643.90  0.00  0.00   9.4600    0.069 -0.600 ?      ?      ?
$GPGGA,204307.079,5331.5481,N,11331.7191,W,1,04,3.0,643.5,M,-19.7,M,0.0,0000*4E
GPSD,O=GGA 1118263387.08 0.005 53.525802 -113.528652  643.50  0.00  0.00   9.4600    0.069 -0.400 ?  0.00      ?
$GPGSA,A,3,14,11,01,22,,,,,,,,,4.5,3.0,3.2*35
GPSD,O=GSA 1118263387.08 0.005 53.525802 -113.528652  643.50  0.00  0.00   9.4600    0.069 -0.400 ?      ?      ?
$GPRMC,204307.079,A,5331.5481,N,11331.7191,W,0.124310,14.08,080605,,*2D
GPSD,O=RMC 1118263387.08 0.005 53.525802 -113.528652  643.50  0.00  0.00  14.0800    0.064 -0.400 ?      ?      ?
$GPGGA,204308.079,5331.5482,N,11331.7192,W,1,04,3.0,642.9,M,-19.7,M,0.0,0000*4C
GPSD,O=GGA 1118263388.08 0.005 53.525803 -113.528653  642.90  0.00  0.00  14.0800    0.064 -0.600 ?  0.00      ?
$GPGSA,A,3,14,11,01,22,,,,,,,,,4.5,3.0,3.2*35
GPSD,O=GSA 1118263388.08 0.005 53.525803 -113.528653  642.90  0.00  0.00  14.0800    0.064 -0.600 ?      ?      ?
$GPRMC,204308.079,A,5331.5482,N,11331.7192,W,0.118716,6.99,080605,,*14
GPSD,O=RMC 1118263388.08 0.005 53.525803 -113.528653  642.90  0.00  0.00   6.9900    0.061 -0.600 ?      ?      ?
$GPGGA,204309.078,5331.5482,N,11331.7194,W,1,04,3.0,642.7,M,-19.7,M,0.0,0000*44
GPSD,O=GGA 1118263389.08 0.005 53.525803 -113.528657  642.70  0.00  0.00   6.9900    0.061 -0.200 ?  0.00      ?
$GPGSA,A,3,14,11,01,22,,,,,,,,,4.5,3.0,3.2*35
GPSD,O=GSA 1118263389.08 0.005 53.525803 -113.528657  642.70  0.00  0.00   6.9900    0.061 -0.200 ?      ?      ?
$GPRMC,204309.078,A,5331.5482,N,11331.7194,W,0.136688,10.84,080605,,*23
GPSD,O=RMC 1118263389.08 0.005 53.525803 -113.528657  642.70  0.00  0.00  10.8400    0.070 -0.200 ?      ?      ?
$GPGGA,204310.078,5331.5483,N,11331.7196,W,1,04,3.0,642.6,M,-19.7,M,0.0,0000*4E
GPSD,O=GGA 1118263390.08 0.005 53.525805 -113.528660  642.60  0.00  0.00  10.8400    0.070 -0.100 ?  0.00      ?
$GPGSA,A,3,14,11,01,22,,,,,,,,,4.5,3.0,3.2*35
GPSD,O=GSA 1118263390.08 0.005 53.525805 -113.528660  642.60  0.00  0.00  10.8400    0.070 -0.100 ?      ?      ?
$GPRMC,204310.078,A,5331.5483,N,11331.7196,W,0.144666,12.47,080605,,*20
GPSD,O=RMC 1118263390.08 0.005 53.525805 -113.528660  642.60  0.00  0.00  12.4700    0.074 -0.100 ?      ?      ?
$GPGGA,204311.078,5331.5483,N,11331.7196,W,1,04,3.0,642.4,M,-19.7,M,0.0,0000*4D
GPSD,O=GGA 1118263391.08 0.005 53.525805 -113.528660  642.40  0.00  0.00  12.4700    0.074 -0.200 ?  0.00      ?
$GPGSA,A,3,14,11,01,22,,,,,,,,,4.5,3.0,3.2*35
GPSD,O=GSA 1118263391.08 0.005 53.525805 -113.528660  642.40  0.00  0.00  12.4700    0.074 -0.200 ?      ?      ?
$GPGSV,3,1,09,14,69,069,46,01,66,236,45,11,43,279,45,25,35,172,38*76
$GPGSV,3,2,09,22,31,110,42,05,14,054,00,20,11,291,00,30,09,095,00*7A
$GPGSV,3,3,09,07,06,342,00*44
GPSD,Y=GSV ? 9:14 69 69 46 1:1 66 236 45 1:11 43 279 45 1:25 35 172 38 0:22 31 110 42 1:5 14 54 0 0:20 11 291 0 0:30 9 95 0 0:7 6 342 0 0:
$GPRMC,204311.078,A,5331.5483,N,11331.7196,W,0.142840,12.03,080605,,*2D
GPSD,O=RMC 1118263391.08 0.005 53.525805 -113.528660  642.40  0.00  0.00  12.0300    0.073 -0.200 ?      ?      ?
$GPGGA,204312.078,5331.5484,N,11331.7195,W,1,04,3.0,642.1,M,-19.7,M,0.0,0000*4F
GPSD,O=GGA 1118263392.08 0.005 53.525807 -113.528658  642.10  0.00  0.00  12.0300    0.073 -0.300 ?  0.00      ?
$GPGSA,A,3,14,11,01,22,,,,,,,,,4.5,3.0,3.2*35
GPSD,O=GSA 1118263392.08 0.005 53.525807 -113.528658  642.10  0.00  0.00  12.0300    0.073 -0.300 ?      ?      ?
$GPRMC,204312.078,A,5331.5484,N,11331.7195,W,0.143674,11.86,080605,,*2C
GPSD,O=RMC 1118263392.08 0.005 53.525807 -113.528658  642.10  0.00  0.00  11.8600    0.074 -0.300 ?      ?      ?
$GPGGA,204313.078,5331.5484,N,11331.7192,W,1,04,3.0,641.6,M,-19.7,M,0.0,0000*4D
GPSD,O=GGA 1118263393.08 0.005 53.525807 -113.528653  641.60  0.00  0.00  11.8600    0.074 -0.500 ?  0.00      ?
$GPGSA,A,3,14,11,01,22,,,,,,,,,4.5,3.0,3.2*35
GPSD,O=GSA 1118263393.08 0.005 53.525807 -113.528653  641.60  0.00  0.00  11.8600    0.074 -0.500 ?      ?      ?
$GPRMC,204313.078,A,5331.5484,N,11331.7192,W,0.147173,12.72,080605,,*26
GPSD,O=RMC 1118263393.08 0.005 53.525807 -113.528653  641.60  0.00  0.00  12.7200    0.076 -0.500 ?      ?      ?
$GPGGA,204314.078,5331.5484,N,11331.7188,W,1,04,3.0,641.9,M,-19.7,M,0.0,0000*4E
GPSD,O=GGA 1118263394.08 0.005 53.525807 -113.528647  641.90  0.00  0.00  12.7200    0.076  0.300 ?  0.00      ?
$GPGSA,A,3,14,11,01,22,,,,,,,,,4.5,3.0,3.2*35
GPSD,O=GSA 1118263394.08 0.005 53.525807 -113.528647  641.90  0.00  0.00  12.7200    0.076  0.300 ?      ?      ?
$GPRMC,204314.078,A,5331.5484,N,11331.7188,W,0.126738,11.52,080605,,*25
GPSD,O=RMC 1118263394.08 0.005 53.525807 -113.528647  641.90  0.00  0.00  11.5200    0.065  0.300 ?      ?      ?
$GPGGA,204315.078,5331.5483,N,11331.7182,W,1,04,3.0,642.2,M,-19.7,M,0.0,0000*4A
GPSD,O=GGA 1118263395.08 0.005 53.525805 -113.528637  642.20  0.00  0.00  11.5200    0.065  0.300 ?  0.00      ?
$GPGSA,A,3,14,11,01,22,,,,,,,,,4.5,3.0,3.2*35
GPSD,O=GSA 1118263395.08 0.005 53.525805 -113.528637  642.20  0.00  0.00  11.5200    0.065  0.300 ?      ?      ?
$GPRMC,204315.078,A,5331.5483,N,11331.7182,W,0.117195,10.29,080605,,*27
GPSD,O=RMC 1118263395.08 0.005 53.525805 -113.528637  642.20  0.00  0.00  10.2900    0.060  0.300 ?      ?      ?
$GPGGA,204316.078,5331.5482,N,11331.7176,W,1,04,3.0,642.5,M,-19.7,M,0.0,0000*44
GPSD,O=GGA 1118263396.08 0.005 53.525803 -113.528627  642.50  0.00  0.00  10.2900    0.060  0.300 ?  0.00      ?
$GPGSA,A,3,14,11,01,22,,,,,,,,,4.5,3.0,3.2*35
GPSD,O=GSA 1118263396.08 0.005 53.525803 -113.528627  642.50  0.00  0.00  10.2900    0.060  0.300 ?      ?      ?
$GPGSV,3,1,09,14,69,069,45,01,66,236,45,11,43,279,45,25,35,172,39*74
$GPGSV,3,2,09,22,31,110,41,05,14,054,00,20,11,291,00,30,09,095,00*79
$GPGSV,3,3,09,07,06,342,00*44
GPSD,Y=GSV ? 9:14 69 69 45 1:1 66 236 45 1:11 43 279 45 1:25 35 172 39 0:22 31 110 41 1:5 14 54 0 0:20 11 291 0 0:30 9 95 0 0:7 6 342 0 0:
$GPRMC,204316.078,A,5331.5482,N,11331.7176,W,0.148535,12.87,080605,,*2C
GPSD,O=RMC 1118263396.08 0.005 53.525803 -113.528627  642.50  0.00  0.00  12.8700    0.076  0.300 ?      ?      ?
$GPGGA,204317.078,5331.5482,N,11331.7171,W,1,04,3.0,642.2,M,-19.7,M,0.0,0000*45
GPSD,O=GGA 1118263397.08 0.005 53.525803 -113.528618  642.20  0.00  0.00  12.8700    0.076 -0.300 ?  0.00      ?
$GPGSA,A,3,14,11,01,22,,,,,,,,,4.5,3.0,3.2*35
GPSD,O=GSA 1118263397.08 0.005 53.525803 -113.528618  642.20  0.00  0.00  12.8700    0.076 -0.300 ?      ?      ?
$GPRMC,204317.078,A,5331.5482,N,11331.7171,W,0.144943,10.87,080605,,*29
GPSD,O=RMC 1118263397.08 0.005 53.525803 -113.528618  642.20  0.00  0.00  10.8700    0.075 -0.300 ?      ?      ?
$GPGGA,204318.078,5331.5481,N,11331.7168,W,1,04,3.0,641.6,M,-19.7,M,0.0,0000*46
GPSD,O=GGA 1118263398.08 0.005 53.525802 -113.528613  641.60  0.00  0.00  10.8700    0.075 -0.600 ?  0.00      ?
$GPGSA,A,3,14,11,01,22,,,,,,,,,4.5,3.0,3.2*35
GPSD,O=GSA 1118263398.08 0.005 53.525802 -113.528613  641.60  0.00  0.00  10.8700    0.075 -0.600 ?      ?      ?
$GPRMC,204318.078,A,5331.5481,N,11331.7168,W,0.133662,10.30,080605,,*2D
GPSD,O=RMC 1118263398.08 0.005 53.525802 -113.528613  641.60  0.00  0.00  10.3000    0.069 -0.600 ?      ?      ?
$GPGGA,204319.078,5331.5481,N,11331.7164,W,1,04,3.0,641.0,M,-19.7,M,0.0,0000*4D
GPSD,O=GGA 1118263399.08 0.005 53.525802 -113.528607  641.00  0.00  0.00  10.3000    0.069 -0.600 ?  0.00      ?
$GPGSA,A,3,14,11,01,22,,,,,,,,,4.5,3.0,3.2*35
GPSD,O=GSA 1118263399.08 0.005 53.525802 -113.528607  641.00  0.00  0.00  10.3000    0.069 -0.600 ?      ?      ?
$GPRMC,204319.078,A,5331.5481,N,11331.7164,W,0.130458,13.11,080605,,*28
GPSD,O=RMC 1118263399.08 0.005 53.525802 -113.528607  641.00  0.00  0.00  13.1100    0.067 -0.600 ?      ?      ?
$GPGGA,204320.078,5331.5480,N,11331.7159,W,1,04,3.0,640.7,M,-19.7,M,0.0,0000*4E
GPSD,O=GGA 1118263400.08 0.005 53.525800 -113.528598  640.70  0.00  0.00  13.1100    0.067 -0.300 ?  0.00      ?
$GPGSA,A,3,14,11,01,22,,,,,,,,,4.5,3.0,3.2*35
GPSD,O=GSA 1118263400.08 0.005 53.525800 -113.528598  640.70  0.00  0.00  13.1100    0.067 -0.300 ?      ?      ?
$GPRMC,204320.078,A,5331.5480,N,11331.7159,W,0.126960,11.29,080605,,*25
GPSD,O=RMC 1118263400.08 0.005 53.525800 -113.528598  640.70  0.00  0.00  11.2900    0.065 -0.300 ?      ?      ?
$GPGGA,204321.078,5331.5479,N,11331.7154,W,1,04,3.0,640.2,M,-19.7,M,0.0,0000*41
GPSD,O=GGA 1118263401.08 0.005 53.525798 -113.528590  640.20  0.00  0.00  11.2900    0.065 -0.500 ?  0.00      ?
$GPGSA,A,3,14,11,01,22,,,,,,,,,4.5,3.0,3.2*35
GPSD,O=GSA 1118263401.08 0.005 53.525798 -113.528590  640.20  0.00  0.00  11.2900    0.065 -0.500 ?      ?      ?
$GPGSV,3,1,09,14,69,069,46,01,66,236,45,11,43,279,46,25,35,172,39*74
$GPGSV,3,2,09,22,31,110,42,05,14,054,00,20,12,291,00,30,09,095,00*79
$GPGSV,3,3,09,07,06,342,00*44
GPSD,Y=GSV ? 9:14 69 69 46 1:1 66 236 45 1:11 43 279 46 1:25 35 172 39 0:22 31 110 42 1:5 14 54 0 0:20 12 291 0 0:30 9 95 0 0:7 6 342 0 0:
$GPRMC,204321.078,A,5331.5479,N,11331.7154,W,0.144024,11.36,080605,,*2C
GPSD,O=RMC 1118263401.08 0.005 53.525798 -113.528590  640.20  0.00  0.00  11.3600    0.074 -0.500 ?      ?      ?
$GPGGA,204322.078,5331.5479,N,11331.7150,W,1,04,3.0,640.0,M,-19.7,M,0.0,0000*44
GPSD,O=GGA 1118263402.08 0.005 53.525798 -113.528583  640.00  0.00  0.00  11.3600    0.074 -0.200 ?  0.00      ?
$GPGSA,A,3,14,11,01,22,,,,,,,,,4.5,3.0,3.2*35
GPSD,O=GSA 1118263402.08 0.005 53.525798 -113.528583  640.00  0.00  0.00  11.3600    0.074 -0.200 ?      ?      ?
$GPRMC,204322.078,A,5331.5479,N,11331.7150,W,0.120293,12.09,080605,,*28
GPSD,O=RMC 1118263402.08 0.005 53.525798 -113.528583  640.00  0.00  0.00  12.0900    0.062 -0.200 ?      ?      ?
$GPGGA,204323.078,5331.5478,N,11331.7149,W,1,04,3.0,639.8,M,-19.7,M,0.0,0000*4A
GPSD,O=GGA 1118263403.08 0.005 53.525797 -113.528582  639.80  0.00  0.00  12.0900    0.062 -0.200 ?  0.00      ?
$GPGSA,A,3,14,11,01,22,,,,,,,,,4.5,3.0,3.2*35
GPSD,O=GSA 1118263403.08 0.005 53.525797 -113.528582  639.80  0.00  0.00  12.0900    0.062 -0.200 ?      ?      ?
$GPRMC,204323.078,A,5331.5478,N,11331.7149,W,0.123355,12.78,080605,,*2E
GPSD,O=RMC 1118263403.08 0.005 53.525797 -113.528582  639.80  0.00  0.00  12.7800    0.063 -0.200 ?      ?      ?
$GPGGA,204324.078,5331.5478,N,11331.7147,W,1,04,3.0,639.9,M,-19.7,M,0.0,0000*42
GPSD,O=GGA 1118263404.08 0.005 53.525797 -113.528578  639.90  0.00  0.00  12.7800    0.063  0.100 ?  0.00      ?
$GPGSA,A,3,14,11,01,22,,,,,,,,,4.5,3.0,3.2*35
GPSD,O=GSA 1118263404.08 0.005 53.525797 -113.528578  639.90  0.00  0.00  12.7800    0.063  0.100 ?      ?      ?
$GPRMC,204324.078,A,5331.5478,N,11331.7147,W,0.130795,8.87,080605,,*16
GPSD,O=RMC 1118263404.08 0.005 53.525797 -113.528578  639.90  0.00  0.00   8.8700    0.067  0.100 ?      ?      ?
$GPGGA,204325.077,5331.5478,N,11331.7145,W,1,04,3.0,640.4,M,-19.7,M,0.0,0000*4D
GPSD,O=GGA 1118263405.08 0.005 53.525797 -113.528575  640.40  0.00  0.00   8.8700    0.067  0.501 ?  0.00      ?
$GPGSA,A,3,14,11,01,22,,,,,,,,,4.5,3.0,3.2*35
GPSD,O=GSA 1118263405.08 0.005 53.525797 -113.528575  640.40  0.00  0.00   8.8700    0.067  0.501 ?      ?      ?
$GPRMC,204325.077,A,5331.5478,N,11331.7145,W,0.125977,11.33,080605,,*2B
GPSD,O=RMC 1118263405.08 0.005 53.525797 -113.528575  640.40  0.00  0.00  11.3300    0.065  0.501 ?      ?      ?
$GPGGA,204326.077,5331.5478,N,11331.7144,W,1,04,3.0,640.6,M,-19.7,M,0.0,0000*4D
GPSD,O=GGA 1118263406.08 0.005 53.525797 -113.528573  640.60  0.00  0.00  11.3300    0.065  0.200 ?  0.00      ?
$GPGSA,A,3,14,11,01,22,,,,,,,,,4.5,3.0,3.2*35
GPSD,O=GSA 1118263406.08 0.005 53.525797 -113.528573  640.60  0.00  0.00  11.3300    0.065  0.200 ?      ?      ?
$GPGSV,3,1,09,14,69,069,45,01,66,236,45,11,43,279,46,25,35,172,38*76
$GPGSV,3,2,09,22,31,110,42,05,14,054,00,20,12,291,00,30,09,095,00*79
$GPGSV,3,3,09,07,06,342,00*44
GPSD,Y=GSV ? 9:14 69 69 45 1:1 66 236 45 1:11 43 279 46 1:25 35 172 38 0:22 31 110 42 1:5 14 54 0 0:20 12 291 0 0:30 9 95 0 0:7 6 342 0 0:
$GPRMC,204326.077,A,5331.5478,N,11331.7144,W,0.139518,10.52,080605,,*27
GPSD,O=RMC 1118263406.08 0.005 53.525797 -113.528573  640.60  0.00  0.00  10.5200    0.072  0.200 ?      ?      ?
$GPGGA,204327.077,5331.5477,N,11331.7144,W,1,04,3.0,641.1,M,-19.7,M,0.0,0000*45
GPSD,O=GGA 1118263407.08 0.005 53.525795 -113.528573  641.10  0.00  0.00  10.5200    0.072  0.500 ?  0.00      ?
$GPGSA,A,3,14,11,01,22,,,,,,,,,4.5,3.0,3.2*35
GPSD,O=GSA 1118263407.08 0.005 53.525795 -113.528573  641.10  0.00  0.00  10.5200    0.072  0.500 ?      ?      ?
$GPRMC,204327.077,A,5331.5477,N,11331.7144,W,0.125304,11.33,080605,,*29
GPSD,O=RMC 1118263407.08 0.005 53.525795 -113.528573  641.10  0.00  0.00  11.3300    0.064  0.500 ?      ?      ?
$GPGGA,204328.077,5331.5477,N,11331.7146,W,1,04,3.0,641.7,M,-19.7,M,0.0,0000*4E
GPSD,O=GGA 1118263408.08 0.005 53.525795 -113.528577  641.70  0.00  0.00  11.3300    0.064  0.600 ?  0.00      ?
$GPGSA,A,3,14,11,01,22,,,,,,,,,4.5,3.0,3.2*35
GPSD,O=GSA 1118263408.08 0.005 53.525795 -113.528577  641.70  0.00  0.00  11.3300    0.064  0.600 ?      ?      ?
$GPRMC,204328.077,A,5331.5477,N,11331.7146,W,0.132804,13.54,080605,,*2A
GPSD,O=RMC 1118263408.08 0.005 53.525795 -113.528577  641.70  0.00  0.00  13.5400    0.068  0.600 ?      ?      ?
$GPGGA,204329.077,5331.5476,N,11331.7149,W,1,04,3.0,642.7,M,-19.7,M,0.0,0000*42
GPSD,O=GGA 1118263409.08 0.005 53.525793 -113.528582  642.70  0.00  0.00  13.5400    0.068  1.000 ?  0.00      ?
$GPGSA,A,3,14,11,01,22,,,,,,,,,4.5,3.0,3.2*35
GPSD,O=GSA 1118263409.08 0.005 53.525793 -113.528582  642.70  0.00  0.00  13.5400    0.068  1.000 ?      ?      ?
$GPRMC,204329.077,A,5331.5476,N,11331.7149,W,0.137621,11.12,080605,,*29
GPSD,O=RMC 1118263409.08 0.005 53.525793 -113.528582  642.70  0.00  0.00  11.1200    0.071  1.000 ?      ?      ?
$GPGGA,204330.077,5331.5476,N,11331.7151,W,1,04,3.0,643.9,M,-19.7,M,0.0,0000*4C
GPSD,O=GGA 1118263410.08 0.005 53.525793 -113.528585  643.90  0.00  0.00  11.1200    0.071  1.200 ?  0.00      ?
$GPGSA,A,3,14,11,01,22,,,,,,,,,4.5,3.0,3.2*35
GPSD,O=GSA 1118263410.08 0.005 53.525793 -113.528585  643.90  0.00  0.00  11.1200    0.071  1.200 ?      ?      ?
$GPRMC,204330.077,A,5331.5476,N,11331.7151,W,0.120531,11.88,080605,,*2F
GPSD,O=RMC 1118263410.08 0.005 53.525793 -113.528585  643.90  0.00  0.00  11.8800    0.062  1.200 ?      ?      ?
$GPGGA,204331.077,5331.5476,N,11331.7155,W,1,04,3.0,645.2,M,-19.7,M,0.0,0000*44
GPSD,O=GGA 1118263411.08 0.005 53.525793 -113.528592  645.20  0.00  0.00  11.8800    0.062  1.300 ?  0.00      ?
$GPGSA,A,3,14,11,01,22,,,,,,,,,4.5,3.0,3.2*35
GPSD,O=GSA 1118263411.08 0.005 53.525793 -113.528592  645.20  0.00  0.00  11.8800    0.062  1.300 ?      ?      ?
$GPGSV,3,1,09,14,69,069,45,01,66,236,45,11,43,279,46,25,35,172,37*79
$GPGSV,3,2,09,22,31,110,44,05,14,054,00,20,12,291,00,30,09,095,00*7F
$GPGSV,3,3,09,07,06,342,00*44
GPSD,Y=GSV ? 9:14 69 69 45 1:1 66 236 45 1:11 43 279 46 1:25 35 172 37 0:22 31 110 44 1:5 14 54 0 0:20 12 291 0 0:30 9 95 0 0:7 6 342 0 0:
$GPRMC,204331.077,A,5331.5476,N,11331.7155,W,0.107928,15.45,080605,,*2E
GPSD,O=RMC 1118263411.08 0.005 53.525793 -113.528592  645.20  0.00  0.00  15.4500    0.056  1.300 ?      ?      ?
$GPGGA,204332.077,5331.5476,N,11331.7158,W,1,04,3.0,646.7,M,-19.7,M,0.0,0000*4C
GPSD,O=GGA 1118263412.08 0.005 53.525793 -113.528597  646.70  0.00  0.00  15.4500    0.056  1.500 ?  0.00      ?
$GPGSA,A,3,14,11,01,22,,,,,,,,,4.5,3.0,3.2*35
GPSD,O=GSA 1118263412.08 0.005 53.525793 -113.528597  646.70  0.00  0.00  15.4500    0.056  1.500 ?      ?      ?
$GPRMC,204332.077,A,5331.5476,N,11331.7158,W,0.121424,8.94,080605,,*15
GPSD,O=RMC 1118263412.08 0.005 53.525793 -113.528597  646.70  0.00  0.00   8.9400    0.062  1.500 ?      ?      ?
$GPGGA,204333.077,5331.5475,N,11331.7163,W,1,04,3.0,648.1,M,-19.7,M,0.0,0000*4E
GPSD,O=GGA 1118263413.08 0.005 53.525792 -113.528605  648.10  0.00  0.00   8.9400    0.062  1.400 ?  0.00      ?
$GPGSA,A,3,14,11,01,22,,,,,,,,,4.5,3.0,3.2*35
GPSD,O=GSA 1118263413.08 0.005 53.525792 -113.528605  648.10  0.00  0.00   8.9400    0.062  1.400 ?      ?      ?
$GPRMC,204333.077,A,5331.5475,N,11331.7163,W,0.089373,5.77,080605,,*19
GPSD,O=RMC 1118263413.08 0.005 53.525792 -113.528605  648.10  0.00  0.00   5.7700    0.046  1.400 ?      ?      ?
$GPGGA,204334.077,5331.5475,N,11331.7168,W,1,04,3.0,649.3,M,-19.7,M,0.0,0000*41
GPSD,O=GGA 1118263414.08 0.005 53.525792 -113.528613  649.30  0.00  0.00   5.7700    0.046  1.200 ?  0.00      ?
$GPGSA,A,3,14,11,01,22,,,,,,,,,4.5,3.0,3.2*35
GPSD,O=GSA 1118263414.08 0.005 53.525792 -113.528613  649.30  0.00  0.00   5.7700    0.046  1.200 ?      ?      ?
$GPRMC,204334.077,A,5331.5475,N,11331.7168,W,0.146711,10.84,080605,,*2F
GPSD,O=RMC 1118263414.08 0.005 53.525792 -113.528613  649.30  0.00  0.00  10.8400    0.075  1.200 ?      ?      ?
$GPGGA,204335.077,5331.5476,N,11331.7172,W,1,04,3.0,650.6,M,-19.7,M,0.0,0000*45
GPSD,O=GGA 1118263415.08 0.005 53.525793 -113.528620  650.60  0.00  0.00  10.8400    0.075  1.300 ?  0.00      ?
$GPGSA,A,3,14,11,01,22,,,,,,,,,4.5,3.0,3.2*35
GPSD,O=GSA 1118263415.08 0.005 53.525793 -113.528620  650.60  0.00  0.00  10.8400    0.075  1.300 ?      ?      ?
$GPRMC,204335.077,A,5331.5476,N,11331.7172,W,0.139833,12.09,080605,,*26
GPSD,O=RMC 1118263415.08 0.005 53.525793 -113.528620  650.60  0.00  0.00  12.0900    0.072  1.300 ?      ?      ?
$GPGGA,204336.077,5331.5476,N,11331.7177,W,1,04,3.0,651.5,M,-19.7,M,0.0,0000*41
GPSD,O=GGA 1118263416.08 0.005 53.525793 -113.528628  651.50  0.00  0.00  12.0900    0.072  0.900 ?  0.00      ?
$GPGSA,A,3,14,11,01,22,,,,,,,,,4.5,3.0,3.2*35
GPSD,O=GSA 1118263416.08 0.005 53.525793 -113.528628  651.50  0.00  0.00  12.0900    0.072  0.900 ?      ?      ?
$GPGSV,3,1,09,14,69,069,45,01,66,236,44,11,43,279,46,25,35,172,36*79
$GPGSV,3,2,09,22,31,110,45,05,14,054,00,20,12,291,00,30,09,095,00*7E
$GPGSV,3,3,09,07,06,342,00*44
GPSD,Y=GSV ? 9:14 69 69 45 1:1 66 236 44 1:11 43 279 46 1:25 35 172 36 0:22 31 110 45 1:5 14 54 0 0:20 12 291 0 0:30 9 95 0 0:7 6 342 0 0:
$GPRMC,204336.077,A,5331.5476,N,11331.7177,W,0.136367,11.15,080605,,*2B
GPSD,O=RMC 1118263416.08 0.005 53.525793 -113.528628  651.50  0.00  0.00  11.1500    0.070  0.900 ?      ?      ?
$GPGGA,204337.077,5331.5477,N,11331.7182,W,1,04,3.0,652.4,M,-19.7,M,0.0,0000*49
GPSD,O=GGA 1118263417.08 0.005 53.525795 -113.528637  652.40  0.00  0.00  11.1500    0.070  0.900 ?  0.00      ?
$GPGSA,A,3,14,11,01,22,,,,,,,,,4.5,3.0,3.2*35
GPSD,O=GSA 1118263417.08 0.005 53.525795 -113.528637  652.40  0.00  0.00  11.1500    0.070  0.900 ?      ?      ?
$GPRMC,204337.077,A,5331.5477,N,11331.7182,W,0.128397,12.26,080605,,*22
GPSD,O=RMC 1118263417.08 0.005 53.525795 -113.528637  652.40  0.00  0.00  12.2600    0.066  0.900 ?      ?      ?
$GPGGA,204338.077,5331.5477,N,11331.7187,W,1,04,3.0,653.4,M,-19.7,M,0.0,0000*42
GPSD,O=GGA 1118263418.08 0.005 53.525795 -113.528645  653.40  0.00  0.00  12.2600    0.066  1.000 ?  0.00      ?
$GPGSA,A,3,14,11,01,22,,,,,,,,,4.5,3.0,3.2*35
GPSD,O=GSA 1118263418.08 0.005 53.525795 -113.528645  653.40  0.00  0.00  12.2600    0.066  1.000 ?      ?      ?
$GPRMC,204338.077,A,5331.5477,N,11331.7187,W,0.131083,9.23,080605,,*19
GPSD,O=RMC 1118263418.08 0.005 53.525795 -113.528645  653.40  0.00  0.00   9.2300    0.067  1.000 ?      ?      ?
$GPGGA,204339.077,5331.5477,N,11331.7191,W,1,04,3.0,654.2,M,-19.7,M,0.0,0000*45
GPSD,O=GGA 1118263419.08 0.005 53.525795 -113.528652  654.20  0.00  0.00   9.2300    0.067  0.800 ?  0.00      ?
$GPGSA,A,3,14,11,01,22,,,,,,,,,4.5,3.0,3.2*35
GPSD,O=GSA 1118263419.08 0.005 53.525795 -113.528652  654.20  0.00  0.00   9.2300    0.067  0.800 ?      ?      ?
$GPRMC,204339.077,A,5331.5477,N,11331.7191,W,0.124274,14.09,080605,,*25
GPSD,O=RMC 1118263419.08 0.005 53.525795 -113.528652  654.20  0.00  0.00  14.0900    0.064  0.800 ?      ?      ?
$GPGGA,204340.077,5331.5477,N,11331.7196,W,1,04,3.0,655.0,M,-19.7,M,0.0,0000*4F
GPSD,O=GGA 1118263420.08 0.005 53.525795 -113.528660  655.00  0.00  0.00  14.0900    0.064  0.800 ?  0.00      ?
$GPGSA,A,3,14,11,01,22,,,,,,,,,4.5,3.0,3.2*35
GPSD,O=GSA 1118263420.08 0.005 53.525795 -113.528660  655.00  0.00  0.00  14.0900    0.064  0.800 ?      ?      ?
$GPRMC,204340.077,A,5331.5477,N,11331.7196,W,0.136768,8.78,080605,,*1C
GPSD,O=RMC 1118263420.08 0.005 53.525795 -113.528660  655.00  0.00  0.00   8.7800    0.070  0.800 ?      ?      ?
$GPGGA,204341.076,5331.5478,N,11331.7200,W,1,04,3.0,655.9,M,-19.7,M,0.0,0000*45
GPSD,O=GGA 1118263421.08 0.005 53.525797 -113.528667  655.90  0.00  0.00   8.7800    0.070  0.901 ?  0.00      ?
$GPGSA,A,3,14,11,01,22,,,,,,,,,4.5,3.0,3.2*35
GPSD,O=GSA 1118263421.08 0.005 53.525797 -113.528667  655.90  0.00  0.00   8.7800    0.070  0.901 ?      ?      ?
$GPGSV,3,1,09,14,69,069,45,01,66,236,44,11,43,279,45,25,35,172,34*78
$GPGSV,3,2,09,22,31,110,46,05,14,054,00,20,12,291,00,30,09,095,00*7D
$GPGSV,3,3,09,07,06,342,00*44
GPSD,Y=GSV ? 9:14 69 69 45 1:1 66 236 44 1:11 43 279 45 1:25 35 172 34 0:22 31 110 46 1:5 14 54 0 0:20 12 291 0 0:30 9 95 0 0:7 6 342 0 0:
$GPRMC,204341.076,A,5331.5478,N,11331.7200,W,0.150553,17.22,080605,,*24
GPSD,O=RMC 1118263421.08 0.005 53.525797 -113.528667  655.90  0.00  0.00  17.2200    0.077  0.901 ?      ?      ?
$GPGGA,204342.076,5331.5478,N,11331.7204,W,1,04,3.0,656.8,M,-19.7,M,0.0,0000*40
GPSD,O=GGA 1118263422.08 0.005 53.525797 -113.528673  656.80  0.00  0.00  17.2200    0.077  0.900 ?  0.00      ?
$GPGSA,A,3,14,11,01,22,,,,,,,,,4.5,3.0,3.2*35
GPSD,O=GSA 1118263422.08 0.005 53.525797 -113.528673  656.80  0.00  0.00  17.2200    0.077  0.900 ?      ?      ?
$GPRMC,204342.076,A,5331.5478,N,11331.7204,W,0.137187,6.78,080605,,*10
GPSD,O=RMC 1118263422.08 0.005 53.525797 -113.528673  656.80  0.00  0.00   6.7800    0.071  0.900 ?      ?      ?
$GPGGA,204343.076,5331.5479,N,11331.7205,W,1,04,3.0,657.8,M,-19.7,M,0.0,0000*40
GPSD,O=GGA 1118263423.08 0.005 53.525798 -113.528675  657.80  0.00  0.00   6.7800    0.071  1.000 ?  0.00      ?
$GPGSA,A,3,14,11,01,22,,,,,,,,,4.5,3.0,3.2*35
GPSD,O=GSA 1118263423.08 0.005 53.525798 -113.528675  657.80  0.00  0.00   6.7800    0.071  1.000 ?      ?      ?
$GPRMC,204343.076,A,5331.5479,N,11331.7205,W,0.152792,12.53,080605,,*2C
GPSD,O=RMC 1118263423.08 0.005 53.525798 -113.528675  657.80  0.00  0.00  12.5300    0.079  1.000 ?      ?      ?
$GPGGA,204344.076,5331.5479,N,11331.7207,W,1,04,3.0,658.2,M,-19.7,M,0.0,0000*40
GPSD,O=GGA 1118263424.08 0.005 53.525798 -113.528678  658.20  0.00  0.00  12.5300    0.079  0.400 ?  0.00      ?
$GPGSA,A,3,14,11,01,22,,,,,,,,,4.5,3.0,3.2*35
GPSD,O=GSA 1118263424.08 0.005 53.525798 -113.528678  658.20  0.00  0.00  12.5300    0.079  0.400 ?      ?      ?
$GPRMC,204344.076,A,5331.5479,N,11331.7207,W,0.123204,11.08,080605,,*28
GPSD,O=RMC 1118263424.08 0.005 53.525798 -113.528678  658.20  0.00  0.00  11.0800    0.063  0.400 ?      ?      ?
$GPGGA,204345.076,5331.5479,N,11331.7209,W,1,04,3.0,658.5,M,-19.7,M,0.0,0000*48
GPSD,O=GGA 1118263425.08 0.005 53.525798 -113.528682  658.50  0.00  0.00  11.0800    0.063  0.300 ?  0.00      ?
$GPGSA,A,3,14,11,01,22,,,,,,,,,4.5,3.0,3.2*35
GPSD,O=GSA 1118263425.08 0.005 53.525798 -113.528682  658.50  0.00  0.00  11.0800    0.063  0.300 ?      ?      ?
$GPRMC,204345.076,A,5331.5479,N,11331.7209,W,0.139189,7.66,080605,,*15
GPSD,O=RMC 1118263425.08 0.005 53.525798 -113.528682  658.50  0.00  0.00   7.6600    0.072  0.300 ?      ?      ?
$GPGGA,204346.076,5331.5478,N,11331.7211,W,1,04,3.0,658.9,M,-19.7,M,0.0,0000*4F
GPSD,O=GGA 1118263426.08 0.005 53.525797 -113.528685  658.90  0.00  0.00   7.6600    0.072  0.400 ?  0.00      ?
$GPGSA,A,3,14,11,01,22,,,,,,,,,4.5,3.0,3.2*35
GPSD,O=GSA 1118263426.08 0.005 53.525797 -113.528685  658.90  0.00  0.00   7.6600    0.072  0.400 ?      ?      ?
$GPGSV,3,1,09,14,69,069,45,01,66,236,43,11,43,278,45,25,36,172,34*7D
$GPGSV,3,2,09,22,31,111,45,05,14,054,00,20,12,292,00,30,09,095,00*7C
$GPGSV,3,3,09,07,06,342,00*44
