GPSD,W=1,R=1
$GPGGA,000353.985,0000.0000,N,00000.0000,E,0,00,50.0,0.0,M,0.0,M,0.0,0000*77
$GPGLL,36000.0000,N,72000.0000,E,000353.985,V*12
$GPGSA,A,1,,,,,,,,,,,,,50.0,50.0,50.0*05
GPSD,O=?
$GPRMC,000353.985,V,36000.0000,N,72000.0000,E,0.000000,,190120,,*30
$GPVTG,,T,,M,0.000000,N,0.000000,K*4E
$GPMSS,0,0,0.000000,200,*5A
$GPGGA,000354.985,0000.0000,N,00000.0000,E,0,00,50.0,0.0,M,0.0,M,0.0,0000*70
$GPGLL,36000.0000,N,72000.0000,E,000354.985,V*15
$GPGSA,A,1,,,,,,,,,,,,,50.0,50.0,50.0*05
GPSD,O=?
$GPRMC,000354.985,V,36000.0000,N,72000.0000,E,0.000000,,190120,,*37
$GPVTG,,T,,M,0.000000,N,0.000000,K*4E
$GPMSS,0,0,0.000000,200,*5A
$GPGGA,000355.985,0000.0000,N,00000.0000,E,0,00,50.0,0.0,M,0.0,M,0.0,0000*71
$GPGLL,36000.0000,N,72000.0000,E,000355.985,V*14
$GPGSA,A,1,,,,,,,,,,,,,50.0,50.0,50.0*05
GPSD,O=?
$GPRMC,000355.985,V,36000.0000,N,72000.0000,E,0.000000,,190120,,*36
$GPVTG,,T,,M,0.000000,N,0.000000,K*4E
$GPMSS,0,0,0.000000,200,*5A
$GPGGA,000356.985,0000.0000,N,00000.0000,E,0,00,50.0,0.0,M,0.0,M,0.0,0000*72
$GPGLL,36000.0000,N,72000.0000,E,000356.985,V*17
$GPGSA,A,1,,,,,,,,,,,,,50.0,50.0,50.0*05
GPSD,O=?
$GPRMC,000356.985,V,36000.0000,N,72000.0000,E,0.000000,,190120,,*35
$GPVTG,,T,,M,0.000000,N,0.000000,K*4E
$GPMSS,0,0,0.000000,200,*5A
$GPGGA,000357.985,0000.0000,N,00000.0000,E,0,00,50.0,0.0,M,0.0,M,0.0,0000*73
$GPGLL,36000.0000,N,72000.0000,E,000357.985,V*16
$GPGSA,A,1,,,,,,,,,,,,,50.0,50.0,50.0*05
GPSD,O=?
$GPRMC,000357.985,V,36000.0000,N,72000.0000,E,0.000000,,190120,,*34
$GPVTG,,T,,M,0.000000,N,0.000000,K*4E
$GPMSS,0,0,0.000000,200,*5A
$GPGGA,000358.985,0000.0000,N,00000.0000,E,0,00,50.0,0.0,M,0.0,M,0.0,0000*7C
$GPGLL,36000.0000,N,72000.0000,E,000358.985,V*19
$GPGSA,A,1,,,,,,,,,,,,,50.0,50.0,50.0*05
GPSD,O=?
$GPRMC,000358.985,V,36000.0000,N,72000.0000,E,0.000000,,190120,,*3B
$GPVTG,,T,,M,0.000000,N,0.000000,K*4E
$GPMSS,0,0,0.000000,200,*5A
$GPGGA,000359.985,0000.0000,N,00000.0000,E,0,00,50.0,0.0,M,0.0,M,0.0,0000*7D
$GPGLL,36000.0000,N,72000.0000,E,000359.985,V*18
$GPGSA,A,1,,,,,,,,,,,,,50.0,50.0,50.0*05
GPSD,O=?
$GPRMC,000359.985,V,36000.0000,N,72000.0000,E,0.000000,,190120,,*3A
$GPVTG,,T,,M,0.000000,N,0.000000,K*4E
$GPMSS,0,0,0.000000,200,*5A
$GPGGA,000400.985,0000.0000,N,00000.0000,E,0,00,50.0,0.0,M,0.0,M,0.0,0000*76
$GPGLL,36000.0000,N,72000.0000,E,000400.985,V*13
$GPGSA,A,1,,,,,,,,,,,,,50.0,50.0,50.0*05
GPSD,O=?
$GPRMC,000400.985,V,36000.0000,N,72000.0000,E,0.000000,,190120,,*31
$GPVTG,,T,,M,0.000000,N,0.000000,K*4E
$GPMSS,0,0,0.000000,200,*5A
$GPGGA,000401.985,0000.0000,N,00000.0000,E,0,00,50.0,0.0,M,0.0,M,0.0,0000*77
$GPGLL,36000.0000,N,72000.0000,E,000401.985,V*12
$GPGSA,A,1,,,,,,,,,,,,,50.0,50.0,50.0*05
GPSD,O=?
$GPRMC,000401.985,V,36000.0000,N,72000.0000,E,0.000000,,190120,,*30
$GPVTG,,T,,M,0.000000,N,0.000000,K*4E
$GPMSS,0,0,0.000000,200,*5A
$GPGGA,000402.984,0000.0000,N,00000.0000,E,0,00,50.0,0.0,M,0.0,M,0.0,0000*75
$GPGLL,36000.0000,N,72000.0000,E,000402.984,V*10
$GPGSA,A,1,,,,,,,,,,,,,50.0,50.0,50.0*05
GPSD,O=?
$GPRMC,000402.984,V,36000.0000,N,72000.0000,E,0.000000,,190120,,*32
$GPVTG,,T,,M,0.000000,N,0.000000,K*4E
$GPMSS,0,0,0.000000,200,*5A
$GPGGA,000403.984,0000.0000,N,00000.0000,E,0,00,50.0,0.0,M,0.0,M,0.0,0000*74
$GPGLL,36000.0000,N,72000.0000,E,000403.984,V*11
$GPGSA,A,1,,,,,,,,,,,,,50.0,50.0,50.0*05
GPSD,O=?
$GPRMC,000403.984,V,36000.0000,N,72000.0000,E,0.000000,,190120,,*33
$GPVTG,,T,,M,0.000000,N,0.000000,K*4E
$GPMSS,0,0,0.000000,200,*5A
$GPGGA,000404.984,0000.0000,N,00000.0000,E,0,00,50.0,0.0,M,0.0,M,0.0,0000*73
$GPGLL,36000.0000,N,72000.0000,E,000404.984,V*16
$GPGSA,A,1,,,,,,,,,,,,,50.0,50.0,50.0*05
GPSD,O=?
$GPRMC,000404.984,V,36000.0000,N,72000.0000,E,0.000000,,190120,,*34
$GPVTG,,T,,M,0.000000,N,0.000000,K*4E
$GPMSS,0,0,0.000000,200,*5A
$GPGGA,000405.984,0000.0000,N,00000.0000,E,0,00,50.0,0.0,M,0.0,M,0.0,0000*72
$GPGLL,36000.0000,N,72000.0000,E,000405.984,V*17
$GPGSA,A,1,,,,,,,,,,,,,50.0,50.0,50.0*05
GPSD,O=?
$GPRMC,000405.984,V,36000.0000,N,72000.0000,E,0.000000,,190120,,*35
$GPVTG,,T,,M,0.000000,N,0.000000,K*4E
$GPMSS,0,0,0.000000,200,*5A
$GPGGA,000406.984,0000.0000,N,00000.0000,E,0,00,50.0,0.0,M,0.0,M,0.0,0000*71
$GPGLL,36000.0000,N,72000.0000,E,000406.984,V*14
$GPGSA,A,1,,,,,,,,,,,,,50.0,50.0,50.0*05
GPSD,O=?
$GPRMC,000406.984,V,36000.0000,N,72000.0000,E,0.000000,,190120,,*36
$GPVTG,,T,,M,0.000000,N,0.000000,K*4E
$GPMSS,0,0,0.000000,200,*5A
$GPGGA,000407.984,0000.0000,N,00000.0000,E,0,00,50.0,0.0,M,0.0,M,0.0,0000*70
$GPGLL,36000.0000,N,72000.0000,E,000407.984,V*15
$GPGSA,A,1,,,,,,,,,,,,,50.0,50.0,50.0*05
GPSD,O=?
$GPRMC,000407.984,V,36000.0000,N,72000.0000,E,0.000000,,190120,,*37
$GPVTG,,T,,M,0.000000,N,0.000000,K*4E
$GPMSS,0,0,0.000000,200,*5A
$GPGGA,000408.984,0000.0000,N,00000.0000,E,0,00,50.0,0.0,M,0.0,M,0.0,0000*7F
$GPGLL,36000.0000,N,72000.0000,E,000408.984,V*1A
$GPGSA,A,1,,,,,,,,,,,,,50.0,50.0,50.0*05
GPSD,O=?
$GPRMC,000408.984,V,36000.0000,N,72000.0000,E,0.000000,,190120,,*38
$GPVTG,,T,,M,0.000000,N,0.000000,K*4E
$GPMSS,0,0,0.000000,200,*5A
$GPGGA,000409.984,0000.0000,N,00000.0000,E,0,00,50.0,0.0,M,0.0,M,0.0,0000*7E
$GPGLL,36000.0000,N,72000.0000,E,000409.984,V*1B
$GPGSA,A,1,,,,,,,,,,,,,50.0,50.0,50.0*05
GPSD,O=?
$GPRMC,000409.984,V,36000.0000,N,72000.0000,E,0.000000,,190120,,*39
$GPVTG,,T,,M,0.000000,N,0.000000,K*4E
$GPMSS,0,0,0.000000,200,*5A
$GPGGA,000410.984,0000.0000,N,00000.0000,E,0,00,50.0,0.0,M,0.0,M,0.0,0000*76
$GPGLL,36000.0000,N,72000.0000,E,000410.984,V*13
$GPGSA,A,1,,,,,,,,,,,,,50.0,50.0,50.0*05
GPSD,O=?
$GPRMC,000410.984,V,36000.0000,N,72000.0000,E,0.000000,,190120,,*31
$GPVTG,,T,,M,0.000000,N,0.000000,K*4E
$GPMSS,0,0,0.000000,200,*5A
$GPGGA,000411.984,0000.0000,N,00000.0000,E,0,00,50.0,0.0,M,0.0,M,0.0,0000*77
$GPGLL,36000.0000,N,72000.0000,E,000411.984,V*12
$GPGSA,A,1,,,,,,,,,,,,,50.0,50.0,50.0*05
GPSD,O=?
$GPRMC,000411.984,V,36000.0000,N,72000.0000,E,0.000000,,190120,,*30
$GPVTG,,T,,M,0.000000,N,0.000000,K*4E
$GPMSS,0,0,0.000000,200,*5A
$GPGGA,000412.984,0000.0000,N,00000.0000,E,0,00,50.0,0.0,M,0.0,M,0.0,0000*74
$GPGLL,36000.0000,N,72000.0000,E,000412.984,V*11
$GPGSA,A,1,,,,,,,,,,,,,50.0,50.0,50.0*05
GPSD,O=?
$GPRMC,000412.984,V,36000.0000,N,72000.0000,E,0.000000,,190120,,*33
$GPVTG,,T,,M,0.000000,N,0.000000,K*4E
$GPMSS,0,0,0.000000,200,*5A
$GPGGA,000413.984,0000.0000,N,00000.0000,E,0,00,50.0,0.0,M,0.0,M,0.0,0000*75
$GPGLL,36000.0000,N,72000.0000,E,000413.984,V*10
$GPGSA,A,1,,,,,,,,,,,,,50.0,50.0,50.0*05
GPSD,O=?
$GPRMC,000413.984,V,36000.0000,N,72000.0000,E,0.000000,,190120,,*32
$GPVTG,,T,,M,0.000000,N,0.000000,K*4E
$GPMSS,0,0,0.000000,200,*5A
$GPGGA,000414.984,0000.0000,N,00000.0000,E,0,00,50.0,0.0,M,0.0,M,0.0,0000*72
$GPGLL,36000.0000,N,72000.0000,E,000414.984,V*17
$GPGSA,A,1,,,,,,,,,,,,,50.0,50.0,50.0*05
GPSD,O=?
$GPRMC,000414.984,V,36000.0000,N,72000.0000,E,0.000000,,190120,,*35
$GPVTG,,T,,M,0.000000,N,0.000000,K*4E
$GPMSS,0,0,0.000000,200,*5A
$GPGGA,000415.984,0000.0000,N,00000.0000,E,0,00,50.0,0.0,M,0.0,M,0.0,0000*73
$GPGLL,36000.0000,N,72000.0000,E,000415.984,V*16
$GPGSA,A,1,,,,,,,,,,,,,50.0,50.0,50.0*05
GPSD,O=?
$GPRMC,000415.984,V,36000.0000,N,72000.0000,E,0.000000,,190120,,*34
$GPVTG,,T,,M,0.000000,N,0.000000,K*4E
$GPMSS,0,0,0.000000,200,*5A
$GPGGA,000416.984,0000.0000,N,00000.0000,E,0,00,50.0,0.0,M,0.0,M,0.0,0000*70
$GPGLL,36000.0000,N,72000.0000,E,000416.984,V*15
$GPGSA,A,1,,,,,,,,,,,,,50.0,50.0,50.0*05
GPSD,O=?
$GPRMC,000416.984,V,36000.0000,N,72000.0000,E,0.000000,,190120,,*37
$GPVTG,,T,,M,0.000000,N,0.000000,K*4E
$GPMSS,0,0,0.000000,200,*5A
$GPGGA,000417.984,0000.0000,N,00000.0000,E,0,00,50.0,0.0,M,0.0,M,0.0,0000*71
$GPGLL,36000.0000,N,72000.0000,E,000417.984,V*14
$GPGSA,A,1,,,,,,,,,,,,,50.0,50.0,50.0*05
GPSD,O=?
$GPRMC,000417.984,V,36000.0000,N,72000.0000,E,0.000000,,190120,,*36
$GPVTG,,T,,M,0.000000,N,0.000000,K*4E
$GPMSS,0,0,0.000000,200,*5A
$GPGGA,000418.983,0000.0000,N,00000.0000,E,0,00,50.0,0.0,M,0.0,M,0.0,0000*79
$GPGLL,36000.0000,N,72000.0000,E,000418.983,V*1C
$GPGSA,A,1,,,,,,,,,,,,,50.0,50.0,50.0*05
GPSD,O=?
$GPRMC,000418.983,V,36000.0000,N,72000.0000,E,0.000000,,190120,,*3E
$GPVTG,,T,,M,0.000000,N,0.000000,K*4E
$GPMSS,0,0,0.000000,200,*5A
$GPGGA,000419.983,0000.0000,N,00000.0000,E,0,00,50.0,0.0,M,0.0,M,0.0,0000*78
$GPGLL,36000.0000,N,72000.0000,E,000419.983,V*1D
$GPGSA,A,1,,,,,,,,,,,,,50.0,50.0,50.0*05
GPSD,O=?
$GPRMC,000419.983,V,36000.0000,N,72000.0000,E,0.000000,,190120,,*3F
$GPVTG,,T,,M,0.000000,N,0.000000,K*4E
$GPMSS,0,0,0.000000,200,*5A
$GPGGA,000420.983,0000.0000,N,00000.0000,E,0,00,50.0,0.0,M,0.0,M,0.0,0000*72
$GPGLL,36000.0000,N,72000.0000,E,000420.983,V*17
$GPGSA,A,1,,,,,,,,,,,,,50.0,50.0,50.0*05
GPSD,O=?
$GPRMC,000420.983,V,36000.0000,N,72000.0000,E,0.000000,,190120,,*35
$GPVTG,,T,,M,0.000000,N,0.000000,K*4E
$GPMSS,0,0,0.000000,200,*5A
$GPGGA,000421.983,0000.0000,N,00000.0000,E,0,00,50.0,0.0,M,0.0,M,0.0,0000*73
$GPGLL,36000.0000,N,72000.0000,E,000421.983,V*16
$GPGSA,A,1,,,,,,,,,,,,,50.0,50.0,50.0*05
GPSD,O=?
$GPRMC,000421.983,V,36000.0000,N,72000.0000,E,0.000000,,190120,,*34
$GPVTG,,T,,M,0.000000,N,0.000000,K*4E
$GPMSS,0,0,0.000000,200,*5A
$GPGGA,000422.983,0000.0000,N,00000.0000,E,0,00,50.0,0.0,M,0.0,M,0.0,0000*70
$GPGLL,36000.0000,N,72000.0000,E,000422.983,V*15
$GPGSA,A,1,,,,,,,,,,,,,50.0,50.0,50.0*05
GPSD,O=?
$GPRMC,000422.983,V,36000.0000,N,72000.0000,E,0.000000,,190120,,*37
$GPVTG,,T,,M,0.000000,N,0.000000,K*4E
$GPMSS,0,0,0.000000,200,*5A
$GPGGA,000423.983,0000.0000,N,00000.0000,E,0,00,50.0,0.0,M,0.0,M,0.0,0000*71
$GPGLL,36000.0000,N,72000.0000,E,000423.983,V*14
$GPGSA,A,1,,,,,,,,,,,,,50.0,50.0,50.0*05
GPSD,O=?
$GPRMC,000423.983,V,36000.0000,N,72000.0000,E,0.000000,,190120,,*36
$GPVTG,,T,,M,0.000000,N,0.000000,K*4E
$GPMSS,0,0,0.000000,200,*5A
$GPGGA,000424.983,0000.0000,N,00000.0000,E,0,00,50.0,0.0,M,0.0,M,0.0,0000*76
$GPGLL,36000.0000,N,72000.0000,E,000424.983,V*13
$GPGSA,A,1,,,,,,,,,,,,,50.0,50.0,50.0*05
GPSD,O=?
$GPRMC,000424.983,V,36000.0000,N,72000.0000,E,0.000000,,190120,,*31
$GPVTG,,T,,M,0.000000,N,0.000000,K*4E
$GPMSS,0,0,0.000000,200,*5A
$GPGGA,000425.983,0000.0000,N,00000.0000,E,0,00,50.0,0.0,M,0.0,M,0.0,0000*77
$GPGLL,36000.0000,N,72000.0000,E,000425.983,V*12
$GPGSA,A,1,,,,,,,,,,,,,50.0,50.0,50.0*05
GPSD,O=?
$GPRMC,000425.983,V,36000.0000,N,72000.0000,E,0.000000,,190120,,*30
$GPVTG,,T,,M,0.000000,N,0.000000,K*4E
$GPMSS,0,0,0.000000,200,*5A
$GPGGA,000426.983,0000.0000,N,00000.0000,E,0,00,50.0,0.0,M,0.0,M,0.0,0000*74
$GPGLL,36000.0000,N,72000.0000,E,000426.983,V*11
$GPGSA,A,1,,,,,,,,,,,,,50.0,50.0,50.0*05
GPSD,O=?
$GPRMC,000426.983,V,36000.0000,N,72000.0000,E,0.000000,,190120,,*33
$GPVTG,,T,,M,0.000000,N,0.000000,K*4E
$GPMSS,0,0,0.000000,200,*5A
$GPGGA,000427.983,0000.0000,N,00000.0000,E,0,00,50.0,0.0,M,0.0,M,0.0,0000*75
$GPGLL,36000.0000,N,72000.0000,E,000427.983,V*10
$GPGSA,A,1,,,,,,,,,,,,,50.0,50.0,50.0*05
GPSD,O=?
$GPRMC,000427.983,V,36000.0000,N,72000.0000,E,0.000000,,190120,,*32
$GPVTG,,T,,M,0.000000,N,0.000000,K*4E
$GPMSS,0,0,0.000000,200,*5A
$GPGGA,000428.983,0000.0000,N,00000.0000,E,0,00,50.0,0.0,M,0.0,M,0.0,0000*7A
$GPGLL,36000.0000,N,72000.0000,E,000428.983,V*1F
$GPGSA,A,1,,,,,,,,,,,,,50.0,50.0,50.0*05
GPSD,O=?
$GPRMC,000428.983,V,36000.0000,N,72000.0000,E,0.000000,,190120,,*3D
$GPVTG,,T,,M,0.000000,N,0.000000,K*4E
$GPMSS,0,0,0.000000,200,*5A
$GPGGA,000429.983,0000.0000,N,00000.0000,E,0,00,50.0,0.0,M,0.0,M,0.0,0000*7B
$GPGLL,36000.0000,N,72000.0000,E,000429.983,V*1E
$GPGSA,A,1,,,,,,,,,,,,,50.0,50.0,50.0*05
GPSD,O=?
$GPRMC,000429.983,V,36000.0000,N,72000.0000,E,0.000000,,190120,,*3C
$GPVTG,,T,,M,0.000000,N,0.000000,K*4E
$GPMSS,0,0,0.000000,200,*5A
$GPGGA,000430.983,0000.0000,N,00000.0000,E,0,00,50.0,0.0,M,0.0,M,0.0,0000*73
$GPGLL,36000.0000,N,72000.0000,E,000430.983,V*16
$GPGSA,A,1,,,,,,,,,,,,,50.0,50.0,50.0*05
GPSD,O=?
$GPRMC,000430.983,V,36000.0000,N,72000.0000,E,0.000000,,190120,,*34
$GPVTG,,T,,M,0.000000,N,0.000000,K*4E
$GPMSS,0,0,0.000000,200,*5A
$GPGGA,000431.983,0000.0000,N,00000.0000,E,0,00,50.0,0.0,M,0.0,M,0.0,0000*72
$GPGLL,36000.0000,N,72000.0000,E,000431.983,V*17
$GPGSA,A,1,,,,,,,,,,,,,50.0,50.0,50.0*05
GPSD,O=?
$GPRMC,000431.983,V,36000.0000,N,72000.0000,E,0.000000,,190120,,*35
$GPVTG,,T,,M,0.000000,N,0.000000,K*4E
$GPMSS,0,0,0.000000,200,*5A
$GPGGA,000432.983,0000.0000,N,00000.0000,E,0,00,50.0,0.0,M,0.0,M,0.0,0000*71
$GPGLL,36000.0000,N,72000.0000,E,000432.983,V*14
$GPGSA,A,1,,,,,,,,,,,,,50.0,50.0,50.0*05
GPSD,O=?
$GPRMC,000432.983,V,36000.0000,N,72000.0000,E,0.000000,,190120,,*36
$GPVTG,,T,,M,0.000000,N,0.000000,K*4E
$GPMSS,0,0,0.000000,200,*5A
$GPGGA,000433.983,0000.0000,N,00000.0000,E,0,00,50.0,0.0,M,0.0,M,0.0,0000*70
$GPGLL,36000.0000,N,72000.0000,E,000433.983,V*15
$GPGSA,A,1,,,,,,,,,,,,,50.0,50.0,50.0*05
GPSD,O=?
$GPRMC,000433.983,V,36000.0000,N,72000.0000,E,0.000000,,190120,,*37
$GPVTG,,T,,M,0.000000,N,0.000000,K*4E
$GPMSS,0,0,0.000000,200,*5A
$GPGGA,000434.983,0000.0000,N,00000.0000,E,0,00,50.0,0.0,M,0.0,M,0.0,0000*77
$GPGLL,36000.0000,N,72000.0000,E,000434.983,V*12
$GPGSA,A,1,,,,,,,,,,,,,50.0,50.0,50.0*05
GPSD,O=?
$GPRMC,000434.983,V,36000.0000,N,72000.0000,E,0.000000,,190120,,*30
$GPVTG,,T,,M,0.000000,N,0.000000,K*4E
$GPMSS,0,0,0.000000,200,*5A
$GPGGA,000435.982,0000.0000,N,00000.0000,E,0,00,50.0,0.0,M,0.0,M,0.0,0000*77
$GPGLL,36000.0000,N,72000.0000,E,000435.982,V*12
$GPGSA,A,1,,,,,,,,,,,,,50.0,50.0,50.0*05
GPSD,O=?
$GPRMC,000435.982,V,36000.0000,N,72000.0000,E,0.000000,,190120,,*30
$GPVTG,,T,,M,0.000000,N,0.000000,K*4E
$GPMSS,0,0,0.000000,200,*5A
$GPGGA,000436.982,0000.0000,N,00000.0000,E,0,00,50.0,0.0,M,0.0,M,0.0,0000*74
$GPGLL,36000.0000,N,72000.0000,E,000436.982,V*11
$GPGSA,A,1,,,,,,,,,,,,,50.0,50.0,50.0*05
GPSD,O=?
$GPRMC,000436.982,V,36000.0000,N,72000.0000,E,0.000000,,190120,,*33
$GPVTG,,T,,M,0.000000,N,0.000000,K*4E
$GPMSS,0,0,0.000000,200,*5A
$GPGGA,000437.982,0000.0000,N,00000.0000,E,0,00,50.0,0.0,M,0.0,M,0.0,0000*75
$GPGLL,36000.0000,N,72000.0000,E,000437.982,V*10
$GPGSA,A,1,,,,,,,,,,,,,50.0,50.0,50.0*05
GPSD,O=?
$GPRMC,000437.982,V,36000.0000,N,72000.0000,E,0.000000,,190120,,*32
$GPVTG,,T,,M,0.000000,N,0.000000,K*4E
$GPMSS,0,0,0.000000,200,*5A
$GPGGA,000438.982,0000.0000,N,00000.0000,E,0,00,50.0,0.0,M,0.0,M,0.0,0000*7A
$GPGLL,36000.0000,N,72000.0000,E,000438.982,V*1F
$GPGSA,A,1,,,,,,,,,,,,,50.0,50.0,50.0*05
GPSD,O=?
$GPRMC,000438.982,V,36000.0000,N,72000.0000,E,0.000000,,190120,,*3D
$GPVTG,,T,,M,0.000000,N,0.000000,K*4E
$GPMSS,0,0,0.000000,200,*5A
$GPGGA,000439.982,0000.0000,N,00000.0000,E,0,00,50.0,0.0,M,0.0,M,0.0,0000*7B
$GPGLL,36000.0000,N,72000.0000,E,000439.982,V*1E
$GPGSA,A,1,,,,,,,,,,,,,50.0,50.0,50.0*05
GPSD,O=?
$GPRMC,000439.982,V,36000.0000,N,72000.0000,E,0.000000,,190120,,*3C
$GPVTG,,T,,M,0.000000,N,0.000000,K*4E
$GPMSS,0,0,0.000000,200,*5A
$GPGGA,000440.982,0000.0000,N,00000.0000,E,0,00,50.0,0.0,M,0.0,M,0.0,0000*75
$GPGLL,36000.0000,N,72000.0000,E,000440.982,V*10
$GPGSA,A,1,,,,,,,,,,,,,50.0,50.0,50.0*05
GPSD,O=?
$GPRMC,000440.982,V,36000.0000,N,72000.0000,E,0.000000,,190120,,*32
$GPVTG,,T,,M,0.000000,N,0.000000,K*4E
$GPMSS,0,0,0.000000,200,*5A
$GPGGA,000441.982,0000.0000,N,00000.0000,E,0,00,50.0,0.0,M,0.0,M,0.0,0000*74
$GPGLL,36000.0000,N,72000.0000,E,000441.982,V*11
$GPGSA,A,1,,,,,,,,,,,,,50.0,50.0,50.0*05
GPSD,O=?
$GPRMC,000441.982,V,36000.0000,N,72000.0000,E,0.000000,,190120,,*33
$GPVTG,,T,,M,0.000000,N,0.000000,K*4E
$GPMSS,0,0,0.000000,200,*5A
$GPGGA,000442.982,0000.0000,N,00000.0000,E,0,00,50.0,0.0,M,0.0,M,0.0,0000*77
$GPGLL,36000.0000,N,72000.0000,E,000442.982,V*12
$GPGSA,A,1,,,,,,,,,,,,,50.0,50.0,50.0*05
GPSD,O=?
$GPRMC,000442.982,V,36000.0000,N,72000.0000,E,0.000000,,190120,,*30
$GPVTG,,T,,M,0.000000,N,0.000000,K*4E
$GPMSS,0,0,0.000000,200,*5A
$GPGGA,000443.982,0000.0000,N,00000.0000,E,0,00,50.0,0.0,M,0.0,M,0.0,0000*76
$GPGLL,36000.0000,N,72000.0000,E,000443.982,V*13
$GPGSA,A,1,,,,,,,,,,,,,50.0,50.0,50.0*05
GPSD,O=?
$GPRMC,000443.982,V,36000.0000,N,72000.0000,E,0.000000,,190120,,*31
$GPVTG,,T,,M,0.000000,N,0.000000,K*4E
$GPMSS,0,0,0.000000,200,*5A
$GPGGA,000444.982,0000.0000,N,00000.0000,E,0,00,50.0,0.0,M,0.0,M,0.0,0000*71
$GPGLL,36000.0000,N,72000.0000,E,000444.982,V*14
$GPGSA,A,1,,,,,,,,,,,,,50.0,50.0,50.0*05
GPSD,O=?
$GPRMC,000444.982,V,36000.0000,N,72000.0000,E,0.000000,,190120,,*36
$GPVTG,,T,,M,0.000000,N,0.000000,K*4E
$GPMSS,0,0,0.000000,200,*5A
$GPGGA,000445.982,0000.0000,N,00000.0000,E,0,00,50.0,0.0,M,0.0,M,0.0,0000*70
$GPGLL,36000.0000,N,72000.0000,E,000445.982,V*15
$GPGSA,A,1,,,,,,,,,,,,,50.0,50.0,50.0*05
GPSD,O=?
$GPRMC,000445.982,V,36000.0000,N,72000.0000,E,0.000000,,190120,,*37
$GPVTG,,T,,M,0.000000,N,0.000000,K*4E
$GPMSS,0,0,0.000000,200,*5A
$GPGGA,000446.982,0000.0000,N,00000.0000,E,0,00,50.0,0.0,M,0.0,M,0.0,0000*73
$GPGLL,36000.0000,N,72000.0000,E,000446.982,V*16
$GPGSA,A,1,,,,,,,,,,,,,50.0,50.0,50.0*05
GPSD,O=?
$GPRMC,000446.982,V,36000.0000,N,72000.0000,E,0.000000,,190120,,*34
$GPVTG,,T,,M,0.000000,N,0.000000,K*4E
$GPMSS,0,0,0.000000,200,*5A
$GPGGA,000447.982,0000.0000,N,00000.0000,E,0,00,50.0,0.0,M,0.0,M,0.0,0000*72
$GPGLL,36000.0000,N,72000.0000,E,000447.982,V*17
$GPGSA,A,1,,,,,,,,,,,,,50.0,50.0,50.0*05
GPSD,O=?
$GPRMC,000447.982,V,36000.0000,N,72000.0000,E,0.000000,,190120,,*35
$GPVTG,,T,,M,0.000000,N,0.000000,K*4E
$GPMSS,0,0,0.000000,200,*5A
$GPGGA,000448.982,0000.0000,N,00000.0000,E,0,00,50.0,0.0,M,0.0,M,0.0,0000*7D
$GPGLL,36000.0000,N,72000.0000,E,000448.982,V*18
$GPGSA,A,1,,,,,,,,,,,,,50.0,50.0,50.0*05
GPSD,O=?
$GPRMC,000448.982,V,36000.0000,N,72000.0000,E,0.000000,,190120,,*3A
$GPVTG,,T,,M,0.000000,N,0.000000,K*4E
$GPMSS,0,0,0.000000,200,*5A
$GPGGA,000449.982,0000.0000,N,00000.0000,E,0,00,50.0,0.0,M,0.0,M,0.0,0000*7C
$GPGLL,36000.0000,N,72000.0000,E,000449.982,V*19
$GPGSA,A,1,,,,,,,,,,,,,50.0,50.0,50.0*05
GPSD,O=?
$GPRMC,000449.982,V,36000.0000,N,72000.0000,E,0.000000,,190120,,*3B
$GPVTG,,T,,M,0.000000,N,0.000000,K*4E
$GPMSS,0,0,0.000000,200,*5A
$GPGGA,000450.982,0000.0000,N,00000.0000,E,0,00,50.0,0.0,M,0.0,M,0.0,0000*74
$GPGLL,36000.0000,N,72000.0000,E,000450.982,V*11
$GPGSA,A,1,,,,,,,,,,,,,50.0,50.0,50.0*05
GPSD,O=?
$GPRMC,000450.982,V,36000.0000,N,72000.0000,E,0.000000,,190120,,*33
$GPVTG,,T,,M,0.000000,N,0.000000,K*4E
$GPMSS,0,0,0.000000,200,*5A
$GPGGA,000451.981,0000.0000,N,00000.0000,E,0,00,50.0,0.0,M,0.0,M,0.0,0000*76
$GPGLL,36000.0000,N,72000.0000,E,000451.981,V*13
$GPGSA,A,1,,,,,,,,,,,,,50.0,50.0,50.0*05
GPSD,O=?
$GPRMC,000451.981,V,36000.0000,N,72000.0000,E,0.000000,,190120,,*31
$GPVTG,,T,,M,0.000000,N,0.000000,K*4E
$GPMSS,0,0,0.000000,200,*5A
$GPGGA,000452.981,0000.0000,N,00000.0000,E,0,00,50.0,0.0,M,0.0,M,0.0,0000*75
$GPGLL,36000.0000,N,72000.0000,E,000452.981,V*10
$GPGSA,A,1,,,,,,,,,,,,,50.0,50.0,50.0*05
GPSD,O=?
$GPRMC,000452.981,V,36000.0000,N,72000.0000,E,0.000000,,190120,,*32
$GPVTG,,T,,M,0.000000,N,0.000000,K*4E
$GPMSS,0,0,0.000000,200,*5A
$GPGGA,000453.981,0000.0000,N,00000.0000,E,0,00,50.0,0.0,M,0.0,M,0.0,0000*74
$GPGLL,36000.0000,N,72000.0000,E,000453.981,V*11
$GPGSA,A,1,,,,,,,,,,,,,50.0,50.0,50.0*05
GPSD,O=?
$GPRMC,000453.981,V,36000.0000,N,72000.0000,E,0.000000,,190120,,*33
$GPVTG,,T,,M,0.000000,N,0.000000,K*4E
$GPMSS,0,0,0.000000,200,*5A
$GPGGA,000454.981,0000.0000,N,00000.0000,E,0,00,50.0,0.0,M,0.0,M,0.0,0000*73
$GPGLL,36000.0000,N,72000.0000,E,000454.981,V*16
$GPGSA,A,1,,,,,,,,,,,,,50.0,50.0,50.0*05
GPSD,O=?
$GPRMC,000454.981,V,36000.0000,N,72000.0000,E,0.000000,,190120,,*34
$GPVTG,,T,,M,0.000000,N,0.000000,K*4E
$GPMSS,0,0,0.000000,200,*5A
$GPGGA,000455.981,0000.0000,N,00000.0000,E,0,00,50.0,0.0,M,0.0,M,0.0,0000*72
$GPGLL,36000.0000,N,72000.0000,E,000455.981,V*17
$GPGSA,A,1,,,,,,,,,,,,,50.0,50.0,50.0*05
GPSD,O=?
$GPRMC,000455.981,V,36000.0000,N,72000.0000,E,0.000000,,190120,,*35
$GPVTG,,T,,M,0.000000,N,0.000000,K*4E
$GPMSS,0,0,0.000000,200,*5A
$GPGGA,000456.981,0000.0000,N,00000.0000,E,0,00,50.0,0.0,M,0.0,M,0.0,0000*71
$GPGLL,36000.0000,N,72000.0000,E,000456.981,V*14
$GPGSA,A,1,,,,,,,,,,,,,50.0,50.0,50.0*05
GPSD,O=?
$GPRMC,000456.981,V,36000.0000,N,72000.0000,E,0.000000,,190120,,*36
$GPVTG,,T,,M,0.000000,N,0.000000,K*4E
$GPMSS,0,0,0.000000,200,*5A
$GPGGA,000457.981,0000.0000,N,00000.0000,E,0,00,50.0,0.0,M,0.0,M,0.0,0000*70
$GPGLL,36000.0000,N,72000.0000,E,000457.981,V*15
$GPGSA,A,1,,,,,,,,,,,,,50.0,50.0,50.0*05
GPSD,O=?
$GPGSV,3,1,12,01,90,000,00,13,77,000,00,08,71,000,,22,65,000,00*7F
$GPGSV,3,2,12,09,65,000,00,26,40,000,,24,33,000,00,04,28,000,00*79
$GPGSV,3,3,12,27,25,000,00,16,23,000,00,15,21,000,00,11,13,000,00*7B
$GPRMC,000457.981,V,36000.0000,N,72000.0000,E,0.000000,,190120,,*37
$GPVTG,,T,,M,0.000000,N,0.000000,K*4E
$GPMSS,0,0,0.000000,200,*5A
$GPGGA,000458.981,0000.0000,N,00000.0000,E,0,00,50.0,0.0,M,0.0,M,0.0,0000*7F
$GPGLL,36000.0000,N,72000.0000,E,000458.981,V*1A
$GPGSA,A,1,,,,,,,,,,,,,50.0,50.0,50.0*05
GPSD,O=?
$GPGSV,3,1,12,01,90,000,48,13,77,000,00,08,71,000,,22,65,000,00*73
$GPGSV,3,2,12,09,65,000,00,26,40,000,,24,33,000,00,04,28,000,00*79
$GPGSV,3,3,12,27,25,000,00,16,23,000,00,15,21,000,00,11,13,000,31*79
$GPRMC,000458.981,V,36000.0000,N,72000.0000,E,0.000000,,190120,,*38
$GPVTG,,T,,M,0.000000,N,0.000000,K*4E
$GPMSS,0,0,0.000000,200,*5A
$GPGGA,000459.981,0000.0000,N,00000.0000,E,0,00,50.0,0.0,M,0.0,M,0.0,0000*7E
$GPGLL,36000.0000,N,72000.0000,E,000459.981,V*1B
$GPGSA,A,1,,,,,,,,,,,,,50.0,50.0,50.0*05
GPSD,O=?
$GPGSV,3,1,12,01,90,000,47,13,77,000,00,08,71,000,,22,65,000,00*7C
$GPGSV,3,2,12,09,65,000,00,26,40,000,,24,33,000,00,04,28,000,00*79
$GPGSV,3,3,12,27,25,000,00,16,23,000,00,15,21,000,00,11,13,000,31*79
$GPRMC,000459.981,V,36000.0000,N,72000.0000,E,0.000000,,190120,,*39
$GPVTG,,T,,M,0.000000,N,0.000000,K*4E
$GPMSS,0,0,0.000000,200,*5A
$GPGGA,000500.981,0000.0000,N,00000.0000,E,0,00,50.0,0.0,M,0.0,M,0.0,0000*73
$GPGLL,36000.0000,N,72000.0000,E,000500.981,V*16
$GPGSA,A,1,,,,,,,,,,,,,50.0,50.0,50.0*05
GPSD,O=?
$GPGSV,3,1,12,01,90,000,48,13,77,000,00,08,71,000,,22,65,000,00*73
$GPGSV,3,2,12,09,65,000,00,26,40,000,,24,33,000,00,04,28,000,00*79
$GPGSV,3,3,12,27,25,000,00,16,23,000,00,15,21,000,00,11,13,000,31*79
$GPRMC,000500.981,V,36000.0000,N,72000.0000,E,0.000000,,190120,,*34
$GPVTG,,T,,M,0.000000,N,0.000000,K*4E
$GPMSS,0,0,0.000000,200,*5A
$GPGGA,000501.981,0000.0000,N,00000.0000,E,0,00,50.0,0.0,M,0.0,M,0.0,0000*72
$GPGLL,36000.0000,N,72000.0000,E,000501.981,V*17
$GPGSA,A,1,,,,,,,,,,,,,50.0,50.0,50.0*05
GPSD,O=?
$GPGSV,3,1,12,01,90,000,48,13,77,000,00,08,71,000,,22,65,000,00*73
$GPGSV,3,2,12,09,65,000,00,26,40,000,,24,33,000,00,04,28,000,00*79
$GPGSV,3,3,12,27,25,000,00,16,23,000,00,15,21,000,00,11,13,000,31*79
$GPRMC,000501.981,V,36000.0000,N,72000.0000,E,0.000000,,190120,,*35
$GPVTG,,T,,M,0.000000,N,0.000000,K*4E
$GPMSS,0,0,0.000000,200,*5A
$GPGGA,000502.981,0000.0000,N,00000.0000,E,0,00,50.0,0.0,M,0.0,M,0.0,0000*71
$GPGLL,36000.0000,N,72000.0000,E,000502.981,V*14
$GPGSA,A,1,,,,,,,,,,,,,50.0,50.0,50.0*05
GPSD,O=?
$GPGSV,3,1,12,01,90,000,48,13,77,000,00,08,71,000,,22,65,000,00*73
$GPGSV,3,2,12,09,65,000,00,26,40,000,,24,33,000,00,04,28,000,00*79
$GPGSV,3,3,12,27,25,000,00,16,23,000,00,15,21,000,00,11,13,000,31*79
$GPRMC,000502.981,V,36000.0000,N,72000.0000,E,0.000000,,190120,,*36
$GPVTG,,T,,M,0.000000,N,0.000000,K*4E
$GPMSS,0,0,0.000000,200,*5A
$GPGGA,000503.981,0000.0000,N,00000.0000,E,0,00,50.0,0.0,M,0.0,M,0.0,0000*70
$GPGLL,36000.0000,N,72000.0000,E,000503.981,V*15
$GPGSA,A,1,,,,,,,,,,,,,50.0,50.0,50.0*05
GPSD,O=?
$GPGSV,3,1,12,01,90,000,47,13,77,000,00,08,71,000,,22,65,000,00*7C
$GPGSV,3,2,12,09,65,000,00,26,40,000,,24,33,000,00,04,28,000,00*79
$GPGSV,3,3,12,27,25,000,00,16,23,000,00,15,21,000,00,11,13,000,*7B
$GPRMC,000503.981,V,36000.0000,N,72000.0000,E,0.000000,,190120,,*37
$GPVTG,,T,,M,0.000000,N,0.000000,K*4E
$GPMSS,0,0,0.000000,200,*5A
$GPGGA,000504.981,0000.0000,N,00000.0000,E,0,00,50.0,0.0,M,0.0,M,0.0,0000*77
$GPGLL,36000.0000,N,72000.0000,E,000504.981,V*12
$GPGSA,A,1,,,,,,,,,,,,,50.0,50.0,50.0*05
GPSD,O=?
$GPGSV,3,1,12,01,90,000,47,13,77,000,00,08,71,000,,22,65,000,00*7C
$GPGSV,3,2,12,09,65,000,00,26,40,000,,24,33,000,00,04,28,000,00*79
$GPGSV,3,3,12,27,25,000,00,16,23,000,00,15,21,000,00,11,13,000,*7B
$GPRMC,000504.981,V,36000.0000,N,72000.0000,E,0.000000,,190120,,*30
$GPVTG,,T,,M,0.000000,N,0.000000,K*4E
$GPMSS,0,0,0.000000,200,*5A
$GPGGA,204300.329,0000.0000,N,00000.0000,E,0,00,50.0,0.0,M,0.0,M,0.0,0000*7B
$GPGLL,36000.0000,N,72000.0000,E,204300.329,V*1E
$GPGSA,A,1,,,,,,,,,,,,,50.0,50.0,50.0*05
GPSD,O=?
$GPGSV,3,1,12,01,90,000,47,13,77,000,00,08,71,000,,22,65,000,00*7C
$GPGSV,3,2,12,09,65,000,00,26,40,000,,24,33,000,00,04,28,000,00*79
$GPGSV,3,3,12,27,25,000,00,16,23,000,00,15,21,000,00,11,13,000,*7B
$GPRMC,204300.329,V,36000.0000,N,72000.0000,E,0.000000,,220120,,*34
$GPVTG,,T,,M,0.000000,N,0.000000,K*4E
$GPMSS,0,0,0.000000,200,*5A
$GPGGA,204301.329,0000.0000,N,00000.0000,E,0,00,50.0,0.0,M,0.0,M,0.0,0000*7A
$GPGLL,36000.0000,N,72000.0000,E,204301.329,V*1F
$GPGSA,A,1,,,,,,,,,,,,,50.0,50.0,50.0*05
GPSD,O=?
$GPGSV,3,1,12,01,90,000,47,13,77,000,00,08,71,000,,22,65,000,00*7C
$GPGSV,3,2,12,09,65,000,00,26,40,000,,24,33,000,00,04,28,000,00*79
$GPGSV,3,3,12,27,25,000,00,16,23,000,00,15,21,000,00,11,13,000,*7B
$GPRMC,204301.329,V,36000.0000,N,72000.0000,E,0.000000,,220120,,*35
$GPVTG,,T,,M,0.000000,N,0.000000,K*4E
$GPMSS,0,0,0.000000,200,*5A
$GPGGA,204302.329,0000.0000,N,00000.0000,E,0,00,50.0,0.0,M,0.0,M,0.0,0000*79
$GPGLL,36000.0000,N,72000.0000,E,204302.329,V*1C
$GPGSA,A,1,,,,,,,,,,,,,50.0,50.0,50.0*05
GPSD,O=?
$GPGSV,3,1,12,01,90,000,47,13,77,000,00,08,71,000,,22,65,000,00*7C
$GPGSV,3,2,12,09,65,000,00,26,40,000,,24,33,000,00,04,28,000,00*79
$GPGSV,3,3,12,27,25,000,00,16,23,000,00,15,21,000,00,11,13,000,*7B
$GPRMC,204302.329,V,36000.0000,N,72000.0000,E,0.000000,,220120,,*36
$GPVTG,,T,,M,0.000000,N,0.000000,K*4E
$GPMSS,0,0,0.000000,200,*5A
$GPGGA,204303.329,0000.0000,N,00000.0000,E,0,00,50.0,0.0,M,0.0,M,0.0,0000*78
$GPGLL,36000.0000,N,72000.0000,E,204303.329,V*1D
$GPGSA,A,1,,,,,,,,,,,,,50.0,50.0,50.0*05
GPSD,O=?
$GPGSV,3,1,12,01,90,000,47,13,77,000,00,08,71,000,,22,65,000,00*7C
$GPGSV,3,2,12,09,65,000,00,26,40,000,,24,33,000,00,04,28,000,00*79
$GPGSV,3,3,12,27,25,000,00,16,23,000,00,15,21,000,00,11,13,000,*7B
$GPRMC,204303.329,V,36000.0000,N,72000.0000,E,0.000000,,220120,,*37
$GPVTG,,T,,M,0.000000,N,0.000000,K*4E
$GPMSS,0,0,0.000000,200,*5A
$GPGGA,204304.329,0000.0000,N,00000.0000,E,0,00,50.0,0.0,M,0.0,M,0.0,0000*7F
$GPGLL,36000.0000,N,72000.0000,E,204304.329,V*1A
$GPGSA,A,1,,,,,,,,,,,,,50.0,50.0,50.0*05
GPSD,O=?
$GPGSV,3,1,12,01,90,000,47,13,77,000,00,08,71,000,,22,65,000,00*7C
$GPGSV,3,2,12,09,65,000,00,26,40,000,,24,33,000,00,04,28,000,00*79
$GPGSV,3,3,12,27,25,000,00,16,23,000,00,15,21,000,00,11,13,000,*7B
$GPRMC,204304.329,V,36000.0000,N,72000.0000,E,0.000000,,220120,,*30
$GPVTG,,T,,M,0.000000,N,0.000000,K*4E
$GPMSS,0,0,0.000000,200,*5A
$GPGGA,204305.329,0000.0000,N,00000.0000,E,0,00,50.0,0.0,M,0.0,M,0.0,0000*7E
$GPGLL,36000.0000,N,72000.0000,E,204305.329,V*1B
$GPGSA,A,1,,,,,,,,,,,,,50.0,50.0,50.0*05
GPSD,O=?
$GPGSV,3,1,12,01,90,000,47,13,77,000,00,08,71,000,,22,65,000,00*7C
$GPGSV,3,2,12,09,65,000,00,26,40,000,,24,33,000,00,04,28,000,00*79
$GPGSV,3,3,12,27,25,000,00,16,23,000,00,15,21,000,00,11,13,000,*7B
$GPRMC,204305.329,V,36000.0000,N,72000.0000,E,0.000000,,220120,,*31
$GPVTG,,T,,M,0.000000,N,0.000000,K*4E
$GPMSS,0,0,0.000000,200,*5A
$GPGGA,204306.329,0000.0000,N,00000.0000,E,0,00,50.0,0.0,M,0.0,M,0.0,0000*7D
$GPGLL,36000.0000,N,72000.0000,E,204306.329,V*18
$GPGSA,A,1,,,,,,,,,,,,,50.0,50.0,50.0*05
GPSD,O=?
$GPGSV,3,1,12,01,90,000,47,13,77,000,00,08,71,000,,22,65,000,00*7C
$GPGSV,3,2,12,09,65,000,00,26,40,000,,24,33,000,00,04,28,000,00*79
$GPGSV,3,3,12,27,25,000,00,16,23,000,00,15,21,000,00,11,13,000,*7B
$GPRMC,204306.329,V,36000.0000,N,72000.0000,E,0.000000,,220120,,*32
$GPVTG,,T,,M,0.000000,N,0.000000,K*4E
$GPMSS,0,0,0.000000,200,*5A
$GPGGA,204307.329,0000.0000,N,00000.0000,E,0,00,50.0,0.0,M,0.0,M,0.0,0000*7C
$GPGLL,36000.0000,N,72000.0000,E,204307.329,V*19
$GPGSA,A,1,,,,,,,,,,,,,50.0,50.0,50.0*05
GPSD,O=?
$GPGSV,3,1,12,01,90,000,47,13,77,000,00,08,71,000,,22,65,000,00*7C
$GPGSV,3,2,12,09,65,000,00,26,40,000,,24,33,000,00,04,28,000,00*79
$GPGSV,3,3,12,27,25,000,00,16,23,000,00,15,21,000,00,11,13,000,*7B
$GPRMC,204307.329,V,36000.0000,N,72000.0000,E,0.000000,,220120,,*33
$GPVTG,,T,,M,0.000000,N,0.000000,K*4E
$GPMSS,0,0,0.000000,200,*5A
$GPGGA,204308.328,0000.0000,N,00000.0000,E,0,00,50.0,0.0,M,0.0,M,0.0,0000*72
$GPGLL,36000.0000,N,72000.0000,E,204308.328,V*17
$GPGSA,A,1,,,,,,,,,,,,,50.0,50.0,50.0*05
GPSD,O=?
$GPGSV,3,1,12,01,90,000,48,13,77,000,00,08,71,000,,22,65,000,00*73
$GPGSV,3,2,12,09,65,000,00,26,40,000,,24,33,000,00,04,28,000,00*79
$GPGSV,3,3,12,27,25,000,00,16,23,000,00,15,21,000,00,11,13,000,*7B
$GPRMC,204308.328,V,36000.0000,N,72000.0000,E,0.000000,,220120,,*3D
$GPVTG,,T,,M,0.000000,N,0.000000,K*4E
$GPMSS,0,0,0.000000,200,*5A
$GPGGA,204309.328,0000.0000,N,00000.0000,E,0,00,50.0,0.0,M,0.0,M,0.0,0000*73
$GPGLL,36000.0000,N,72000.0000,E,204309.328,V*16
$GPGSA,A,1,,,,,,,,,,,,,50.0,50.0,50.0*05
GPSD,O=?
$GPGSV,3,1,12,01,90,000,48,13,77,000,00,08,71,000,,22,65,000,00*73
$GPGSV,3,2,12,09,65,000,00,26,40,000,,24,33,000,00,04,28,000,00*79
$GPGSV,3,3,12,27,25,000,00,16,23,000,00,15,21,000,00,11,13,000,*7B
$GPRMC,204309.328,V,36000.0000,N,72000.0000,E,0.000000,,220120,,*3C
$GPVTG,,T,,M,0.000000,N,0.000000,K*4E
$GPMSS,0,0,0.000000,200,*5A
$GPGGA,204310.328,0000.0000,N,00000.0000,E,0,00,50.0,0.0,M,0.0,M,0.0,0000*7B
$GPGLL,36000.0000,N,72000.0000,E,204310.328,V*1E
$GPGSA,A,1,,,,,,,,,,,,,50.0,50.0,50.0*05
GPSD,O=?
$GPGSV,3,1,12,01,90,000,47,13,77,000,00,08,71,000,,22,65,000,00*7C
$GPGSV,3,2,12,09,65,000,00,26,40,000,,24,33,000,00,04,28,000,00*79
$GPGSV,3,3,12,27,25,000,00,16,23,000,00,15,21,000,00,11,13,000,*7B
$GPRMC,204310.328,V,36000.0000,N,72000.0000,E,0.000000,,220120,,*34
$GPVTG,,T,,M,0.000000,N,0.000000,K*4E
$GPMSS,0,0,0.000000,200,*5A
$GPGGA,204311.328,0000.0000,N,00000.0000,E,0,00,50.0,0.0,M,0.0,M,0.0,0000*7A
$GPGLL,36000.0000,N,72000.0000,E,204311.328,V*1F
$GPGSA,A,1,,,,,,,,,,,,,50.0,50.0,50.0*05
GPSD,O=?
$GPGSV,3,1,12,01,90,000,47,13,77,000,00,08,71,000,,22,65,000,00*7C
$GPGSV,3,2,12,09,65,000,00,26,40,000,,24,33,000,00,04,28,000,00*79
$GPGSV,3,3,12,27,25,000,00,16,23,000,00,15,21,000,00,11,13,000,*7B
$GPRMC,204311.328,V,36000.0000,N,72000.0000,E,0.000000,,220120,,*35
$GPVTG,,T,,M,0.000000,N,0.000000,K*4E
$GPMSS,0,0,0.000000,200,*5A
$GPGGA,204312.328,0000.0000,N,00000.0000,E,0,00,50.0,0.0,M,0.0,M,0.0,0000*79
$GPGLL,36000.0000,N,72000.0000,E,204312.328,V*1C
$GPGSA,A,1,,,,,,,,,,,,,50.0,50.0,50.0*05
GPSD,O=?
$GPGSV,3,1,12,01,90,000,47,13,77,000,00,08,71,000,,22,65,000,00*7C
$GPGSV,3,2,12,09,65,000,00,26,40,000,,24,33,000,00,04,28,000,00*79
$GPGSV,3,3,12,27,25,000,00,16,23,000,00,15,21,000,00,11,13,000,*7B
$GPRMC,204312.328,V,36000.0000,N,72000.0000,E,0.000000,,220120,,*36
$GPVTG,,T,,M,0.000000,N,0.000000,K*4E
$GPMSS,0,0,0.000000,200,*5A
$GPGGA,204313.328,0000.0000,N,00000.0000,E,0,00,50.0,0.0,M,0.0,M,0.0,0000*78
$GPGLL,36000.0000,N,72000.0000,E,204313.328,V*1D
$GPGSA,A,1,,,,,,,,,,,,,50.0,50.0,50.0*05
GPSD,O=?
$GPGSV,3,1,12,01,90,000,47,13,77,000,00,08,71,000,,22,65,000,00*7C
$GPGSV,3,2,12,09,65,000,00,26,40,000,,24,33,000,00,04,28,000,00*79
$GPGSV,3,3,12,27,25,000,00,16,23,000,00,15,21,000,00,11,13,000,*7B
$GPRMC,204313.328,V,36000.0000,N,72000.0000,E,0.000000,,220120,,*37
$GPVTG,,T,,M,0.000000,N,0.000000,K*4E
$GPMSS,0,0,0.000000,200,*5A
$GPGGA,204314.328,0000.0000,N,00000.0000,E,0,00,50.0,0.0,M,0.0,M,0.0,0000*7F
$GPGLL,36000.0000,N,72000.0000,E,204314.328,V*1A
$GPGSA,A,1,,,,,,,,,,,,,50.0,50.0,50.0*05
GPSD,O=?
$GPGSV,3,1,12,01,90,000,48,13,77,000,00,08,71,000,,22,65,000,00*73
$GPGSV,3,2,12,09,65,000,00,26,40,000,,24,33,000,00,04,28,000,00*79
$GPGSV,3,3,12,27,25,000,00,16,23,000,00,15,21,000,00,11,13,000,*7B
$GPRMC,204314.328,V,36000.0000,N,72000.0000,E,0.000000,,220120,,*30
$GPVTG,,T,,M,0.000000,N,0.000000,K*4E
$GPMSS,0,0,0.000000,200,*5A
$GPGGA,204315.328,0000.0000,N,00000.0000,E,0,00,50.0,0.0,M,0.0,M,0.0,0000*7E
$GPGLL,36000.0000,N,72000.0000,E,204315.328,V*1B
$GPGSA,A,1,,,,,,,,,,,,,50.0,50.0,50.0*05
GPSD,O=?
$GPGSV,3,1,12,01,90,000,48,13,77,000,00,08,71,000,,22,65,000,00*73
$GPGSV,3,2,12,09,65,000,00,26,40,000,,24,33,000,00,04,28,000,00*79
$GPGSV,3,3,12,27,25,000,00,16,23,000,00,15,21,000,00,11,13,000,*7B
$GPRMC,204315.328,V,36000.0000,N,72000.0000,E,0.000000,,220120,,*31
$GPVTG,,T,,M,0.000000,N,0.000000,K*4E
$GPMSS,0,0,0.000000,200,*5A
$GPGGA,204316.328,0000.0000,N,00000.0000,E,0,00,50.0,0.0,M,0.0,M,0.0,0000*7D
$GPGLL,36000.0000,N,72000.0000,E,204316.328,V*18
$GPGSA,A,1,,,,,,,,,,,,,50.0,50.0,50.0*05
GPSD,O=?
$GPGSV,3,1,12,01,90,000,48,13,77,000,00,08,71,000,,22,65,000,00*73
$GPGSV,3,2,12,09,65,000,00,26,40,000,,24,33,000,00,04,28,000,00*79
$GPGSV,3,3,12,27,25,000,00,16,23,000,00,15,21,000,00,11,13,000,*7B
$GPRMC,204316.328,V,36000.0000,N,72000.0000,E,0.000000,,220120,,*32
$GPVTG,,T,,M,0.000000,N,0.000000,K*4E
$GPMSS,0,0,0.000000,200,*5A
$GPGGA,204317.328,0000.0000,N,00000.0000,E,0,00,50.0,0.0,M,0.0,M,0.0,0000*7C
$GPGLL,36000.0000,N,72000.0000,E,204317.328,V*19
$GPGSA,A,1,,,,,,,,,,,,,50.0,50.0,50.0*05
GPSD,O=?
$GPGSV,3,1,12,01,90,000,48,13,77,000,00,08,71,000,,22,65,000,00*73
$GPGSV,3,2,12,09,65,000,00,26,40,000,,24,33,000,00,04,28,000,00*79
$GPGSV,3,3,12,27,25,000,00,16,23,000,00,15,21,000,00,11,13,000,*7B
$GPRMC,204317.328,V,36000.0000,N,72000.0000,E,0.000000,,220120,,*33
$GPVTG,,T,,M,0.000000,N,0.000000,K*4E
$GPMSS,0,0,0.000000,200,*5A
$GPGGA,204318.328,0000.0000,N,00000.0000,E,0,00,50.0,0.0,M,0.0,M,0.0,0000*73
$GPGLL,36000.0000,N,72000.0000,E,204318.328,V*16
$GPGSA,A,1,,,,,,,,,,,,,50.0,50.0,50.0*05
GPSD,O=?
$GPGSV,3,1,12,01,90,000,47,13,77,000,00,08,71,000,,22,65,000,00*7C
$GPGSV,3,2,12,09,65,000,00,26,40,000,,24,33,000,00,04,28,000,00*79
$GPGSV,3,3,12,27,25,000,00,16,23,000,00,15,21,000,00,11,13,000,*7B
$GPRMC,204318.328,V,36000.0000,N,72000.0000,E,0.000000,,220120,,*3C
$GPVTG,,T,,M,0.000000,N,0.000000,K*4E
$GPMSS,0,0,0.000000,200,*5A
$GPGGA,204319.328,0000.0000,N,00000.0000,E,0,00,50.0,0.0,M,0.0,M,0.0,0000*72
$GPGLL,36000.0000,N,72000.0000,E,204319.328,V*17
$GPGSA,A,1,,,,,,,,,,,,,50.0,50.0,50.0*05
GPSD,O=?
$GPGSV,3,1,12,01,90,000,47,13,77,000,00,08,71,000,,22,65,000,00*7C
$GPGSV,3,2,12,09,65,000,00,26,40,000,,24,33,000,00,04,28,000,00*79
$GPGSV,3,3,12,27,25,000,00,16,23,000,00,15,21,000,00,11,13,000,*7B
$GPRMC,204319.328,V,36000.0000,N,72000.0000,E,0.000000,,220120,,*3D
$GPVTG,,T,,M,0.000000,N,0.000000,K*4E
$GPMSS,0,0,0.000000,200,*5A
$GPGGA,204320.328,0000.0000,N,00000.0000,E,0,00,50.0,0.0,M,0.0,M,0.0,0000*78
$GPGLL,36000.0000,N,72000.0000,E,204320.328,V*1D
$GPGSA,A,1,,,,,,,,,,,,,50.0,50.0,50.0*05
GPSD,O=?
$GPGSV,3,1,12,01,90,000,47,13,77,000,00,08,71,000,,22,65,000,00*7C
$GPGSV,3,2,12,09,65,000,00,26,40,000,,24,33,000,00,04,28,000,00*79
$GPGSV,3,3,12,27,25,000,00,16,23,000,00,15,21,000,00,11,13,000,*7B
$GPRMC,204320.328,V,36000.0000,N,72000.0000,E,0.000000,,220120,,*37
$GPVTG,,T,,M,0.000000,N,0.000000,K*4E
$GPMSS,0,0,0.000000,200,*5A
$GPGGA,204321.328,0000.0000,N,00000.0000,E,0,00,50.0,0.0,M,0.0,M,0.0,0000*79
$GPGLL,36000.0000,N,72000.0000,E,204321.328,V*1C
$GPGSA,A,1,,,,,,,,,,,,,50.0,50.0,50.0*05
GPSD,O=?
$GPGSV,3,1,12,01,90,000,47,13,77,000,00,08,71,000,,22,65,000,00*7C
$GPGSV,3,2,12,09,65,000,00,26,40,000,,24,33,000,00,04,28,000,00*79
$GPGSV,3,3,12,27,25,000,00,16,23,000,00,15,21,000,00,11,13,000,*7B
$GPRMC,204321.328,V,36000.0000,N,72000.0000,E,0.000000,,220120,,*36
$GPVTG,,T,,M,0.000000,N,0.000000,K*4E
$GPMSS,0,0,0.000000,200,*5A
$GPGGA,204322.328,0000.0000,N,00000.0000,E,0,00,50.0,0.0,M,0.0,M,0.0,0000*7A
$GPGLL,36000.0000,N,72000.0000,E,204322.328,V*1F
$GPGSA,A,1,,,,,,,,,,,,,50.0,50.0,50.0*05
GPSD,O=?
$GPGSV,3,1,12,01,90,000,47,13,77,000,00,08,71,000,,22,65,000,00*7C
$GPGSV,3,2,12,09,65,000,00,26,40,000,,24,33,000,00,04,28,000,00*79
$GPGSV,3,3,12,27,25,000,00,16,23,000,00,15,21,000,00,11,13,000,*7B
$GPRMC,204322.328,V,36000.0000,N,72000.0000,E,0.000000,,220120,,*35
$GPVTG,,T,,M,0.000000,N,0.000000,K*4E
$GPMSS,0,0,0.000000,200,*5A
$GPGGA,204323.328,0000.0000,N,00000.0000,E,0,00,50.0,0.0,M,0.0,M,0.0,0000*7B
$GPGLL,36000.0000,N,72000.0000,E,204323.328,V*1E
$GPGSA,A,1,,,,,,,,,,,,,50.0,50.0,50.0*05
GPSD,O=?
$GPGSV,3,1,12,01,90,000,47,13,77,000,00,08,71,000,,22,65,000,00*7C
$GPGSV,3,2,12,09,65,000,00,26,40,000,,24,33,000,00,04,28,000,00*79
$GPGSV,3,3,12,27,25,000,00,16,23,000,00,15,21,000,00,11,13,000,*7B
$GPRMC,204323.328,V,36000.0000,N,72000.0000,E,0.000000,,080605,,*3C
$GPVTG,,T,,M,0.000000,N,0.000000,K*4E
$GPMSS,0,0,0.000000,200,*5A
$GPGGA,204324.327,0000.0000,N,00000.0000,E,0,00,50.0,0.0,M,0.0,M,0.0,0000*73
$GPGLL,36000.0000,N,72000.0000,E,204324.327,V*16
$GPGSA,A,1,,,,,,,,,,,,,50.0,50.0,50.0*05
GPSD,O=?
$GPGSV,3,1,12,01,89,000,47,11,56,000,,14,47,000,,25,41,000,*7C
$GPGSV,3,2,12,19,21,000,00,20,21,000,,22,18,000,00,03,05,000,*7E
$GPGSV,3,3,12,23,02,000,,15,00,000,00,07,00,000,00,24,-01,000,00*50
$GPRMC,204324.327,V,36000.0000,N,72000.0000,E,0.000000,,080605,,*34
$GPVTG,,T,,M,0.000000,N,0.000000,K*4E
$GPMSS,0,0,0.000000,200,*5A
$GPGGA,204325.327,0000.0000,N,00000.0000,E,0,00,50.0,0.0,M,0.0,M,0.0,0000*72
$GPGLL,36000.0000,N,72000.0000,E,204325.327,V*17
$GPGSA,A,1,,,,,,,,,,,,,50.0,50.0,50.0*05
GPSD,O=?
$GPGSV,3,1,12,01,89,000,48,11,56,000,,14,47,000,00,25,41,000,*73
$GPGSV,3,2,12,19,21,000,00,20,21,000,,22,18,000,00,03,05,000,*7E
$GPGSV,3,3,12,23,02,000,00,15,00,000,00,07,00,000,00,24,-01,000,00*50
$GPRMC,204325.327,V,36000.0000,N,72000.0000,E,0.000000,,080605,,*35
$GPVTG,,T,,M,0.000000,N,0.000000,K*4E
$GPMSS,0,0,0.000000,200,*5A
$GPGGA,204326.327,0000.0000,N,00000.0000,E,0,00,50.0,0.0,M,0.0,M,0.0,0000*71
$GPGLL,36000.0000,N,72000.0000,E,204326.327,V*14
$GPGSA,A,1,,,,,,,,,,,,,50.0,50.0,50.0*05
GPSD,O=?
$GPGSV,3,1,12,01,89,000,47,11,56,000,,14,47,000,00,25,41,000,*7C
$GPGSV,3,2,12,19,21,000,00,20,21,000,,22,18,000,00,03,05,000,*7E
$GPGSV,3,3,12,23,02,000,00,15,00,000,00,07,00,000,00,24,-01,000,00*50
$GPRMC,204326.327,V,36000.0000,N,72000.0000,E,0.000000,,080605,,*36
$GPVTG,,T,,M,0.000000,N,0.000000,K*4E
$GPMSS,0,0,0.000000,200,*5A
$GPGGA,204327.327,0000.0000,N,00000.0000,E,0,00,50.0,0.0,M,0.0,M,0.0,0000*70
$GPGLL,36000.0000,N,72000.0000,E,204327.327,V*15
$GPGSA,A,1,,,,,,,,,,,,,50.0,50.0,50.0*05
GPSD,O=?
$GPGSV,3,1,12,01,89,000,47,11,56,000,,14,47,000,00,25,41,000,*7C
$GPGSV,3,2,12,19,21,000,00,20,21,000,,22,18,000,00,03,05,000,*7E
$GPGSV,3,3,12,23,02,000,00,15,00,000,00,07,00,000,00,24,-01,000,00*50
$GPRMC,204327.327,V,36000.0000,N,72000.0000,E,0.000000,,080605,,*37
$GPVTG,,T,,M,0.000000,N,0.000000,K*4E
$GPMSS,0,0,0.000000,200,*5A
$GPGGA,204328.327,0000.0000,N,00000.0000,E,0,00,50.0,0.0,M,0.0,M,0.0,0000*7F
$GPGLL,36000.0000,N,72000.0000,E,204328.327,V*1A
$GPGSA,A,1,,,,,,,,,,,,,50.0,50.0,50.0*05
GPSD,O=?
$GPGSV,3,1,12,01,89,000,47,11,56,000,,14,47,000,00,25,41,000,*7C
$GPGSV,3,2,12,19,21,000,00,20,21,000,,22,18,000,00,03,05,000,*7E
$GPGSV,3,3,12,23,02,000,00,15,00,000,00,07,00,000,00,24,-01,000,00*50
$GPRMC,204328.327,V,36000.0000,N,72000.0000,E,0.000000,,080605,,*38
$GPVTG,,T,,M,0.000000,N,0.000000,K*4E
$GPMSS,0,0,0.000000,200,*5A
$GPGGA,204329.327,0000.0000,N,00000.0000,E,0,00,50.0,0.0,M,0.0,M,0.0,0000*7E
$GPGLL,36000.0000,N,72000.0000,E,204329.327,V*1B
$GPGSA,A,1,,,,,,,,,,,,,50.0,50.0,50.0*05
GPSD,O=?
$GPGSV,3,1,12,01,89,000,47,11,56,000,,14,47,000,00,25,41,000,*7C
$GPGSV,3,2,12,19,21,000,00,20,21,000,,22,18,000,00,03,05,000,*7E
$GPGSV,3,3,12,23,02,000,00,15,00,000,00,07,00,000,00,24,-01,000,00*50
$GPRMC,204329.327,V,36000.0000,N,72000.0000,E,0.000000,,080605,,*39
$GPVTG,,T,,M,0.000000,N,0.000000,K*4E
$GPMSS,0,0,0.000000,200,*5A
$GPGGA,204330.327,0000.0000,N,00000.0000,E,0,00,50.0,0.0,M,0.0,M,0.0,0000*76
$GPGLL,36000.0000,N,72000.0000,E,204330.327,V*13
$GPGSA,A,1,,,,,,,,,,,,,50.0,50.0,50.0*05
GPSD,O=?
$GPGSV,3,1,12,01,89,000,47,11,56,000,,14,47,000,00,25,41,000,*7C
$GPGSV,3,2,12,19,21,000,00,20,21,000,,22,18,000,00,03,05,000,*7E
$GPGSV,3,3,12,23,02,000,00,15,00,000,00,07,00,000,00,24,-01,000,00*50
$GPRMC,204330.327,V,36000.0000,N,72000.0000,E,0.000000,,080605,,*31
$GPVTG,,T,,M,0.000000,N,0.000000,K*4E
$GPMSS,0,0,0.000000,200,*5A
$GPGGA,204331.327,0000.0000,N,00000.0000,E,0,00,50.0,0.0,M,0.0,M,0.0,0000*77
$GPGLL,36000.0000,N,72000.0000,E,204331.327,V*12
$GPGSA,A,1,,,,,,,,,,,,,50.0,50.0,50.0*05
GPSD,O=?
$GPGSV,3,1,12,01,89,000,47,11,56,000,,14,47,000,40,25,41,000,*78
$GPGSV,3,2,12,19,21,000,00,20,21,000,,22,18,000,00,03,05,000,*7E
$GPGSV,3,3,12,23,02,000,00,15,00,000,00,07,00,000,00,24,-01,000,00*50
$GPRMC,204331.327,V,36000.0000,N,72000.0000,E,0.000000,,080605,,*30
$GPVTG,,T,,M,0.000000,N,0.000000,K*4E
$GPMSS,0,0,0.000000,200,*5A
$GPGGA,204332.327,0000.0000,N,00000.0000,E,0,00,50.0,0.0,M,0.0,M,0.0,0000*74
$GPGLL,36000.0000,N,72000.0000,E,204332.327,V*11
$GPGSA,A,1,,,,,,,,,,,,,50.0,50.0,50.0*05
GPSD,O=?
$GPGSV,3,1,12,01,89,000,47,11,56,000,,14,47,000,41,25,41,000,*79
$GPGSV,3,2,12,19,21,000,00,20,21,000,,22,18,000,00,03,05,000,*7E
$GPGSV,3,3,12,23,02,000,00,15,00,000,00,07,00,000,00,24,-01,000,00*50
$GPRMC,204332.327,V,36000.0000,N,72000.0000,E,0.000000,,080605,,*33
$GPVTG,,T,,M,0.000000,N,0.000000,K*4E
$GPMSS,0,0,0.000000,200,*5A
$GPGGA,204333.327,0000.0000,N,00000.0000,E,0,00,50.0,0.0,M,0.0,M,0.0,0000*75
$GPGLL,36000.0000,N,72000.0000,E,204333.327,V*10
$GPGSA,A,1,,,,,,,,,,,,,50.0,50.0,50.0*05
GPSD,O=?
$GPGSV,3,1,12,01,89,000,47,11,56,000,,14,47,000,40,25,41,000,*78
$GPGSV,3,2,12,19,21,000,00,20,21,000,,22,18,000,00,03,05,000,*7E
$GPGSV,3,3,12,23,02,000,00,15,00,000,00,07,00,000,00,24,-01,000,00*50
$GPRMC,204333.327,V,36000.0000,N,72000.0000,E,0.000000,,080605,,*32
$GPVTG,,T,,M,0.000000,N,0.000000,K*4E
$GPMSS,0,0,0.000000,200,*5A
$GPGGA,204334.327,0000.0000,N,00000.0000,E,0,00,50.0,0.0,M,0.0,M,0.0,0000*72
$GPGLL,36000.0000,N,72000.0000,E,204334.327,V*17
$GPGSA,A,1,,,,,,,,,,,,,50.0,50.0,50.0*05
GPSD,O=?
$GPGSV,3,1,12,01,89,000,47,11,56,000,,14,47,000,39,25,41,000,*76
$GPGSV,3,2,12,19,21,000,00,20,21,000,,22,18,000,00,03,05,000,*7E
$GPGSV,3,3,12,23,02,000,00,15,00,000,00,07,00,000,00,24,-01,000,00*50
$GPRMC,204334.327,V,36000.0000,N,72000.0000,E,0.000000,,080605,,*35
$GPVTG,,T,,M,0.000000,N,0.000000,K*4E
$GPMSS,0,0,0.000000,200,*5A
$GPGGA,204335.327,0000.0000,N,00000.0000,E,0,00,50.0,0.0,M,0.0,M,0.0,0000*73
$GPGLL,36000.0000,N,72000.0000,E,204335.327,V*16
$GPGSA,A,1,,,,,,,,,,,,,50.0,50.0,50.0*05
GPSD,O=?
$GPGSV,3,1,12,01,89,000,47,11,56,000,,14,47,000,39,25,41,000,*76
$GPGSV,3,2,12,19,21,000,00,20,21,000,,22,18,000,00,03,05,000,*7E
$GPGSV,3,3,12,23,02,000,00,15,00,000,00,07,00,000,00,24,-01,000,00*50
$GPRMC,204335.327,V,36000.0000,N,72000.0000,E,0.000000,,080605,,*34
$GPVTG,,T,,M,0.000000,N,0.000000,K*4E
$GPMSS,0,0,0.000000,200,*5A
$GPGGA,204336.327,0000.0000,N,00000.0000,E,0,00,50.0,0.0,M,0.0,M,0.0,0000*70
$GPGLL,36000.0000,N,72000.0000,E,204336.327,V*15
$GPGSA,A,1,,,,,,,,,,,,,50.0,50.0,50.0*05
GPSD,O=?
$GPGSV,3,1,12,01,89,000,47,11,56,000,,14,47,000,39,25,41,000,*76
$GPGSV,3,2,12,19,21,000,00,20,21,000,,22,18,000,00,03,05,000,*7E
$GPGSV,3,3,12,23,02,000,00,15,00,000,00,07,00,000,00,24,-01,000,00*50
$GPRMC,204336.327,V,36000.0000,N,72000.0000,E,0.000000,,080605,,*37
$GPVTG,,T,,M,0.000000,N,0.000000,K*4E
$GPMSS,0,0,0.000000,200,*5A
$GPGGA,204337.327,0000.0000,N,00000.0000,E,0,00,50.0,0.0,M,0.0,M,0.0,0000*71
$GPGLL,36000.0000,N,72000.0000,E,204337.327,V*14
$GPGSA,A,1,,,,,,,,,,,,,50.0,50.0,50.0*05
GPSD,O=?
$GPGSV,3,1,12,01,89,000,47,11,56,000,,14,47,000,38,25,41,000,*77
$GPGSV,3,2,12,19,21,000,00,20,21,000,,22,18,000,00,03,05,000,*7E
$GPGSV,3,3,12,23,02,000,00,15,00,000,00,07,00,000,00,24,-01,000,00*50
$GPRMC,204337.327,V,36000.0000,N,72000.0000,E,0.000000,,080605,,*36
$GPVTG,,T,,M,0.000000,N,0.000000,K*4E
$GPMSS,0,0,0.000000,200,*5A
$GPGGA,204338.327,0000.0000,N,00000.0000,E,0,00,50.0,0.0,M,0.0,M,0.0,0000*7E
$GPGLL,36000.0000,N,72000.0000,E,204338.327,V*1B
$GPGSA,A,1,,,,,,,,,,,,,50.0,50.0,50.0*05
GPSD,O=?
$GPGSV,3,1,12,01,89,000,47,11,56,000,,14,47,000,38,25,41,000,*77
$GPGSV,3,2,12,19,21,000,00,20,21,000,,22,18,000,00,03,05,000,*7E
$GPGSV,3,3,12,23,02,000,00,15,00,000,00,07,00,000,00,24,-01,000,00*50
$GPRMC,204338.327,V,36000.0000,N,72000.0000,E,0.000000,,080605,,*39
$GPVTG,,T,,M,0.000000,N,0.000000,K*4E
$GPMSS,0,0,0.000000,200,*5A
$GPGGA,204339.327,0000.0000,N,00000.0000,E,0,00,50.0,0.0,M,0.0,M,0.0,0000*7F
$GPGLL,36000.0000,N,72000.0000,E,204339.327,V*1A
$GPGSA,A,1,,,,,,,,,,,,,50.0,50.0,50.0*05
GPSD,O=?
$GPGSV,3,1,12,01,89,000,47,11,56,000,,14,47,000,38,25,41,000,*77
$GPGSV,3,2,12,19,21,000,00,20,21,000,,22,18,000,00,03,05,000,*7E
$GPGSV,3,3,12,23,02,000,00,15,00,000,00,07,00,000,00,24,-01,000,00*50
$GPRMC,204339.327,V,36000.0000,N,72000.0000,E,0.000000,,080605,,*38
$GPVTG,,T,,M,0.000000,N,0.000000,K*4E
$GPMSS,0,0,0.000000,200,*5A
$GPGGA,204340.327,0000.0000,N,00000.0000,E,0,00,50.0,0.0,M,0.0,M,0.0,0000*71
$GPGLL,36000.0000,N,72000.0000,E,204340.327,V*14
$GPGSA,A,1,,,,,,,,,,,,,50.0,50.0,50.0*05
GPSD,O=?
$GPGSV,3,1,12,01,89,000,47,11,56,000,,14,47,000,38,25,41,000,*77
$GPGSV,3,2,12,19,21,000,00,20,21,000,,22,18,000,00,03,05,000,*7E
$GPGSV,3,3,12,23,02,000,00,15,00,000,00,07,00,000,00,24,-01,000,00*50
$GPRMC,204340.327,V,36000.0000,N,72000.0000,E,0.000000,,080605,,*36
$GPVTG,,T,,M,0.000000,N,0.000000,K*4E
$GPMSS,0,0,0.000000,200,*5A
$GPGGA,204341.326,0000.0000,N,00000.0000,E,0,00,50.0,0.0,M,0.0,M,0.0,0000*71
$GPGLL,36000.0000,N,72000.0000,E,204341.326,V*14
$GPGSA,A,1,,,,,,,,,,,,,50.0,50.0,50.0*05
GPSD,O=?
$GPGSV,3,1,12,01,89,000,48,11,56,000,,14,47,000,38,25,41,000,*78
$GPGSV,3,2,12,19,21,000,00,20,21,000,,22,18,000,00,03,05,000,*7E
$GPGSV,3,3,12,23,02,000,00,15,00,000,00,07,00,000,00,24,-01,000,00*50
$GPRMC,204341.326,V,36000.0000,N,72000.0000,E,0.000000,,080605,,*36
$GPVTG,,T,,M,0.000000,N,0.000000,K*4E
$GPMSS,0,0,0.000000,200,*5A
$GPGGA,204342.326,0000.0000,N,00000.0000,E,0,00,50.0,0.0,M,0.0,M,0.0,0000*72
$GPGLL,36000.0000,N,72000.0000,E,204342.326,V*17
$GPGSA,A,1,,,,,,,,,,,,,50.0,50.0,50.0*05
GPSD,O=?
$GPGSV,3,1,12,01,89,000,47,11,56,000,,14,47,000,39,25,41,000,*76
$GPGSV,3,2,12,19,21,000,00,20,21,000,,22,18,000,00,03,05,000,*7E
$GPGSV,3,3,12,23,02,000,00,15,00,000,00,07,00,000,00,24,-01,000,00*50
$GPRMC,204342.326,V,36000.0000,N,72000.0000,E,0.000000,,080605,,*35
$GPVTG,,T,,M,0.000000,N,0.000000,K*4E
$GPMSS,0,0,0.000000,200,*5A
$GPGGA,204343.326,0000.0000,N,00000.0000,E,0,00,50.0,0.0,M,0.0,M,0.0,0000*73
$GPGLL,36000.0000,N,72000.0000,E,204343.326,V*16
$GPGSA,A,1,,,,,,,,,,,,,50.0,50.0,50.0*05
GPSD,O=?
$GPGSV,3,1,12,01,89,000,47,11,56,000,,14,47,000,39,25,41,000,*76
$GPGSV,3,2,12,19,21,000,00,20,21,000,,22,18,000,00,03,05,000,*7E
$GPGSV,3,3,12,23,02,000,00,15,00,000,00,07,00,000,00,24,-01,000,00*50
$GPRMC,204343.326,V,36000.0000,N,72000.0000,E,0.000000,,080605,,*34
$GPVTG,,T,,M,0.000000,N,0.000000,K*4E
$GPMSS,0,0,0.000000,200,*5A
$GPGGA,204344.326,0000.0000,N,00000.0000,E,0,00,50.0,0.0,M,0.0,M,0.0,0000*74
$GPGLL,36000.0000,N,72000.0000,E,204344.326,V*11
$GPGSA,A,1,,,,,,,,,,,,,50.0,50.0,50.0*05
GPSD,O=?
$GPGSV,3,1,12,01,89,000,48,11,56,000,,14,47,000,39,25,41,000,*79
$GPGSV,3,2,12,19,21,000,00,20,21,000,,22,18,000,00,03,05,000,*7E
$GPGSV,3,3,12,23,02,000,00,15,00,000,00,07,00,000,00,24,-01,000,00*50
$GPRMC,204344.326,V,36000.0000,N,72000.0000,E,0.000000,,080605,,*33
$GPVTG,,T,,M,0.000000,N,0.000000,K*4E
$GPMSS,0,0,0.000000,200,*5A
$GPGGA,204345.326,0000.0000,N,00000.0000,E,0,00,50.0,0.0,M,0.0,M,0.0,0000*75
$GPGLL,36000.0000,N,72000.0000,E,204345.326,V*10
$GPGSA,A,1,,,,,,,,,,,,,50.0,50.0,50.0*05
GPSD,O=?
$GPGSV,3,1,12,01,89,000,47,11,56,000,,14,47,000,39,25,41,000,*76
$GPGSV,3,2,12,19,21,000,00,20,21,000,,22,18,000,00,03,05,000,*7E
$GPGSV,3,3,12,23,02,000,00,15,00,000,00,07,00,000,00,24,-01,000,00*50
$GPRMC,204345.326,V,36000.0000,N,72000.0000,E,0.000000,,080605,,*32
$GPVTG,,T,,M,0.000000,N,0.000000,K*4E
$GPMSS,0,0,0.000000,200,*5A
$GPGGA,204346.326,0000.0000,N,00000.0000,E,0,00,50.0,0.0,M,0.0,M,0.0,0000*76
$GPGLL,36000.0000,N,72000.0000,E,204346.326,V*13
$GPGSA,A,1,,,,,,,,,,,,,50.0,50.0,50.0*05
GPSD,O=?
$GPGSV,3,1,12,01,89,000,48,11,56,000,,14,47,000,39,25,41,000,*79
$GPGSV,3,2,12,19,21,000,00,20,21,000,,22,18,000,00,03,05,000,*7E
$GPGSV,3,3,12,23,02,000,00,15,00,000,00,07,00,000,00,24,-01,000,00*50
$GPRMC,204346.326,V,36000.0000,N,72000.0000,E,0.000000,,080605,,*31
$GPVTG,,T,,M,0.000000,N,0.000000,K*4E
$GPMSS,0,0,0.000000,200,*5A
$GPGGA,204347.326,0000.0000,N,00000.0000,E,0,00,50.0,0.0,M,0.0,M,0.0,0000*77
$GPGLL,36000.0000,N,72000.0000,E,204347.326,V*12
$GPGSA,A,1,,,,,,,,,,,,,50.0,50.0,50.0*05
GPSD,O=?
$GPGSV,3,1,12,01,89,000,48,11,56,000,,14,47,000,39,25,41,000,*79
$GPGSV,3,2,12,19,21,000,00,20,21,000,,22,18,000,00,03,05,000,*7E
$GPGSV,3,3,12,23,02,000,00,15,00,000,00,07,00,000,00,24,-01,000,00*50
$GPRMC,204347.326,V,36000.0000,N,72000.0000,E,0.000000,,080605,,*30
$GPVTG,,T,,M,0.000000,N,0.000000,K*4E
$GPMSS,0,0,0.000000,200,*5A
$GPGGA,204348.326,0000.0000,N,00000.0000,E,0,00,50.0,0.0,M,0.0,M,0.0,0000*78
$GPGLL,36000.0000,N,72000.0000,E,204348.326,V*1D
$GPGSA,A,1,,,,,,,,,,,,,50.0,50.0,50.0*05
GPSD,O=?
$GPGSV,3,1,12,01,89,000,47,11,56,000,,14,47,000,38,25,41,000,*77
$GPGSV,3,2,12,19,21,000,00,20,21,000,,22,18,000,00,03,05,000,*7E
$GPGSV,3,3,12,23,02,000,00,15,00,000,00,07,00,000,00,24,-01,000,00*50
$GPRMC,204348.326,V,36000.0000,N,72000.0000,E,0.000000,,080605,,*3F
$GPVTG,,T,,M,0.000000,N,0.000000,K*4E
$GPMSS,0,0,0.000000,200,*5A
$GPGGA,204349.326,0000.0000,N,00000.0000,E,0,00,50.0,0.0,M,0.0,M,0.0,0000*79
$GPGLL,36000.0000,N,72000.0000,E,204349.326,V*1C
$GPGSA,A,1,,,,,,,,,,,,,50.0,50.0,50.0*05
GPSD,O=?
$GPGSV,3,1,12,01,89,000,48,11,56,000,,14,47,000,39,25,41,000,*79
$GPGSV,3,2,12,19,21,000,00,20,21,000,,22,18,000,00,03,05,000,*7E
$GPGSV,3,3,12,23,02,000,00,15,00,000,00,07,00,000,00,24,-01,000,00*50
$GPRMC,204349.326,V,36000.0000,N,72000.0000,E,0.000000,,080605,,*3E
$GPVTG,,T,,M,0.000000,N,0.000000,K*4E
$GPMSS,0,0,0.000000,200,*5A
$GPGGA,204350.326,0000.0000,N,00000.0000,E,0,00,50.0,0.0,M,0.0,M,0.0,0000*71
$GPGLL,36000.0000,N,72000.0000,E,204350.326,V*14
$GPGSA,A,1,,,,,,,,,,,,,50.0,50.0,50.0*05
GPSD,O=?
$GPGSV,3,1,12,01,89,000,48,11,56,000,,14,47,000,38,25,41,000,*78
$GPGSV,3,2,12,19,21,000,00,20,21,000,,22,18,000,00,03,05,000,*7E
$GPGSV,3,3,12,23,02,000,00,15,00,000,00,07,00,000,00,24,-01,000,00*50
$GPRMC,204350.326,V,36000.0000,N,72000.0000,E,0.000000,,080605,,*36
$GPVTG,,T,,M,0.000000,N,0.000000,K*4E
$GPMSS,0,0,0.000000,200,*5A
$GPGGA,204351.326,0000.0000,N,00000.0000,E,0,00,50.0,0.0,M,0.0,M,0.0,0000*70
$GPGLL,36000.0000,N,72000.0000,E,204351.326,V*15
$GPGSA,A,1,,,,,,,,,,,,,50.0,50.0,50.0*05
GPSD,O=?
$GPGSV,3,1,12,01,89,000,48,11,56,000,,14,47,000,39,25,41,000,*79
$GPGSV,3,2,12,19,21,000,00,20,21,000,,22,18,000,00,03,05,000,*7E
$GPGSV,3,3,12,23,02,000,00,15,00,000,00,07,00,000,00,24,-01,000,00*50
$GPRMC,204351.326,V,36000.0000,N,72000.0000,E,0.000000,,080605,,*37
$GPVTG,,T,,M,0.000000,N,0.000000,K*4E
$GPMSS,0,0,0.000000,200,*5A
$GPGGA,204352.326,0000.0000,N,00000.0000,E,0,00,50.0,0.0,M,0.0,M,0.0,0000*73
$GPGLL,36000.0000,N,72000.0000,E,204352.326,V*16
$GPGSA,A,1,,,,,,,,,,,,,50.0,50.0,50.0*05
GPSD,O=?
$GPGSV,3,1,12,01,89,000,48,11,56,000,00,14,47,000,38,25,41,000,00*78
$GPGSV,3,2,12,19,21,000,00,20,21,000,00,22,18,000,,03,05,000,*7E
$GPGSV,3,3,12,23,02,000,00,15,00,000,,07,00,000,,24,-01,000,00*50
$GPRMC,204352.326,V,36000.0000,N,72000.0000,E,0.000000,,080605,,*34
$GPVTG,,T,,M,0.000000,N,0.000000,K*4E
$GPMSS,0,0,0.000000,200,*5A
$GPGGA,204353.326,0000.0000,N,00000.0000,E,0,00,50.0,0.0,M,0.0,M,0.0,0000*72
$GPGLL,36000.0000,N,72000.0000,E,204353.326,V*17
$GPGSA,A,1,,,,,,,,,,,,,50.0,50.0,50.0*05
GPSD,O=?
$GPGSV,3,1,12,01,89,000,47,11,56,000,00,14,47,000,38,25,41,000,00*77
$GPGSV,3,2,12,19,21,000,00,20,21,000,00,22,18,000,,03,05,000,*7E
$GPGSV,3,3,12,23,02,000,00,15,00,000,,07,00,000,,24,-01,000,00*50
$GPRMC,204353.326,V,36000.0000,N,72000.0000,E,0.000000,,080605,,*35
$GPVTG,,T,,M,0.000000,N,0.000000,K*4E
$GPMSS,0,0,0.000000,200,*5A
$GPGGA,204354.326,0000.0000,N,00000.0000,E,0,00,50.0,0.0,M,0.0,M,0.0,0000*75
$GPGLL,36000.0000,N,72000.0000,E,204354.326,V*10
$GPGSA,A,1,,,,,,,,,,,,,50.0,50.0,50.0*05
GPSD,O=?
$GPGSV,3,1,12,01,89,000,46,11,56,000,50,14,47,000,39,25,41,000,00*72
$GPGSV,3,2,12,19,21,000,00,20,21,000,00,22,18,000,,03,05,000,*7E
$GPGSV,3,3,12,23,02,000,00,15,00,000,,07,00,000,,24,-01,000,00*50
$GPRMC,204354.326,V,36000.0000,N,72000.0000,E,0.000000,,080605,,*32
$GPVTG,,T,,M,0.000000,N,0.000000,K*4E
$GPMSS,0,0,0.000000,200,*5A
$GPGGA,204355.326,0000.0000,N,00000.0000,E,0,00,50.0,0.0,M,0.0,M,0.0,0000*74
$GPGLL,36000.0000,N,72000.0000,E,204355.326,V*11
$GPGSA,A,1,,,,,,,,,,,,,50.0,50.0,50.0*05
GPSD,O=?
$GPGSV,3,1,12,01,89,000,46,11,56,000,49,14,47,000,38,25,41,000,00*7B
$GPGSV,3,2,12,19,21,000,00,20,21,000,00,22,18,000,,03,05,000,*7E
$GPGSV,3,3,12,23,02,000,00,15,00,000,,07,00,000,,24,-01,000,00*50
$GPRMC,204355.326,V,36000.0000,N,72000.0000,E,0.000000,,080605,,*33
$GPVTG,,T,,M,0.000000,N,0.000000,K*4E
$GPMSS,0,0,0.000000,200,*5A
$GPGGA,204356.326,0000.0000,N,00000.0000,E,0,00,50.0,0.0,M,0.0,M,0.0,0000*77
$GPGLL,36000.0000,N,72000.0000,E,204356.326,V*12
$GPGSA,A,1,,,,,,,,,,,,,50.0,50.0,50.0*05
GPSD,O=?
$GPGSV,3,1,12,01,89,000,47,11,56,000,49,14,47,000,39,25,41,000,00*7B
$GPGSV,3,2,12,19,21,000,00,20,21,000,00,22,18,000,,03,05,000,*7E
$GPGSV,3,3,12,23,02,000,00,15,00,000,,07,00,000,,24,-01,000,00*50
$GPRMC,204356.326,V,36000.0000,N,72000.0000,E,0.000000,,080605,,*30
$GPVTG,,T,,M,0.000000,N,0.000000,K*4E
$GPMSS,0,0,0.000000,200,*5A
$GPGGA,204357.325,0000.0000,N,00000.0000,E,0,00,50.0,0.0,M,0.0,M,0.0,0000*75
$GPGLL,36000.0000,N,72000.0000,E,204357.325,V*10
$GPGSA,A,1,,,,,,,,,,,,,50.0,50.0,50.0*05
GPSD,O=?
$GPGSV,3,1,12,01,89,000,48,11,56,000,50,14,47,000,39,25,41,000,00*7C
$GPGSV,3,2,12,19,21,000,00,20,21,000,00,22,18,000,,03,05,000,*7E
$GPGSV,3,3,12,23,02,000,00,15,00,000,,07,00,000,,24,-01,000,00*50
$GPRMC,204357.325,V,36000.0000,N,72000.0000,E,0.000000,,080605,,*32
$GPVTG,,T,,M,0.000000,N,0.000000,K*4E
$GPMSS,0,0,0.000000,200,*5A
$GPGGA,204358.325,0000.0000,N,00000.0000,E,0,00,50.0,0.0,M,0.0,M,0.0,0000*7A
$GPGLL,36000.0000,N,72000.0000,E,204358.325,V*1F
$GPGSA,A,1,,,,,,,,,,,,,50.0,50.0,50.0*05
GPSD,O=?
$GPGSV,3,1,12,01,89,000,48,11,56,000,50,14,47,000,39,25,41,000,00*7C
$GPGSV,3,2,12,19,21,000,,20,21,000,00,22,18,000,00,03,05,000,*7E
$GPGSV,3,3,12,23,02,000,00,15,00,000,,07,00,000,,24,-01,000,00*50
$GPRMC,204358.325,V,36000.0000,N,72000.0000,E,0.000000,,080605,,*3D
$GPVTG,,T,,M,0.000000,N,0.000000,K*4E
$GPMSS,0,0,0.000000,200,*5A
$GPGGA,204359.325,0000.0000,N,00000.0000,E,0,00,50.0,0.0,M,0.0,M,0.0,0000*7B
$GPGLL,36000.0000,N,72000.0000,E,204359.325,V*1E
$GPGSA,A,1,,,,,,,,,,,,,50.0,50.0,50.0*05
GPSD,O=?
$GPGSV,3,1,12,01,89,000,48,11,56,000,50,14,47,000,39,25,41,000,00*7C
$GPGSV,3,2,12,19,21,000,,20,21,000,00,22,18,000,00,03,05,000,*7E
$GPGSV,3,3,12,23,02,000,00,15,00,000,,07,00,000,,24,-01,000,00*50
$GPRMC,204359.325,V,36000.0000,N,72000.0000,E,0.000000,,080605,,*3C
$GPVTG,,T,,M,0.000000,N,0.000000,K*4E
$GPMSS,0,0,0.000000,200,*5A
$GPGGA,204400.325,0000.0000,N,00000.0000,E,0,00,50.0,0.0,M,0.0,M,0.0,0000*70
$GPGLL,36000.0000,N,72000.0000,E,204400.325,V*15
$GPGSA,A,1,,,,,,,,,,,,,50.0,50.0,50.0*05
GPSD,O=?
$GPGSV,3,1,12,01,89,000,47,11,56,000,50,14,47,000,40,25,41,000,00*7D
$GPGSV,3,2,12,19,21,000,,20,21,000,00,22,18,000,00,03,05,000,*7E
$GPGSV,3,3,12,23,02,000,00,15,00,000,,07,00,000,,24,-01,000,00*50
$GPRMC,204400.325,V,36000.0000,N,72000.0000,E,0.000000,,080605,,*37
$GPVTG,,T,,M,0.000000,N,0.000000,K*4E
$GPMSS,0,0,0.000000,200,*5A
$GPGGA,204401.325,0000.0000,N,00000.0000,E,0,00,50.0,0.0,M,0.0,M,0.0,0000*71
$GPGLL,36000.0000,N,72000.0000,E,204401.325,V*14
$GPGSA,A,1,,,,,,,,,,,,,50.0,50.0,50.0*05
GPSD,O=?
$GPGSV,3,1,12,01,89,000,47,11,56,000,50,14,47,000,40,25,41,000,00*7D
$GPGSV,3,2,12,19,21,000,,20,21,000,00,22,18,000,00,03,05,000,*7E
$GPGSV,3,3,12,23,02,000,00,15,00,000,,07,00,000,,24,-01,000,00*50
$GPRMC,204401.325,V,36000.0000,N,72000.0000,E,0.000000,,080605,,*36
$GPVTG,,T,,M,0.000000,N,0.000000,K*4E
$GPMSS,0,0,0.000000,200,*5A
$GPGGA,204402.325,0000.0000,N,00000.0000,E,0,00,50.0,0.0,M,0.0,M,0.0,0000*72
$GPGLL,36000.0000,N,72000.0000,E,204402.325,V*17
$GPGSA,A,1,,,,,,,,,,,,,50.0,50.0,50.0*05
GPSD,O=?
$GPGSV,3,1,12,01,89,000,47,11,56,000,49,14,47,000,40,25,41,000,00*75
$GPGSV,3,2,12,19,21,000,,20,21,000,00,22,18,000,00,03,05,000,*7E
$GPGSV,3,3,12,23,02,000,00,15,00,000,,07,00,000,,24,-01,000,00*50
$GPRMC,204402.325,V,36000.0000,N,72000.0000,E,0.000000,,080605,,*35
$GPVTG,,T,,M,0.000000,N,0.000000,K*4E
$GPMSS,0,0,0.000000,200,*5A
$GPGGA,204403.325,0000.0000,N,00000.0000,E,0,00,50.0,0.0,M,0.0,M,0.0,0000*73
$GPGLL,36000.0000,N,72000.0000,E,204403.325,V*16
$GPGSA,A,1,,,,,,,,,,,,,50.0,50.0,50.0*05
GPSD,O=?
$GPGSV,3,1,12,01,89,000,47,11,56,000,48,14,47,000,39,25,41,000,00*7A
$GPGSV,3,2,12,19,21,000,,20,21,000,00,22,18,000,00,03,05,000,*7E
$GPGSV,3,3,12,23,02,000,00,15,00,000,,07,00,000,,24,-01,000,00*50
$GPRMC,204403.325,V,36000.0000,N,72000.0000,E,0.000000,,080605,,*34
$GPVTG,,T,,M,0.000000,N,0.000000,K*4E
$GPMSS,0,0,0.000000,200,*5A
$GPGGA,204404.325,0000.0000,N,00000.0000,E,0,00,50.0,0.0,M,0.0,M,0.0,0000*74
$GPGLL,36000.0000,N,72000.0000,E,204404.325,V*11
$GPGSA,A,1,,,,,,,,,,,,,50.0,50.0,50.0*05
GPSD,O=?
$GPGSV,3,1,12,01,89,000,47,11,56,000,49,14,47,000,39,25,41,000,00*7B
$GPGSV,3,2,12,19,21,000,,20,21,000,00,22,18,000,00,03,05,000,*7E
$GPGSV,3,3,12,23,02,000,00,15,00,000,,07,00,000,,24,-01,000,00*50
$GPRMC,204404.325,V,36000.0000,N,72000.0000,E,0.000000,,080605,,*33
$GPVTG,,T,,M,0.000000,N,0.000000,K*4E
$GPMSS,0,0,0.000000,200,*5A
$GPGGA,204405.325,0000.0000,N,00000.0000,E,0,00,50.0,0.0,M,0.0,M,0.0,0000*75
$GPGLL,36000.0000,N,72000.0000,E,204405.325,V*10
$GPGSA,A,1,,,,,,,,,,,,,50.0,50.0,50.0*05
GPSD,O=?
$GPGSV,3,1,12,01,89,000,48,11,56,000,50,14,47,000,39,25,41,000,00*7C
$GPGSV,3,2,12,19,21,000,,20,21,000,00,22,18,000,00,03,05,000,*7E
$GPGSV,3,3,12,23,02,000,00,15,00,000,,07,00,000,,24,-01,000,00*50
$GPRMC,204405.325,V,36000.0000,N,72000.0000,E,0.000000,,080605,,*32
$GPVTG,,T,,M,0.000000,N,0.000000,K*4E
$GPMSS,0,0,0.000000,200,*5A
$GPGGA,204406.325,0000.0000,N,00000.0000,E,0,00,50.0,0.0,M,0.0,M,0.0,0000*76
$GPGLL,36000.0000,N,72000.0000,E,204406.325,V*13
$GPGSA,A,1,,,,,,,,,,,,,50.0,50.0,50.0*05
GPSD,O=?
$GPGSV,3,1,12,01,89,000,47,11,56,000,50,14,47,000,39,25,41,000,00*73
$GPGSV,3,2,12,19,21,000,,20,21,000,00,22,18,000,00,03,05,000,*7E
$GPGSV,3,3,12,23,02,000,00,15,00,000,,07,00,000,,24,-01,000,00*50
$GPRMC,204406.325,V,36000.0000,N,72000.0000,E,0.000000,,080605,,*31
$GPVTG,,T,,M,0.000000,N,0.000000,K*4E
$GPMSS,0,0,0.000000,200,*5A
$GPGGA,204407.325,0000.0000,N,00000.0000,E,0,00,50.0,0.0,M,0.0,M,0.0,0000*77
$GPGLL,36000.0000,N,72000.0000,E,204407.325,V*12
$GPGSA,A,1,,,,,,,,,,,,,50.0,50.0,50.0*05
GPSD,O=?
$GPGSV,3,1,12,01,89,000,47,11,56,000,50,14,47,000,39,25,41,000,00*73
$GPGSV,3,2,12,19,21,000,,20,21,000,00,22,18,000,00,03,05,000,*7E
$GPGSV,3,3,12,23,02,000,00,15,00,000,,07,00,000,,24,-01,000,00*50
$GPRMC,204407.325,V,36000.0000,N,72000.0000,E,0.000000,,080605,,*30
$GPVTG,,T,,M,0.000000,N,0.000000,K*4E
$GPMSS,0,0,0.000000,200,*5A
$GPGGA,204408.325,0000.0000,N,00000.0000,E,0,00,50.0,0.0,M,0.0,M,0.0,0000*78
$GPGLL,36000.0000,N,72000.0000,E,204408.325,V*1D
$GPGSA,A,1,,,,,,,,,,,,,50.0,50.0,50.0*05
GPSD,O=?
$GPGSV,3,1,12,01,89,000,48,11,56,000,49,14,47,000,39,25,41,000,00*74
$GPGSV,3,2,12,19,21,000,,20,21,000,00,22,18,000,39,03,05,000,*74
$GPGSV,3,3,12,23,02,000,00,15,00,000,,07,00,000,,24,-01,000,00*50
$GPRMC,204408.325,V,36000.0000,N,72000.0000,E,0.000000,,080605,,*3F
$GPVTG,,T,,M,0.000000,N,0.000000,K*4E
$GPMSS,0,0,0.000000,200,*5A
$GPGGA,204409.325,0000.0000,N,00000.0000,E,0,00,50.0,0.0,M,0.0,M,0.0,0000*79
$GPGLL,36000.0000,N,72000.0000,E,204409.325,V*1C
$GPGSA,A,1,,,,,,,,,,,,,50.0,50.0,50.0*05
GPSD,O=?
$GPGSV,3,1,12,01,89,000,47,11,56,000,49,14,47,000,39,25,41,000,00*7B
$GPGSV,3,2,12,19,21,000,,20,21,000,00,22,18,000,38,03,05,000,*75
$GPGSV,3,3,12,23,02,000,00,15,00,000,,07,00,000,,24,-01,000,00*50
$GPRMC,204409.325,V,36000.0000,N,72000.0000,E,0.000000,,080605,,*3E
$GPVTG,,T,,M,0.000000,N,0.000000,K*4E
$GPMSS,0,0,0.000000,200,*5A
$GPGGA,204410.325,0000.0000,N,00000.0000,E,0,00,50.0,0.0,M,0.0,M,0.0,0000*71
$GPGLL,36000.0000,N,72000.0000,E,204410.325,V*14
$GPGSA,A,1,,,,,,,,,,,,,50.0,50.0,50.0*05
GPSD,O=?
