# Name: Rayming Tripnav TN-200
# Cycle-time: 1-second
# Start-of-cycle: GPGGA
# Pause-noted: Y
# Well-behaved: Y
# Submitted-by: "Chris Kuethe" <chris.kuethe@gmail.com>
# Date: 8 Jun 2005
# Location: Edmonton, Alberta, CA 53N113W
# Comments - Nearby airports include YEG and YXD. This capture was done
# at 4800 baud with the SiRF default NMEA message set.
$GPGGA,000416.984,0000.0000,N,00000.0000,E,0,00,50.0,0.0,M,0.0,M,0.0,0000*70
$GPGSA,A,1,,,,,,,,,,,,,50.0,50.0,50.0*05
$GPRMC,000416.984,V,36000.0000,N,72000.0000,E,0.000000,,260120,,*3B
$GPGGA,000417.984,0000.0000,N,00000.0000,E,0,00,50.0,0.0,M,0.0,M,0.0,0000*71
$GPGSA,A,1,,,,,,,,,,,,,50.0,50.0,50.0*05
$GPRMC,000417.984,V,36000.0000,N,72000.0000,E,0.000000,,260120,,*3A
$GPGGA,000418.983,0000.0000,N,00000.0000,E,0,00,50.0,0.0,M,0.0,M,0.0,0000*79
$GPGSA,A,1,,,,,,,,,,,,,50.0,50.0,50.0*05
$GPRMC,000418.983,V,36000.0000,N,72000.0000,E,0.000000,,260120,,*32
$GPGGA,000419.983,0000.0000,N,00000.0000,E,0,00,50.0,0.0,M,0.0,M,0.0,0000*78
$GPGSA,A,1,,,,,,,,,,,,,50.0,50.0,50.0*05
$GPRMC,000419.983,V,36000.0000,N,72000.0000,E,0.000000,,260120,,*33
$GPGGA,000420.983,0000.0000,N,00000.0000,E,0,00,50.0,0.0,M,0.0,M,0.0,0000*72
$GPGSA,A,1,,,,,,,,,,,,,50.0,50.0,50.0*05
$GPRMC,000420.983,V,36000.0000,N,72000.0000,E,0.000000,,260120,,*39
$GPGGA,000421.983,0000.0000,N,00000.0000,E,0,00,50.0,0.0,M,0.0,M,0.0,0000*73
$GPGSA,A,1,,,,,,,,,,,,,50.0,50.0,50.0*05
$GPRMC,000421.983,V,36000.0000,N,72000.0000,E,0.000000,,260120,,*38
$GPGGA,000422.983,0000.0000,N,00000.0000,E,0,00,50.0,0.0,M,0.0,M,0.0,0000*70
$GPGSA,A,1,,,,,,,,,,,,,50.0,50.0,50.0*05
$GPRMC,000422.983,V,36000.0000,N,72000.0000,E,0.000000,,260120,,*3B
$GPGGA,000423.983,0000.0000,N,00000.0000,E,0,00,50.0,0.0,M,0.0,M,0.0,0000*71
$GPGSA,A,1,,,,,,,,,,,,,50.0,50.0,50.0*05
$GPRMC,000423.983,V,36000.0000,N,72000.0000,E,0.000000,,260120,,*3A
$GPGGA,000424.983,0000.0000,N,00000.0000,E,0,00,50.0,0.0,M,0.0,M,0.0,0000*76
$GPGSA,A,1,,,,,,,,,,,,,50.0,50.0,50.0*05
$GPRMC,000424.983,V,36000.0000,N,72000.0000,E,0.000000,,260120,,*3D
$GPGGA,000425.983,0000.0000,N,00000.0000,E,0,00,50.0,0.0,M,0.0,M,0.0,0000*77
$GPGSA,A,1,,,,,,,,,,,,,50.0,50.0,50.0*05
$GPRMC,000425.983,V,36000.0000,N,72000.0000,E,0.000000,,260120,,*3C
$GPGGA,000426.983,0000.0000,N,00000.0000,E,0,00,50.0,0.0,M,0.0,M,0.0,0000*74
$GPGSA,A,1,,,,,,,,,,,,,50.0,50.0,50.0*05
$GPGSV,3,1,12,25,89,000,36,27,89,000,00,08,79,000,,26,79,000,00*73
$GPGSV,3,2,12,01,62,000,46,05,57,000,00,22,42,000,00,13,32,000,00*7E
$GPGSV,3,3,12,09,20,000,00,24,20,000,00,04,17,000,00,15,12,000,00*70
$GPRMC,000426.983,V,36000.0000,N,72000.0000,E,0.000000,,260120,,*3F
$GPGGA,000427.983,0000.0000,N,00000.0000,E,0,00,50.0,0.0,M,0.0,M,0.0,0000*75
$GPGSA,A,1,,,,,,,,,,,,,50.0,50.0,50.0*05
$GPRMC,000427.983,V,36000.0000,N,72000.0000,E,0.000000,,260120,,*3E
$GPGGA,000428.983,0000.0000,N,00000.0000,E,0,00,50.0,0.0,M,0.0,M,0.0,0000*7A
$GPGSA,A,1,,,,,,,,,,,,,50.0,50.0,50.0*05
$GPRMC,000428.983,V,36000.0000,N,72000.0000,E,0.000000,,260120,,*31
$GPGGA,000429.983,0000.0000,N,00000.0000,E,0,00,50.0,0.0,M,0.0,M,0.0,0000*7B
$GPGSA,A,1,,,,,,,,,,,,,50.0,50.0,50.0*05
$GPRMC,000429.983,V,36000.0000,N,72000.0000,E,0.000000,,260120,,*30
$GPGGA,000430.983,0000.0000,N,00000.0000,E,0,00,50.0,0.0,M,0.0,M,0.0,0000*73
$GPGSA,A,1,,,,,,,,,,,,,50.0,50.0,50.0*05
$GPRMC,000430.983,V,36000.0000,N,72000.0000,E,0.000000,,260120,,*38
$GPGGA,000431.983,0000.0000,N,00000.0000,E,0,00,50.0,0.0,M,0.0,M,0.0,0000*72
$GPGSA,A,1,,,,,,,,,,,,,50.0,50.0,50.0*05
$GPGSV,3,1,12,25,89,000,36,27,89,000,00,08,79,000,,26,79,000,00*73
$GPGSV,3,2,12,01,62,000,45,05,57,000,00,22,42,000,00,13,32,000,00*7D
$GPGSV,3,3,12,09,20,000,00,24,20,000,00,04,17,000,00,15,12,000,00*70
$GPRMC,000431.983,V,36000.0000,N,72000.0000,E,0.000000,,260120,,*39
$GPGGA,204137.079,0000.0000,N,00000.0000,E,0,00,50.0,0.0,M,0.0,M,0.0,0000*7B
$GPGSA,A,1,,,,,,,,,,,,,50.0,50.0,50.0*05
$GPRMC,204137.079,V,36000.0000,N,72000.0000,E,0.000000,,290120,,*3F
$GPGGA,204138.079,0000.0000,N,00000.0000,E,0,00,50.0,0.0,M,0.0,M,0.0,0000*74
$GPGSA,A,1,,,,,,,,,,,,,50.0,50.0,50.0*05
$GPRMC,204138.079,V,36000.0000,N,72000.0000,E,0.000000,,290120,,*30
$GPGGA,204139.079,0000.0000,N,00000.0000,E,0,00,50.0,0.0,M,0.0,M,0.0,0000*75
$GPGSA,A,1,,,,,,,,,,,,,50.0,50.0,50.0*05
$GPRMC,204139.079,V,36000.0000,N,72000.0000,E,0.000000,,290120,,*31
$GPGGA,204140.079,0000.0000,N,00000.0000,E,0,00,50.0,0.0,M,0.0,M,0.0,0000*7B
$GPGSA,A,1,,,,,,,,,,,,,50.0,50.0,50.0*05
$GPRMC,204140.079,V,36000.0000,N,72000.0000,E,0.000000,,290120,,*3F
$GPGGA,204141.079,0000.0000,N,00000.0000,E,0,00,50.0,0.0,M,0.0,M,0.0,0000*7A
$GPGSA,A,1,,,,,,,,,,,,,50.0,50.0,50.0*05
$GPGSV,3,1,12,25,89,000,36,27,89,000,00,08,79,000,,26,79,000,00*73
$GPGSV,3,2,12,01,62,000,46,05,57,000,00,22,42,000,00,13,32,000,00*7E
$GPGSV,3,3,12,09,20,000,00,24,20,000,00,04,17,000,00,15,12,000,00*70
$GPRMC,204141.079,V,36000.0000,N,72000.0000,E,0.000000,,290120,,*3E
$GPGGA,204142.079,0000.0000,N,00000.0000,E,0,00,50.0,0.0,M,0.0,M,0.0,0000*79
$GPGSA,A,1,,,,,,,,,,,,,50.0,50.0,50.0*05
$GPRMC,204142.079,V,36000.0000,N,72000.0000,E,0.000000,,290120,,*3D
$GPGGA,204143.079,0000.0000,N,00000.0000,E,0,00,50.0,0.0,M,0.0,M,0.0,0000*78
$GPGSA,A,1,,,,,,,,,,,,,50.0,50.0,50.0*05
$GPRMC,204143.079,V,36000.0000,N,72000.0000,E,0.000000,,290120,,*3C
$GPGGA,204144.079,0000.0000,N,00000.0000,E,0,00,50.0,0.0,M,0.0,M,0.0,0000*7F
$GPGSA,A,1,,,,,,,,,,,,,50.0,50.0,50.0*05
$GPRMC,204144.079,V,36000.0000,N,72000.0000,E,0.000000,,290120,,*3B
$GPGGA,204145.079,0000.0000,N,00000.0000,E,0,00,50.0,0.0,M,0.0,M,0.0,0000*7E
$GPGSA,A,1,,,,,,,,,,,,,50.0,50.0,50.0*05
$GPRMC,204145.079,V,36000.0000,N,72000.0000,E,0.000000,,290120,,*3A
$GPGGA,204146.079,0000.0000,N,00000.0000,E,0,00,50.0,0.0,M,0.0,M,0.0,0000*7D
$GPGSA,A,1,,,,,,,,,,,,,50.0,50.0,50.0*05
$GPGSV,3,1,12,25,89,000,34,27,89,000,00,08,79,000,,26,79,000,00*71
$GPGSV,3,2,12,01,62,000,45,05,57,000,00,22,42,000,40,13,32,000,00*79
$GPGSV,3,3,12,09,20,000,00,24,20,000,00,04,17,000,00,15,12,000,00*70
$GPRMC,204146.079,V,36000.0000,N,72000.0000,E,0.000000,,290120,,*39
$GPGGA,204147.079,0000.0000,N,00000.0000,E,0,00,50.0,0.0,M,0.0,M,0.0,0000*7C
$GPGSA,A,1,,,,,,,,,,,,,50.0,50.0,50.0*05
$GPRMC,204147.079,V,36000.0000,N,72000.0000,E,0.000000,,290120,,*38
$GPGGA,204148.079,0000.0000,N,00000.0000,E,0,00,50.0,0.0,M,0.0,M,0.0,0000*73
$GPGSA,A,1,,,,,,,,,,,,,50.0,50.0,50.0*05
$GPRMC,204148.079,V,36000.0000,N,72000.0000,E,0.000000,,290120,,*37
$GPGGA,204149.079,0000.0000,N,00000.0000,E,0,00,50.0,0.0,M,0.0,M,0.0,0000*72
$GPGSA,A,1,,,,,,,,,,,,,50.0,50.0,50.0*05
$GPRMC,204149.079,V,36000.0000,N,72000.0000,E,0.000000,,290120,,*36
$GPGGA,204150.079,0000.0000,N,00000.0000,E,0,00,50.0,0.0,M,0.0,M,0.0,0000*7A
$GPGSA,A,1,,,,,,,,,,,,,50.0,50.0,50.0*05
$GPRMC,204150.079,V,36000.0000,N,72000.0000,E,0.000000,,290120,,*3E
$GPGGA,204151.078,0000.0000,N,00000.0000,E,0,00,50.0,0.0,M,0.0,M,0.0,0000*7A
$GPGSA,A,1,,,,,,,,,,,,,50.0,50.0,50.0*05
$GPGSV,3,1,12,25,89,000,34,27,89,000,00,08,79,000,,26,79,000,00*71
$GPGSV,3,2,12,01,62,000,45,05,57,000,00,22,42,000,41,13,32,000,00*78
$GPGSV,3,3,12,09,20,000,00,24,20,000,00,04,17,000,00,15,12,000,00*70
$GPRMC,204151.078,V,36000.0000,N,72000.0000,E,0.000000,,290120,,*3E
$GPGGA,204152.078,0000.0000,N,00000.0000,E,0,00,50.0,0.0,M,0.0,M,0.0,0000*79
$GPGSA,A,1,,,,,,,,,,,,,50.0,50.0,50.0*05
$GPRMC,204152.078,V,36000.0000,N,72000.0000,E,0.000000,,290120,,*3D
$GPGGA,204153.078,0000.0000,N,00000.0000,E,0,00,50.0,0.0,M,0.0,M,0.0,0000*78
$GPGSA,A,1,,,,,,,,,,,,,50.0,50.0,50.0*05
$GPRMC,204153.078,V,36000.0000,N,72000.0000,E,0.000000,,080605,,*3F
$GPGGA,204154.078,0000.0000,N,00000.0000,E,0,00,50.0,0.0,M,0.0,M,0.0,0000*7F
$GPGSA,A,1,,,,,,,,,,,,,50.0,50.0,50.0*05
$GPRMC,204154.078,V,36000.0000,N,72000.0000,E,0.000000,,080605,,*38
$GPGGA,204155.078,0000.0000,N,00000.0000,E,0,00,50.0,0.0,M,0.0,M,0.0,0000*7E
$GPGSA,A,1,,,,,,,,,,,,,50.0,50.0,50.0*05
$GPRMC,204155.078,V,36000.0000,N,72000.0000,E,0.000000,,080605,,*39
$GPGGA,204156.078,0000.0000,N,00000.0000,E,0,00,50.0,0.0,M,0.0,M,0.0,0000*7D
$GPGSA,A,1,,,,,,,,,,,,,50.0,50.0,50.0*05
$GPGSV,3,1,12,25,65,000,34,01,51,000,45,14,51,000,00,22,48,000,42*74
$GPGSV,3,2,12,15,26,000,00,11,20,000,00,30,20,000,00,18,19,000,*79
$GPGSV,3,3,12,19,07,000,00,05,05,000,00,03,02,000,,16,-03,000,00*5D
$GPRMC,204156.078,V,36000.0000,N,72000.0000,E,0.000000,,080605,,*3A
$GPGGA,204157.078,0000.0000,N,00000.0000,E,0,00,50.0,0.0,M,0.0,M,0.0,0000*7C
$GPGSA,A,1,,,,,,,,,,,,,50.0,50.0,50.0*05
$GPRMC,204157.078,V,36000.0000,N,72000.0000,E,0.000000,,080605,,*3B
$GPGGA,204158.078,0000.0000,N,00000.0000,E,0,00,50.0,0.0,M,0.0,M,0.0,0000*73
$GPGSA,A,1,,,,,,,,,,,,,50.0,50.0,50.0*05
$GPRMC,204158.078,V,36000.0000,N,72000.0000,E,0.000000,,080605,,*34
$GPGGA,204159.078,0000.0000,N,00000.0000,E,0,00,50.0,0.0,M,0.0,M,0.0,0000*72
$GPGSA,A,1,,,,,,,,,,,,,50.0,50.0,50.0*05
$GPRMC,204159.078,V,36000.0000,N,72000.0000,E,0.000000,,080605,,*35
$GPGGA,204200.078,0000.0000,N,00000.0000,E,0,00,50.0,0.0,M,0.0,M,0.0,0000*7D
$GPGSA,A,1,,,,,,,,,,,,,50.0,50.0,50.0*05
$GPRMC,204200.078,V,36000.0000,N,72000.0000,E,0.000000,,080605,,*3A
$GPGGA,204201.078,0000.0000,N,00000.0000,E,0,00,50.0,0.0,M,0.0,M,0.0,0000*7C
$GPGSA,A,1,,,,,,,,,,,,,50.0,50.0,50.0*05
$GPGSV,3,1,12,25,65,000,,01,51,000,45,14,51,000,00,22,48,000,44*75
$GPGSV,3,2,12,15,26,000,00,11,20,000,00,30,20,000,00,18,19,000,*79
$GPGSV,3,3,12,19,07,000,00,05,05,000,00,03,02,000,,16,-03,000,00*5D
$GPRMC,204201.078,V,36000.0000,N,72000.0000,E,0.000000,,080605,,*3B
$GPGGA,204202.078,0000.0000,N,00000.0000,E,0,00,50.0,0.0,M,0.0,M,0.0,0000*7F
$GPGSA,A,1,,,,,,,,,,,,,50.0,50.0,50.0*05
$GPRMC,204202.078,V,36000.0000,N,72000.0000,E,0.000000,,080605,,*38
$GPGGA,204203.078,0000.0000,N,00000.0000,E,0,00,50.0,0.0,M,0.0,M,0.0,0000*7E
$GPGSA,A,1,,,,,,,,,,,,,50.0,50.0,50.0*05
$GPRMC,204203.078,V,36000.0000,N,72000.0000,E,0.000000,,080605,,*39
$GPGGA,204204.078,0000.0000,N,00000.0000,E,0,00,50.0,0.0,M,0.0,M,0.0,0000*79
$GPGSA,A,1,,,,,,,,,,,,,50.0,50.0,50.0*05
$GPRMC,204204.078,V,36000.0000,N,72000.0000,E,0.000000,,080605,,*3E
$GPGGA,204205.078,0000.0000,N,00000.0000,E,0,00,50.0,0.0,M,0.0,M,0.0,0000*78
$GPGSA,A,1,,,,,,,,,,,,,50.0,50.0,50.0*05
$GPRMC,204205.078,V,36000.0000,N,72000.0000,E,0.000000,,080605,,*3F
$GPGGA,204206.078,0000.0000,N,00000.0000,E,0,00,50.0,0.0,M,0.0,M,0.0,0000*7B
$GPGSA,A,1,,,,,,,,,,,,,50.0,50.0,50.0*05
$GPGSV,3,1,12,25,65,000,,01,51,000,45,14,51,000,45,22,48,000,44*74
$GPGSV,3,2,12,15,26,000,00,11,20,000,43,30,20,000,00,18,19,000,*7E
$GPGSV,3,3,12,19,07,000,00,05,05,000,00,03,02,000,,16,-03,000,00*5D
$GPRMC,204206.078,V,36000.0000,N,72000.0000,E,0.000000,,080605,,*3C
$GPGGA,204207.078,0000.0000,N,00000.0000,E,0,00,50.0,0.0,M,0.0,M,0.0,0000*7A
$GPGSA,A,1,,,,,,,,,,,,,50.0,50.0,50.0*05
$GPRMC,204207.078,V,36000.0000,N,72000.0000,E,0.000000,,080605,,*3D
$GPGGA,204208.077,0000.0000,N,00000.0000,E,0,00,50.0,0.0,M,0.0,M,0.0,0000*7A
$GPGSA,A,1,,,,,,,,,,,,,50.0,50.0,50.0*05
$GPRMC,204208.077,V,36000.0000,N,72000.0000,E,0.000000,,080605,,*3D
$GPGGA,204209.077,0000.0000,N,00000.0000,E,0,00,50.0,0.0,M,0.0,M,0.0,0000*7B
$GPGSA,A,1,,,,,,,,,,,,,50.0,50.0,50.0*05
$GPRMC,204209.077,V,36000.0000,N,72000.0000,E,0.000000,,080605,,*3C
$GPGGA,204210.077,0000.0000,N,00000.0000,E,0,00,50.0,0.0,M,0.0,M,0.0,0000*73
$GPGSA,A,1,,,,,,,,,,,,,50.0,50.0,50.0*05
$GPRMC,204210.077,V,36000.0000,N,72000.0000,E,0.000000,,080605,,*34
$GPGGA,204211.077,0000.0000,N,00000.0000,E,0,00,50.0,0.0,M,0.0,M,0.0,0000*72
$GPGSA,A,1,,,,,,,,,,,,,50.0,50.0,50.0*05
$GPGSV,3,1,12,25,65,000,,01,51,000,45,14,51,000,46,22,48,000,44*77
$GPGSV,3,2,12,15,26,000,00,11,20,000,42,30,20,000,00,18,19,000,*7F
$GPGSV,3,3,12,19,07,000,00,05,05,000,00,03,02,000,,16,-03,000,00*5D
$GPRMC,204211.077,V,36000.0000,N,72000.0000,E,0.000000,,080605,,*35
$GPGGA,204212.077,0000.0000,N,00000.0000,E,0,00,50.0,0.0,M,0.0,M,0.0,0000*71
$GPGSA,A,1,,,,,,,,,,,,,50.0,50.0,50.0*05
$GPRMC,204212.077,V,36000.0000,N,72000.0000,E,0.000000,,080605,,*36
$GPGGA,204213.077,0000.0000,N,00000.0000,E,0,00,50.0,0.0,M,0.0,M,0.0,0000*70
$GPGSA,A,1,,,,,,,,,,,,,50.0,50.0,50.0*05
$GPRMC,204213.077,V,36000.0000,N,72000.0000,E,0.000000,,080605,,*37
$GPGGA,204214.077,0000.0000,N,00000.0000,E,0,00,50.0,0.0,M,0.0,M,0.0,0000*77
$GPGSA,A,1,,,,,,,,,,,,,50.0,50.0,50.0*05
$GPRMC,204214.077,V,36000.0000,N,72000.0000,E,0.000000,,080605,,*30
$GPGGA,204215.077,0000.0000,N,00000.0000,E,0,00,50.0,0.0,M,0.0,M,0.0,0000*76
$GPGSA,A,1,,,,,,,,,,,,,50.0,50.0,50.0*05
$GPRMC,204215.077,V,36000.0000,N,72000.0000,E,0.000000,,080605,,*31
$GPGGA,204216.077,0000.0000,N,00000.0000,E,0,00,50.0,0.0,M,0.0,M,0.0,0000*75
$GPGSA,A,1,,,,,,,,,,,,,50.0,50.0,50.0*05
$GPGSV,3,1,12,25,65,000,,01,51,000,44,14,51,000,46,22,48,000,44*76
$GPGSV,3,2,12,15,26,000,00,11,20,000,42,30,20,000,00,18,19,000,*7F
$GPGSV,3,3,12,19,07,000,00,05,05,000,00,03,02,000,,16,-03,000,00*5D
$GPRMC,204216.077,V,36000.0000,N,72000.0000,E,0.000000,,080605,,*32
$GPGGA,204217.077,0000.0000,N,00000.0000,E,0,00,50.0,0.0,M,0.0,M,0.0,0000*74
$GPGSA,A,1,,,,,,,,,,,,,50.0,50.0,50.0*05
$GPRMC,204217.077,V,36000.0000,N,72000.0000,E,0.000000,,080605,,*33
$GPGGA,204218.077,0000.0000,N,00000.0000,E,0,00,50.0,0.0,M,0.0,M,0.0,0000*7B
$GPGSA,A,1,,,,,,,,,,,,,50.0,50.0,50.0*05
$GPRMC,204218.077,V,36000.0000,N,72000.0000,E,0.000000,,080605,,*3C
$GPGGA,204219.077,0000.0000,N,00000.0000,E,0,00,50.0,0.0,M,0.0,M,0.0,0000*7A
$GPGSA,A,1,,,,,,,,,,,,,50.0,50.0,50.0*05
$GPRMC,204219.077,V,36000.0000,N,72000.0000,E,0.000000,,080605,,*3D
$GPGGA,204220.077,0000.0000,N,00000.0000,E,0,00,50.0,0.0,M,0.0,M,0.0,0000*70
$GPGSA,A,1,,,,,,,,,,,,,50.0,50.0,50.0*05
$GPRMC,204220.077,V,36000.0000,N,72000.0000,E,0.000000,,080605,,*37
$GPGGA,204221.077,0000.0000,N,00000.0000,E,0,00,50.0,0.0,M,0.0,M,0.0,0000*71
$GPGSA,A,1,,,,,,,,,,,,,50.0,50.0,50.0*05
$GPGSV,3,1,12,25,65,000,,01,51,000,44,14,51,000,46,22,48,000,43*71
$GPGSV,3,2,12,15,26,000,00,11,20,000,42,30,20,000,00,18,19,000,*7F
$GPGSV,3,3,12,19,07,000,00,05,05,000,00,03,02,000,,16,-03,000,00*5D
$GPRMC,204221.077,V,36000.0000,N,72000.0000,E,0.000000,,080605,,*36
$GPGGA,204222.077,0000.0000,N,00000.0000,E,0,00,50.0,0.0,M,0.0,M,0.0,0000*72
$GPGSA,A,1,,,,,,,,,,,,,50.0,50.0,50.0*05
$GPRMC,204222.077,V,36000.0000,N,72000.0000,E,0.000000,,080605,,*35
$GPGGA,204223.077,0000.0000,N,00000.0000,E,0,00,50.0,0.0,M,0.0,M,0.0,0000*73
$GPGSA,A,1,,,,,,,,,,,,,50.0,50.0,50.0*05
$GPRMC,204223.077,V,36000.0000,N,72000.0000,E,0.000000,,080605,,*34
$GPGGA,204224.076,0000.0000,N,00000.0000,E,0,00,50.0,0.0,M,0.0,M,0.0,0000*75
$GPGSA,A,1,,,,,,,,,,,,,50.0,50.0,50.0*05
$GPRMC,204224.076,V,36000.0000,N,72000.0000,E,0.000000,,080605,,*32
$GPGGA,204225.076,0000.0000,N,00000.0000,E,0,00,50.0,0.0,M,0.0,M,0.0,0000*74
$GPGSA,A,1,,,,,,,,,,,,,50.0,50.0,50.0*05
$GPRMC,204225.076,V,36000.0000,N,72000.0000,E,0.000000,,080605,,*33
$GPGGA,204226.076,0000.0000,N,00000.0000,E,0,00,50.0,0.0,M,0.0,M,0.0,0000*77
$GPGSA,A,1,,,,,,,,,,,,,50.0,50.0,50.0*05
$GPGSV,3,1,12,25,65,000,,01,51,000,43,14,51,000,46,22,48,000,43*76
$GPGSV,3,2,12,15,26,000,00,11,20,000,43,30,20,000,00,18,19,000,*7E
$GPGSV,3,3,12,19,07,000,00,05,05,000,00,03,02,000,,16,-03,000,00*5D
$GPRMC,204226.076,V,36000.0000,N,72000.0000,E,0.000000,,080605,,*30
$GPGGA,204227.076,0000.0000,N,00000.0000,E,0,00,50.0,0.0,M,0.0,M,0.0,0000*76
$GPGSA,A,1,,,,,,,,,,,,,50.0,50.0,50.0*05
$GPRMC,204227.076,V,36000.0000,N,72000.0000,E,0.000000,,080605,,*31
$GPGGA,204228.076,0000.0000,N,00000.0000,E,0,00,50.0,0.0,M,0.0,M,0.0,0000*79
$GPGSA,A,1,,,,,,,,,,,,,50.0,50.0,50.0*05
$GPRMC,204228.076,V,36000.0000,N,72000.0000,E,0.000000,,080605,,*3E
$GPGGA,204229.076,0000.0000,N,00000.0000,E,0,00,50.0,0.0,M,0.0,M,0.0,0000*78
$GPGSA,A,1,,,,,,,,,,,,,50.0,50.0,50.0*05
$GPRMC,204229.076,V,36000.0000,N,72000.0000,E,0.000000,,080605,,*3F
$GPGGA,204230.076,0000.0000,N,00000.0000,E,0,00,50.0,0.0,M,0.0,M,0.0,0000*70
$GPGSA,A,1,,,,,,,,,,,,,50.0,50.0,50.0*05
$GPRMC,204230.076,V,36000.0000,N,72000.0000,E,0.000000,,080605,,*37
$GPGGA,204231.076,0000.0000,N,00000.0000,E,0,00,50.0,0.0,M,0.0,M,0.0,0000*71
$GPGSA,A,1,,,,,,,,,,,,,50.0,50.0,50.0*05
$GPGSV,3,1,12,25,65,000,40,01,51,000,44,14,51,000,46,22,48,000,43*75
$GPGSV,3,2,12,15,26,000,,11,20,000,43,30,20,000,00,18,19,000,*7E
$GPGSV,3,3,12,19,07,000,00,05,05,000,,03,02,000,,16,-03,000,00*5D
$GPRMC,204231.076,V,36000.0000,N,72000.0000,E,0.000000,,080605,,*36
$GPGGA,204232.076,0000.0000,N,00000.0000,E,0,00,50.0,0.0,M,0.0,M,0.0,0000*72
$GPGSA,A,1,,,,,,,,,,,,,50.0,50.0,50.0*05
$GPRMC,204232.076,V,36000.0000,N,72000.0000,E,0.000000,,080605,,*35
$GPGGA,204233.076,0000.0000,N,00000.0000,E,0,00,50.0,0.0,M,0.0,M,0.0,0000*73
$GPGSA,A,1,,,,,,,,,,,,,50.0,50.0,50.0*05
$GPRMC,204233.076,V,36000.0000,N,72000.0000,E,0.000000,,080605,,*34
$GPGGA,204234.076,0000.0000,N,00000.0000,E,0,00,50.0,0.0,M,0.0,M,0.0,0000*74
$GPGSA,A,1,,,,,,,,,,,,,50.0,50.0,50.0*05
$GPRMC,204234.076,V,36000.0000,N,72000.0000,E,0.000000,,080605,,*33
$GPGGA,204235.076,0000.0000,N,00000.0000,E,0,00,50.0,0.0,M,0.0,M,0.0,0000*75
$GPGSA,A,1,,,,,,,,,,,,,50.0,50.0,50.0*05
$GPRMC,204235.076,V,36000.0000,N,72000.0000,E,0.000000,,080605,,*32
$GPGGA,204236.080,5331.5526,N,11331.7210,W,1,04,3.0,637.8,M,-19.7,M,0.0,0000*43
$GPGSA,A,3,14,11,01,22,,,,,,,,,4.5,3.0,3.2*35
$GPGSV,3,1,12,25,65,000,40,01,51,000,44,14,51,000,46,22,48,000,43*75
$GPGSV,3,2,12,15,26,000,,11,20,000,43,30,20,000,00,18,19,000,*7E
$GPGSV,3,3,12,19,07,000,00,05,05,000,,03,02,000,,16,-03,000,00*5D
$GPRMC,204236.080,A,5331.5526,N,11331.7210,W,0.117939,11.74,080605,,*21
$GPGGA,204237.080,5331.5512,N,11331.7219,W,1,04,3.0,638.1,M,-19.7,M,0.0,0000*4A
$GPGSA,A,3,14,11,01,22,,,,,,,,,4.5,3.0,3.2*35
$GPRMC,204237.080,A,5331.5512,N,11331.7219,W,0.128947,6.93,080605,,*14
$GPGGA,204238.080,5331.5511,N,11331.7216,W,1,04,3.0,639.0,M,-19.7,M,0.0,0000*49
$GPGSA,A,3,14,11,01,22,,,,,,,,,4.5,3.0,3.2*35
$GPRMC,204238.080,A,5331.5511,N,11331.7216,W,0.137133,10.79,080605,,*21
$GPGGA,204239.080,5331.5516,N,11331.7213,W,1,04,3.0,638.4,M,-19.7,M,0.0,0000*4F
$GPGSA,A,3,14,11,01,22,,,,,,,,,4.5,3.0,3.2*35
$GPRMC,204239.080,A,5331.5516,N,11331.7213,W,0.116835,9.28,080605,,*12
$GPGGA,204240.080,5331.5513,N,11331.7211,W,1,04,3.0,638.2,M,-19.7,M,0.0,0000*40
$GPGSA,A,3,14,11,01,22,,,,,,,,,4.5,3.0,3.2*35
$GPRMC,204240.080,A,5331.5513,N,11331.7211,W,0.149728,10.85,080605,,*2D
$GPGGA,204241.080,5331.5512,N,11331.7213,W,1,04,3.0,638.2,M,-19.7,M,0.0,0000*42
$GPGSA,A,3,14,11,01,22,,,,,,,,,4.5,3.0,3.2*35
$GPGSV,3,1,10,14,70,069,45,01,65,235,44,11,43,279,43,25,35,172,40*7D
$GPGSV,3,2,10,22,31,110,42,05,14,055,00,20,11,291,00,30,08,095,00*72
$GPGSV,3,3,10,07,06,342,00,09,05,032,00*71
$GPRMC,204241.080,A,5331.5512,N,11331.7213,W,0.139079,11.32,080605,,*26
$GPGGA,204242.080,5331.5504,N,11331.7216,W,1,04,3.0,638.8,M,-19.7,M,0.0,0000*49
$GPGSA,A,3,14,11,01,22,,,,,,,,,4.5,3.0,3.2*35
$GPRMC,204242.080,A,5331.5504,N,11331.7216,W,0.121292,6.90,080605,,*17
$GPGGA,204243.080,5331.5499,N,11331.7216,W,1,04,3.0,639.7,M,-19.7,M,0.0,0000*43
$GPGSA,A,3,14,11,01,22,,,,,,,,,4.5,3.0,3.2*35
$GPRMC,204243.080,A,5331.5499,N,11331.7216,W,0.115521,12.66,080605,,*27
$GPGGA,204244.080,5331.5492,N,11331.7216,W,1,04,3.0,640.8,M,-19.7,M,0.0,0000*4E
$GPGSA,A,3,14,11,01,22,,,,,,,,,4.5,3.0,3.2*35
$GPRMC,204244.080,A,5331.5492,N,11331.7216,W,0.137719,7.17,080605,,*10
$GPGGA,204245.080,5331.5485,N,11331.7215,W,1,04,3.0,641.9,M,-19.7,M,0.0,0000*4A
$GPGSA,A,3,14,11,01,22,,,,,,,,,4.5,3.0,3.2*35
$GPRMC,204245.080,A,5331.5485,N,11331.7215,W,0.150928,12.38,080605,,*20
$GPGGA,204246.080,5331.5478,N,11331.7214,W,1,04,3.0,642.9,M,-19.7,M,0.0,0000*49
$GPGSA,A,3,14,11,01,22,,,,,,,,,4.5,3.0,3.2*35
$GPGSV,3,1,10,14,70,069,46,01,65,235,44,11,43,279,44,25,35,172,40*79
$GPGSV,3,2,10,22,31,110,42,05,14,055,00,20,11,291,00,30,08,095,00*72
$GPGSV,3,3,10,07,06,342,00,09,05,032,00*71
$GPRMC,204246.080,A,5331.5478,N,11331.7214,W,0.125084,10.21,080605,,*27
$GPGGA,204247.080,5331.5473,N,11331.7212,W,1,04,3.0,643.4,M,-19.7,M,0.0,0000*49
$GPGSA,A,3,14,11,01,22,,,,,,,,,4.5,3.0,3.2*35
$GPRMC,204247.080,A,5331.5473,N,11331.7212,W,0.124798,14.10,080605,,*26
$GPGGA,204248.080,5331.5468,N,11331.7210,W,1,04,3.0,643.7,M,-19.7,M,0.0,0000*4D
$GPGSA,A,3,14,11,01,22,,,,,,,,,4.5,3.0,3.2*35
$GPRMC,204248.080,A,5331.5468,N,11331.7210,W,0.141363,6.79,080605,,*1E
$GPGGA,204249.080,5331.5464,N,11331.7207,W,1,04,3.0,644.3,M,-19.7,M,0.0,0000*45
$GPGSA,A,3,14,11,01,22,,,,,,,,,4.5,3.0,3.2*35
$GPRMC,204249.080,A,5331.5464,N,11331.7207,W,0.114464,15.33,080605,,*29
$GPGGA,204250.080,5331.5462,N,11331.7203,W,1,04,3.0,645.3,M,-19.7,M,0.0,0000*4E
$GPGSA,A,3,14,11,01,22,,,,,,,,,4.5,3.0,3.2*35
$GPRMC,204250.080,A,5331.5462,N,11331.7203,W,0.136265,10.24,080605,,*27
$GPGGA,204251.080,5331.5461,N,11331.7199,W,1,04,3.0,646.3,M,-19.7,M,0.0,0000*4F
$GPGSA,A,3,14,11,01,22,,,,,,,,,4.5,3.0,3.2*35
$GPGSV,3,1,09,14,69,069,45,01,66,235,43,11,43,279,45,25,35,172,39*71
$GPGSV,3,2,09,22,31,110,41,05,14,054,00,20,11,291,00,30,09,095,00*79
$GPGSV,3,3,09,07,06,342,00*44
$GPRMC,204251.080,A,5331.5461,N,11331.7199,W,0.119978,16.11,080605,,*2F
$GPGGA,204252.079,5331.5461,N,11331.7194,W,1,04,3.0,646.9,M,-19.7,M,0.0,0000*4D
$GPGSA,A,3,14,11,01,22,,,,,,,,,4.5,3.0,3.2*35
$GPRMC,204252.079,A,5331.5461,N,11331.7194,W,0.146637,10.04,080605,,*2B
$GPGGA,204253.079,5331.5463,N,11331.7191,W,1,04,3.0,647.0,M,-19.7,M,0.0,0000*43
$GPGSA,A,3,14,11,01,22,,,,,,,,,4.5,3.0,3.2*35
$GPRMC,204253.079,A,5331.5463,N,11331.7191,W,0.132413,12.14,080605,,*29
$GPGGA,204254.079,5331.5466,N,11331.7186,W,1,04,3.0,647.2,M,-19.7,M,0.0,0000*45
$GPGSA,A,3,14,11,01,22,,,,,,,,,4.5,3.0,3.2*35
$GPRMC,204254.079,A,5331.5466,N,11331.7186,W,0.140612,12.82,080605,,*24
$GPGGA,204255.079,5331.5468,N,11331.7181,W,1,04,3.0,647.3,M,-19.7,M,0.0,0000*4C
$GPGSA,A,3,14,11,01,22,,,,,,,,,4.5,3.0,3.2*35
$GPRMC,204255.079,A,5331.5468,N,11331.7181,W,0.126574,7.64,080605,,*13
$GPGGA,204256.079,5331.5470,N,11331.7176,W,1,04,3.0,647.1,M,-19.7,M,0.0,0000*4C
$GPGSA,A,3,14,11,01,22,,,,,,,,,4.5,3.0,3.2*35
$GPGSV,3,1,09,14,69,069,44,01,66,235,45,11,43,279,45,25,35,172,38*77
$GPGSV,3,2,09,22,31,110,41,05,14,054,00,20,11,291,00,30,09,095,00*79
$GPGSV,3,3,09,07,06,342,00*44
$GPRMC,204256.079,A,5331.5470,N,11331.7176,W,0.132700,12.27,080605,,*26
$GPGGA,204257.079,5331.5473,N,11331.7172,W,1,04,3.0,646.7,M,-19.7,M,0.0,0000*4D
$GPGSA,A,3,14,11,01,22,,,,,,,,,4.5,3.0,3.2*35
$GPRMC,204257.079,A,5331.5473,N,11331.7172,W,0.126754,11.60,080605,,*24
$GPGGA,204258.079,5331.5476,N,11331.7170,W,1,04,3.0,646.4,M,-19.7,M,0.0,0000*46
$GPGSA,A,3,14,11,01,22,,,,,,,,,4.5,3.0,3.2*35
$GPRMC,204258.079,A,5331.5476,N,11331.7170,W,0.161638,12.10,080605,,*20
$GPGGA,204259.079,5331.5478,N,11331.7170,W,1,04,3.0,646.1,M,-19.7,M,0.0,0000*4C
$GPGSA,A,3,14,11,01,22,,,,,,,,,4.5,3.0,3.2*35
$GPRMC,204259.079,A,5331.5478,N,11331.7170,W,0.116472,8.50,080605,,*1C
$GPGGA,204300.079,5331.5478,N,11331.7171,W,1,04,3.0,645.8,M,-19.7,M,0.0,0000*4A
$GPGSA,A,3,14,11,01,22,,,,,,,,,4.5,3.0,3.2*35
$GPRMC,204300.079,A,5331.5478,N,11331.7171,W,0.152329,11.33,080605,,*24
$GPGGA,204301.079,5331.5479,N,11331.7173,W,1,04,3.0,645.7,M,-19.7,M,0.0,0000*47
$GPGSA,A,3,14,11,01,22,,,,,,,,,4.5,3.0,3.2*35
$GPGSV,3,1,09,14,69,069,45,01,66,236,45,11,43,279,45,25,35,172,37*7A
$GPGSV,3,2,09,22,31,110,42,05,14,054,00,20,11,291,00,30,09,095,00*7A
$GPGSV,3,3,09,07,06,342,00*44
$GPRMC,204301.079,A,5331.5479,N,11331.7173,W,0.129858,12.15,080605,,*20
$GPGGA,204302.079,5331.5479,N,11331.7175,W,1,04,3.0,645.5,M,-19.7,M,0.0,0000*40
$GPGSA,A,3,14,11,01,22,,,,,,,,,4.5,3.0,3.2*35
$GPRMC,204302.079,A,5331.5479,N,11331.7175,W,0.131102,10.88,080605,,*2C
$GPGGA,204303.079,5331.5480,N,11331.7177,W,1,04,3.0,645.0,M,-19.7,M,0.0,0000*40
$GPGSA,A,3,14,11,01,22,,,,,,,,,4.5,3.0,3.2*35
$GPRMC,204303.079,A,5331.5480,N,11331.7177,W,0.124858,8.67,080605,,*13
$GPGGA,204304.079,5331.5480,N,11331.7180,W,1,04,3.0,644.8,M,-19.7,M,0.0,0000*46
$GPGSA,A,3,14,11,01,22,,,,,,,,,4.5,3.0,3.2*35
$GPRMC,204304.079,A,5331.5480,N,11331.7180,W,0.122355,9.39,080605,,*16
$GPGGA,204305.079,5331.5480,N,11331.7184,W,1,04,3.0,644.5,M,-19.7,M,0.0,0000*4E
$GPGSA,A,3,14,11,01,22,,,,,,,,,4.5,3.0,3.2*35
$GPRMC,204305.079,A,5331.5480,N,11331.7184,W,0.128085,8.53,080605,,*1A
$GPGGA,204306.079,5331.5480,N,11331.7188,W,1,04,3.0,643.9,M,-19.7,M,0.0,0000*4A
$GPGSA,A,3,14,11,01,22,,,,,,,,,4.5,3.0,3.2*35
$GPGSV,3,1,09,14,69,069,46,01,66,236,44,11,43,279,45,25,35,172,37*78
$GPGSV,3,2,09,22,31,110,41,05,14,054,00,20,11,291,00,30,09,095,00*79
$GPGSV,3,3,09,07,06,342,00*44
$GPRMC,204306.079,A,5331.5480,N,11331.7188,W,0.133571,9.46,080605,,*14
$GPGGA,204307.079,5331.5481,N,11331.7191,W,1,04,3.0,643.5,M,-19.7,M,0.0,0000*4E
$GPGSA,A,3,14,11,01,22,,,,,,,,,4.5,3.0,3.2*35
$GPRMC,204307.079,A,5331.5481,N,11331.7191,W,0.124310,14.08,080605,,*2D
$GPGGA,204308.079,5331.5482,N,11331.7192,W,1,04,3.0,642.9,M,-19.7,M,0.0,0000*4C
$GPGSA,A,3,14,11,01,22,,,,,,,,,4.5,3.0,3.2*35
$GPRMC,204308.079,A,5331.5482,N,11331.7192,W,0.118716,6.99,080605,,*14
$GPGGA,204309.078,5331.5482,N,11331.7194,W,1,04,3.0,642.7,M,-19.7,M,0.0,0000*44
$GPGSA,A,3,14,11,01,22,,,,,,,,,4.5,3.0,3.2*35
$GPRMC,204309.078,A,5331.5482,N,11331.7194,W,0.136688,10.84,080605,,*23
$GPGGA,204310.078,5331.5483,N,11331.7196,W,1,04,3.0,642.6,M,-19.7,M,0.0,0000*4E
$GPGSA,A,3,14,11,01,22,,,,,,,,,4.5,3.0,3.2*35
$GPRMC,204310.078,A,5331.5483,N,11331.7196,W,0.144666,12.47,080605,,*20
$GPGGA,204311.078,5331.5483,N,11331.7196,W,1,04,3.0,642.4,M,-19.7,M,0.0,0000*4D
$GPGSA,A,3,14,11,01,22,,,,,,,,,4.5,3.0,3.2*35
$GPGSV,3,1,09,14,69,069,46,01,66,236,45,11,43,279,45,25,35,172,38*76
$GPGSV,3,2,09,22,31,110,42,05,14,054,00,20,11,291,00,30,09,095,00*7A
$GPGSV,3,3,09,07,06,342,00*44
$GPRMC,204311.078,A,5331.5483,N,11331.7196,W,0.142840,12.03,080605,,*2D
$GPGGA,204312.078,5331.5484,N,11331.7195,W,1,04,3.0,642.1,M,-19.7,M,0.0,0000*4F
$GPGSA,A,3,14,11,01,22,,,,,,,,,4.5,3.0,3.2*35
$GPRMC,204312.078,A,5331.5484,N,11331.7195,W,0.143674,11.86,080605,,*2C
$GPGGA,204313.078,5331.5484,N,11331.7192,W,1,04,3.0,641.6,M,-19.7,M,0.0,0000*4D
$GPGSA,A,3,14,11,01,22,,,,,,,,,4.5,3.0,3.2*35
$GPRMC,204313.078,A,5331.5484,N,11331.7192,W,0.147173,12.72,080605,,*26
$GPGGA,204314.078,5331.5484,N,11331.7188,W,1,04,3.0,641.9,M,-19.7,M,0.0,0000*4E
$GPGSA,A,3,14,11,01,22,,,,,,,,,4.5,3.0,3.2*35
$GPRMC,204314.078,A,5331.5484,N,11331.7188,W,0.126738,11.52,080605,,*25
$GPGGA,204315.078,5331.5483,N,11331.7182,W,1,04,3.0,642.2,M,-19.7,M,0.0,0000*4A
$GPGSA,A,3,14,11,01,22,,,,,,,,,4.5,3.0,3.2*35
$GPRMC,204315.078,A,5331.5483,N,11331.7182,W,0.117195,10.29,080605,,*27
$GPGGA,204316.078,5331.5482,N,11331.7176,W,1,04,3.0,642.5,M,-19.7,M,0.0,0000*44
$GPGSA,A,3,14,11,01,22,,,,,,,,,4.5,3.0,3.2*35
$GPGSV,3,1,09,14,69,069,45,01,66,236,45,11,43,279,45,25,35,172,39*74
$GPGSV,3,2,09,22,31,110,41,05,14,054,00,20,11,291,00,30,09,095,00*79
$GPGSV,3,3,09,07,06,342,00*44
$GPRMC,204316.078,A,5331.5482,N,11331.7176,W,0.148535,12.87,080605,,*2C
$GPGGA,204317.078,5331.5482,N,11331.7171,W,1,04,3.0,642.2,M,-19.7,M,0.0,0000*45
$GPGSA,A,3,14,11,01,22,,,,,,,,,4.5,3.0,3.2*35
$GPRMC,204317.078,A,5331.5482,N,11331.7171,W,0.144943,10.87,080605,,*29
$GPGGA,204318.078,5331.5481,N,11331.7168,W,1,04,3.0,641.6,M,-19.7,M,0.0,0000*46
$GPGSA,A,3,14,11,01,22,,,,,,,,,4.5,3.0,3.2*35
$GPRMC,204318.078,A,5331.5481,N,11331.7168,W,0.133662,10.30,080605,,*2D
$GPGGA,204319.078,5331.5481,N,11331.7164,W,1,04,3.0,641.0,M,-19.7,M,0.0,0000*4D
$GPGSA,A,3,14,11,01,22,,,,,,,,,4.5,3.0,3.2*35
$GPRMC,204319.078,A,5331.5481,N,11331.7164,W,0.130458,13.11,080605,,*28
$GPGGA,204320.078,5331.5480,N,11331.7159,W,1,04,3.0,640.7,M,-19.7,M,0.0,0000*4E
$GPGSA,A,3,14,11,01,22,,,,,,,,,4.5,3.0,3.2*35
$GPRMC,204320.078,A,5331.5480,N,11331.7159,W,0.126960,11.29,080605,,*25
$GPGGA,204321.078,5331.5479,N,11331.7154,W,1,04,3.0,640.2,M,-19.7,M,0.0,0000*41
$GPGSA,A,3,14,11,01,22,,,,,,,,,4.5,3.0,3.2*35
$GPGSV,3,1,09,14,69,069,46,01,66,236,45,11,43,279,46,25,35,172,39*74
$GPGSV,3,2,09,22,31,110,42,05,14,054,00,20,12,291,00,30,09,095,00*79
$GPGSV,3,3,09,07,06,342,00*44
$GPRMC,204321.078,A,5331.5479,N,11331.7154,W,0.144024,11.36,080605,,*2C
$GPGGA,204322.078,5331.5479,N,11331.7150,W,1,04,3.0,640.0,M,-19.7,M,0.0,0000*44
$GPGSA,A,3,14,11,01,22,,,,,,,,,4.5,3.0,3.2*35
$GPRMC,204322.078,A,5331.5479,N,11331.7150,W,0.120293,12.09,080605,,*28
$GPGGA,204323.078,5331.5478,N,11331.7149,W,1,04,3.0,639.8,M,-19.7,M,0.0,0000*4A
$GPGSA,A,3,14,11,01,22,,,,,,,,,4.5,3.0,3.2*35
$GPRMC,204323.078,A,5331.5478,N,11331.7149,W,0.123355,12.78,080605,,*2E
$GPGGA,204324.078,5331.5478,N,11331.7147,W,1,04,3.0,639.9,M,-19.7,M,0.0,0000*42
$GPGSA,A,3,14,11,01,22,,,,,,,,,4.5,3.0,3.2*35
$GPRMC,204324.078,A,5331.5478,N,11331.7147,W,0.130795,8.87,080605,,*16
$GPGGA,204325.077,5331.5478,N,11331.7145,W,1,04,3.0,640.4,M,-19.7,M,0.0,0000*4D
$GPGSA,A,3,14,11,01,22,,,,,,,,,4.5,3.0,3.2*35
$GPRMC,204325.077,A,5331.5478,N,11331.7145,W,0.125977,11.33,080605,,*2B
$GPGGA,204326.077,5331.5478,N,11331.7144,W,1,04,3.0,640.6,M,-19.7,M,0.0,0000*4D
$GPGSA,A,3,14,11,01,22,,,,,,,,,4.5,3.0,3.2*35
$GPGSV,3,1,09,14,69,069,45,01,66,236,45,11,43,279,46,25,35,172,38*76
$GPGSV,3,2,09,22,31,110,42,05,14,054,00,20,12,291,00,30,09,095,00*79
$GPGSV,3,3,09,07,06,342,00*44
$GPRMC,204326.077,A,5331.5478,N,11331.7144,W,0.139518,10.52,080605,,*27
$GPGGA,204327.077,5331.5477,N,11331.7144,W,1,04,3.0,641.1,M,-19.7,M,0.0,0000*45
$GPGSA,A,3,14,11,01,22,,,,,,,,,4.5,3.0,3.2*35
$GPRMC,204327.077,A,5331.5477,N,11331.7144,W,0.125304,11.33,080605,,*29
$GPGGA,204328.077,5331.5477,N,11331.7146,W,1,04,3.0,641.7,M,-19.7,M,0.0,0000*4E
$GPGSA,A,3,14,11,01,22,,,,,,,,,4.5,3.0,3.2*35
$GPRMC,204328.077,A,5331.5477,N,11331.7146,W,0.132804,13.54,080605,,*2A
$GPGGA,204329.077,5331.5476,N,11331.7149,W,1,04,3.0,642.7,M,-19.7,M,0.0,0000*42
$GPGSA,A,3,14,11,01,22,,,,,,,,,4.5,3.0,3.2*35
$GPRMC,204329.077,A,5331.5476,N,11331.7149,W,0.137621,11.12,080605,,*29
$GPGGA,204330.077,5331.5476,N,11331.7151,W,1,04,3.0,643.9,M,-19.7,M,0.0,0000*4C
$GPGSA,A,3,14,11,01,22,,,,,,,,,4.5,3.0,3.2*35
$GPRMC,204330.077,A,5331.5476,N,11331.7151,W,0.120531,11.88,080605,,*2F
$GPGGA,204331.077,5331.5476,N,11331.7155,W,1,04,3.0,645.2,M,-19.7,M,0.0,0000*44
$GPGSA,A,3,14,11,01,22,,,,,,,,,4.5,3.0,3.2*35
$GPGSV,3,1,09,14,69,069,45,01,66,236,45,11,43,279,46,25,35,172,37*79
$GPGSV,3,2,09,22,31,110,44,05,14,054,00,20,12,291,00,30,09,095,00*7F
$GPGSV,3,3,09,07,06,342,00*44
$GPRMC,204331.077,A,5331.5476,N,11331.7155,W,0.107928,15.45,080605,,*2E
$GPGGA,204332.077,5331.5476,N,11331.7158,W,1,04,3.0,646.7,M,-19.7,M,0.0,0000*4C
$GPGSA,A,3,14,11,01,22,,,,,,,,,4.5,3.0,3.2*35
$GPRMC,204332.077,A,5331.5476,N,11331.7158,W,0.121424,8.94,080605,,*15
$GPGGA,204333.077,5331.5475,N,11331.7163,W,1,04,3.0,648.1,M,-19.7,M,0.0,0000*4E
$GPGSA,A,3,14,11,01,22,,,,,,,,,4.5,3.0,3.2*35
$GPRMC,204333.077,A,5331.5475,N,11331.7163,W,0.089373,5.77,080605,,*19
$GPGGA,204334.077,5331.5475,N,11331.7168,W,1,04,3.0,649.3,M,-19.7,M,0.0,0000*41
$GPGSA,A,3,14,11,01,22,,,,,,,,,4.5,3.0,3.2*35
$GPRMC,204334.077,A,5331.5475,N,11331.7168,W,0.146711,10.84,080605,,*2F
$GPGGA,204335.077,5331.5476,N,11331.7172,W,1,04,3.0,650.6,M,-19.7,M,0.0,0000*45
$GPGSA,A,3,14,11,01,22,,,,,,,,,4.5,3.0,3.2*35
$GPRMC,204335.077,A,5331.5476,N,11331.7172,W,0.139833,12.09,080605,,*26
$GPGGA,204336.077,5331.5476,N,11331.7177,W,1,04,3.0,651.5,M,-19.7,M,0.0,0000*41
$GPGSA,A,3,14,11,01,22,,,,,,,,,4.5,3.0,3.2*35
$GPGSV,3,1,09,14,69,069,45,01,66,236,44,11,43,279,46,25,35,172,36*79
$GPGSV,3,2,09,22,31,110,45,05,14,054,00,20,12,291,00,30,09,095,00*7E
$GPGSV,3,3,09,07,06,342,00*44
$GPRMC,204336.077,A,5331.5476,N,11331.7177,W,0.136367,11.15,080605,,*2B
$GPGGA,204337.077,5331.5477,N,11331.7182,W,1,04,3.0,652.4,M,-19.7,M,0.0,0000*49
$GPGSA,A,3,14,11,01,22,,,,,,,,,4.5,3.0,3.2*35
$GPRMC,204337.077,A,5331.5477,N,11331.7182,W,0.128397,12.26,080605,,*22
$GPGGA,204338.077,5331.5477,N,11331.7187,W,1,04,3.0,653.4,M,-19.7,M,0.0,0000*42
$GPGSA,A,3,14,11,01,22,,,,,,,,,4.5,3.0,3.2*35
$GPRMC,204338.077,A,5331.5477,N,11331.7187,W,0.131083,9.23,080605,,*19
$GPGGA,204339.077,5331.5477,N,11331.7191,W,1,04,3.0,654.2,M,-19.7,M,0.0,0000*45
$GPGSA,A,3,14,11,01,22,,,,,,,,,4.5,3.0,3.2*35
$GPRMC,204339.077,A,5331.5477,N,11331.7191,W,0.124274,14.09,080605,,*25
$GPGGA,204340.077,5331.5477,N,11331.7196,W,1,04,3.0,655.0,M,-19.7,M,0.0,0000*4F
$GPGSA,A,3,14,11,01,22,,,,,,,,,4.5,3.0,3.2*35
$GPRMC,204340.077,A,5331.5477,N,11331.7196,W,0.136768,8.78,080605,,*1C
$GPGGA,204341.076,5331.5478,N,11331.7200,W,1,04,3.0,655.9,M,-19.7,M,0.0,0000*45
$GPGSA,A,3,14,11,01,22,,,,,,,,,4.5,3.0,3.2*35
$GPGSV,3,1,09,14,69,069,45,01,66,236,44,11,43,279,45,25,35,172,34*78
$GPGSV,3,2,09,22,31,110,46,05,14,054,00,20,12,291,00,30,09,095,00*7D
$GPGSV,3,3,09,07,06,342,00*44
$GPRMC,204341.076,A,5331.5478,N,11331.7200,W,0.150553,17.22,080605,,*24
$GPGGA,204342.076,5331.5478,N,11331.7204,W,1,04,3.0,656.8,M,-19.7,M,0.0,0000*40
$GPGSA,A,3,14,11,01,22,,,,,,,,,4.5,3.0,3.2*35
$GPRMC,204342.076,A,5331.5478,N,11331.7204,W,0.137187,6.78,080605,,*10
$GPGGA,204343.076,5331.5479,N,11331.7205,W,1,04,3.0,657.8,M,-19.7,M,0.0,0000*40
$GPGSA,A,3,14,11,01,22,,,,,,,,,4.5,3.0,3.2*35
$GPRMC,204343.076,A,5331.5479,N,11331.7205,W,0.152792,12.53,080605,,*2C
$GPGGA,204344.076,5331.5479,N,11331.7207,W,1,04,3.0,658.2,M,-19.7,M,0.0,0000*40
$GPGSA,A,3,14,11,01,22,,,,,,,,,4.5,3.0,3.2*35
$GPRMC,204344.076,A,5331.5479,N,11331.7207,W,0.123204,11.08,080605,,*28
$GPGGA,204345.076,5331.5479,N,11331.7209,W,1,04,3.0,658.5,M,-19.7,M,0.0,0000*48
$GPGSA,A,3,14,11,01,22,,,,,,,,,4.5,3.0,3.2*35
$GPRMC,204345.076,A,5331.5479,N,11331.7209,W,0.139189,7.66,080605,,*15
$GPGGA,204346.076,5331.5478,N,11331.7211,W,1,04,3.0,658.9,M,-19.7,M,0.0,0000*4F
$GPGSA,A,3,14,11,01,22,,,,,,,,,4.5,3.0,3.2*35
$GPGSV,3,1,09,14,69,069,45,01,66,236,43,11,43,278,45,25,36,172,34*7D
$GPGSV,3,2,09,22,31,111,45,05,14,054,00,20,12,292,00,30,09,095,00*7C
$GPGSV,3,3,09,07,06,342,00*44
$GPRMC,204346.076,A,5331.5478,N,11331.7211,W,0.123738,13.30,080605,,*2F
$GPGGA,204347.076,5331.5478,N,11331.7212,W,1,04,3.0,659.3,M,-19.7,M,0.0,0000*46
$GPGSA,A,3,14,11,01,22,,,,,,,,,4.5,3.0,3.2*35
$GPRMC,204347.076,A,5331.5478,N,11331.7212,W,0.129896,10.94,080605,,*21
$GPGGA,204348.076,5331.5477,N,11331.7212,W,1,04,3.0,659.0,M,-19.7,M,0.0,0000*45
$GPGSA,A,3,14,11,01,22,,,,,,,,,4.5,3.0,3.2*35
$GPRMC,204348.076,A,5331.5477,N,11331.7212,W,0.136200,11.26,080605,,*22
$GPGGA,204349.076,5331.5476,N,11331.7213,W,1,04,3.0,658.5,M,-19.7,M,0.0,0000*40
$GPGSA,A,3,14,11,01,22,,,,,,,,,4.5,3.0,3.2*35
$GPRMC,204349.076,A,5331.5476,N,11331.7213,W,0.116759,8.75,080605,,*16
$GPGGA,204350.076,5331.5475,N,11331.7213,W,1,04,3.0,658.1,M,-19.7,M,0.0,0000*4F
$GPGSA,A,3,14,11,01,22,,,,,,,,,4.5,3.0,3.2*35
$GPRMC,204350.076,A,5331.5475,N,11331.7213,W,0.159942,10.55,080605,,*29
$GPGGA,204351.076,5331.5475,N,11331.7212,W,1,04,3.0,657.3,M,-19.7,M,0.0,0000*42
$GPGSA,A,3,14,11,01,22,,,,,,,,,4.5,3.0,3.2*35
$GPGSV,3,1,09,14,69,069,46,01,66,236,43,11,43,278,45,25,35,173,35*7D
$GPGSV,3,2,09,22,31,111,45,05,14,054,00,20,12,292,00,30,09,095,00*7C
$GPGSV,3,3,09,07,06,342,00*44
$GPRMC,204351.076,A,5331.5475,N,11331.7212,W,0.122492,7.89,080605,,*12
$GPGGA,204352.076,5331.5474,N,11331.7211,W,1,04,3.0,656.4,M,-19.7,M,0.0,0000*45
$GPGSA,A,3,14,11,01,22,,,,,,,,,4.5,3.0,3.2*35
$GPRMC,204352.076,A,5331.5474,N,11331.7211,W,0.131786,8.54,080605,,*18
$GPGGA,204353.076,5331.5473,N,11331.7211,W,1,04,3.0,655.5,M,-19.7,M,0.0,0000*41
$GPGSA,A,3,14,11,01,22,,,,,,,,,4.5,3.0,3.2*35
$GPRMC,204353.076,A,5331.5473,N,11331.7211,W,0.151855,10.12,080605,,*22
$GPGGA,204354.076,5331.5472,N,11331.7210,W,1,04,3.0,654.6,M,-19.7,M,0.0,0000*44
$GPGSA,A,3,14,11,01,22,,,,,,,,,4.5,3.0,3.2*35
$GPRMC,204354.076,A,5331.5472,N,11331.7210,W,0.129702,8.79,080605,,*13
$GPGGA,204355.076,5331.5472,N,11331.7208,W,1,04,3.0,653.4,M,-19.7,M,0.0,0000*49
$GPGSA,A,3,14,11,01,22,,,,,,,,,4.5,3.0,3.2*35
$GPRMC,204355.076,A,5331.5472,N,11331.7208,W,0.109127,12.61,080605,,*2A
$GPGGA,204356.076,5331.5472,N,11331.7206,W,1,04,3.0,652.3,M,-19.7,M,0.0,0000*42
$GPGSA,A,3,14,11,01,22,,,,,,,,,4.5,3.0,3.2*35
$GPGSV,3,1,09,14,69,069,45,01,66,236,43,11,43,278,44,25,35,173,35*7F
$GPGSV,3,2,09,22,31,111,44,05,14,054,00,20,12,292,00,30,09,095,00*7D
$GPGSV,3,3,09,07,06,342,00*44
$GPRMC,204356.076,A,5331.5472,N,11331.7206,W,0.140088,10.75,080605,,*29
$GPGGA,204357.075,5331.5472,N,11331.7204,W,1,04,3.0,651.4,M,-19.7,M,0.0,0000*46
$GPGSA,A,3,14,11,01,22,,,,,,,,,4.5,3.0,3.2*35
$GPRMC,204357.075,A,5331.5472,N,11331.7204,W,0.160419,8.40,080605,,*18
$GPGGA,204358.075,5331.5472,N,11331.7202,W,1,04,3.0,650.6,M,-19.7,M,0.0,0000*4C
$GPGSA,A,3,14,11,01,22,,,,,,,,,4.5,3.0,3.2*35
$GPRMC,204358.075,A,5331.5472,N,11331.7202,W,0.152435,9.60,080605,,*1D
$GPGGA,204359.075,5331.5473,N,11331.7204,W,1,04,3.0,649.9,M,-19.7,M,0.0,0000*4D
$GPGSA,A,3,14,11,01,22,,,,,,,,,4.5,3.0,3.2*35
$GPRMC,204359.075,A,5331.5473,N,11331.7204,W,0.128625,7.69,080605,,*12
$GPGGA,204400.075,5331.5473,N,11331.7204,W,1,04,3.0,648.9,M,-19.7,M,0.0,0000*47
$GPGSA,A,3,14,11,01,22,,,,,,,,,4.5,3.0,3.2*35
$GPRMC,204400.075,A,5331.5473,N,11331.7204,W,0.138884,9.35,080605,,*1A
$GPGGA,204401.075,5331.5474,N,11331.7204,W,1,04,3.0,648.0,M,-19.7,M,0.0,0000*48
$GPGSA,A,3,14,11,01,22,,,,,,,,,4.5,3.0,3.2*35
$GPGSV,3,1,09,14,69,069,45,01,66,236,44,11,43,278,43,25,35,173,37*7D
$GPGSV,3,2,09,22,31,111,45,05,14,054,00,20,12,292,00,30,09,095,00*7C
$GPGSV,3,3,09,07,06,342,00*44
$GPRMC,204401.075,A,5331.5474,N,11331.7204,W,0.123395,6.65,080605,,*17
$GPGGA,204402.075,5331.5475,N,11331.7206,W,1,04,3.0,646.8,M,-19.7,M,0.0,0000*4E
$GPGSA,A,3,14,11,01,22,,,,,,,,,4.5,3.0,3.2*35
$GPRMC,204402.075,A,5331.5475,N,11331.7206,W,0.138230,10.02,080605,,*25
$GPGGA,204403.075,5331.5476,N,11331.7209,W,1,04,3.0,645.6,M,-19.7,M,0.0,0000*4E
$GPGSA,A,3,14,11,01,22,,,,,,,,,4.5,3.0,3.2*35
$GPRMC,204403.075,A,5331.5476,N,11331.7209,W,0.136818,8.70,080605,,*1A
$GPGGA,204404.075,5331.5476,N,11331.7212,W,1,04,3.0,644.6,M,-19.7,M,0.0,0000*42
$GPGSA,A,3,14,11,01,22,,,,,,,,,4.5,3.0,3.2*35
$GPRMC,204404.075,A,5331.5476,N,11331.7212,W,0.128445,3.24,080605,,*16
$GPGGA,204405.075,5331.5477,N,11331.7216,W,1,04,3.0,643.8,M,-19.7,M,0.0,0000*4F
$GPGSA,A,3,14,11,01,22,,,,,,,,,4.5,3.0,3.2*35
$GPRMC,204405.075,A,5331.5477,N,11331.7216,W,0.156759,9.85,080605,,*14
$GPGGA,204406.075,5331.5478,N,11331.7219,W,1,04,3.0,642.8,M,-19.7,M,0.0,0000*4D
$GPGSA,A,3,14,11,01,22,,,,,,,,,4.5,3.0,3.2*35
$GPGSV,3,1,09,14,69,069,45,01,66,236,45,11,43,278,43,25,35,173,37*7C
$GPGSV,3,2,09,22,31,111,46,05,14,054,00,20,12,292,00,30,09,095,00*7F
$GPGSV,3,3,09,07,06,342,00*44
$GPRMC,204406.075,A,5331.5478,N,11331.7219,W,0.136571,9.01,080605,,*15
$GPGGA,204407.075,5331.5479,N,11331.7222,W,1,04,3.0,641.8,M,-19.7,M,0.0,0000*46
$GPGSA,A,3,14,11,01,22,,,,,,,,,4.5,3.0,3.2*35
$GPRMC,204407.075,A,5331.5479,N,11331.7222,W,0.131120,7.00,080605,,*15
$GPGGA,204408.075,5331.5481,N,11331.7225,W,1,04,3.0,641.3,M,-19.7,M,0.0,0000*42
$GPGSA,A,3,14,11,01,22,,,,,,,,,4.5,3.0,3.2*35
$GPRMC,204408.075,A,5331.5481,N,11331.7225,W,0.106237,9.40,080605,,*11
$GPGGA,204409.075,5331.5482,N,11331.7227,W,1,04,3.0,641.2,M,-19.7,M,0.0,0000*43
$GPGSA,A,3,14,11,01,22,,,,,,,,,4.5,3.0,3.2*35
$GPRMC,204409.075,A,5331.5482,N,11331.7227,W,0.134419,10.66,080605,,*26
$GPGGA,204410.075,5331.5483,N,11331.7229,W,1,04,3.0,641.2,M,-19.7,M,0.0,0000*44
$GPGSA,A,3,14,11,01,22,,,,,,,,,4.5,3.0,3.2*35
$GPRMC,204410.075,A,5331.5483,N,11331.7229,W,0.136466,6.57,080605,,*1E
$GPGGA,204411.075,5331.5484,N,11331.7231,W,1,04,3.0,640.9,M,-19.7,M,0.0,0000*41
$GPGSA,A,3,14,11,01,22,,,,,,,,,4.5,3.0,3.2*35
$GPGSV,3,1,09,14,69,069,45,01,66,236,45,11,43,278,43,25,35,173,37*7C
$GPGSV,3,2,09,22,31,111,46,05,14,054,00,20,12,292,34,30,09,095,00*78
$GPGSV,3,3,09,07,06,342,00*44
$GPRMC,204411.075,A,5331.5484,N,11331.7231,W,0.167470,10.22,080605,,*27
$GPGGA,204412.075,5331.5485,N,11331.7231,W,1,04,3.0,640.7,M,-19.7,M,0.0,0000*4D
$GPGSA,A,3,14,11,01,22,,,,,,,,,4.5,3.0,3.2*35
$GPRMC,204412.075,A,5331.5485,N,11331.7231,W,0.155604,8.36,080605,,*19
$GPGGA,204413.074,5331.5486,N,11331.7231,W,1,04,3.0,640.8,M,-19.7,M,0.0,0000*41
$GPGSA,A,3,14,11,01,22,,,,,,,,,4.5,3.0,3.2*35
$GPRMC,204413.074,A,5331.5486,N,11331.7231,W,0.125451,10.82,080605,,*29
$GPGGA,204414.074,5331.5487,N,11331.7229,W,1,04,3.0,641.1,M,-19.7,M,0.0,0000*46
$GPGSA,A,3,14,11,01,22,,,,,,,,,4.5,3.0,3.2*35
$GPRMC,204414.074,A,5331.5487,N,11331.7229,W,0.141212,8.62,080605,,*12
$GPGGA,204415.074,5331.5488,N,11331.7226,W,1,04,3.0,641.8,M,-19.7,M,0.0,0000*4E
$GPGSA,A,3,14,11,01,22,,,,,,,,,4.5,3.0,3.2*35
$GPRMC,204415.074,A,5331.5488,N,11331.7226,W,0.153044,9.42,080605,,*12
$GPGGA,204416.074,5331.5488,N,11331.7224,W,1,04,3.0,642.1,M,-19.7,M,0.0,0000*45
$GPGSA,A,3,14,11,01,22,,,,,,,,,4.5,3.0,3.2*35
$GPGSV,3,1,09,14,69,069,45,01,66,236,44,11,43,278,43,25,35,173,36*7C
$GPGSV,3,2,09,22,31,111,46,05,14,054,00,20,12,292,31,30,09,095,00*7D
$GPGSV,3,3,09,07,06,342,00*44
$GPRMC,204416.074,A,5331.5488,N,11331.7224,W,0.131246,11.66,080605,,*28
$GPGGA,204417.074,5331.5489,N,11331.7221,W,1,04,3.0,642.1,M,-19.7,M,0.0,0000*40
$GPGSA,A,3,14,11,01,22,,,,,,,,,4.5,3.0,3.2*35
$GPRMC,204417.074,A,5331.5489,N,11331.7221,W,0.132447,8.80,080605,,*19
$GPGGA,204418.074,5331.5488,N,11331.7218,W,1,04,3.0,642.0,M,-19.7,M,0.0,0000*45
$GPGSA,A,3,14,11,01,22,,,,,,,,,4.5,3.0,3.2*35
$GPRMC,204418.074,A,5331.5488,N,11331.7218,W,0.152636,11.49,080605,,*22
$GPGGA,204419.074,5331.5489,N,11331.7213,W,1,04,3.0,641.9,M,-19.7,M,0.0,0000*44
$GPGSA,A,3,14,11,01,22,,,,,,,,,4.5,3.0,3.2*35
$GPRMC,204419.074,A,5331.5489,N,11331.7213,W,0.127855,11.89,080605,,*2C
$GPGGA,204420.074,5331.5488,N,11331.7208,W,1,04,3.0,641.7,M,-19.7,M,0.0,0000*4B
$GPGSA,A,3,14,11,01,22,,,,,,,,,4.5,3.0,3.2*35
$GPRMC,204420.074,A,5331.5488,N,11331.7208,W,0.153520,10.14,080605,,*24
$GPGGA,204421.074,5331.5488,N,11331.7202,W,1,04,3.0,641.3,M,-19.7,M,0.0,0000*44
$GPGSA,A,3,14,11,01,22,,,,,,,,,4.5,3.0,3.2*35
$GPGSV,3,1,09,14,69,069,45,01,66,236,45,11,43,278,45,25,35,173,36*7B
$GPGSV,3,2,09,22,31,111,45,05,14,054,00,20,12,292,28,30,09,095,00*76
$GPGSV,3,3,09,07,06,342,00*44
$GPRMC,204421.074,A,5331.5488,N,11331.7202,W,0.117460,12.03,080605,,*2E
$GPGGA,204422.074,5331.5488,N,11331.7196,W,1,04,3.0,641.2,M,-19.7,M,0.0,0000*48
$GPGSA,A,3,14,11,01,22,,,,,,,,,4.5,3.0,3.2*35
$GPRMC,204422.074,A,5331.5488,N,11331.7196,W,0.142954,10.66,080605,,*28
$GPGGA,204423.074,5331.5487,N,11331.7190,W,1,04,3.0,641.2,M,-19.7,M,0.0,0000*40
$GPGSA,A,3,14,11,01,22,,,,,,,,,4.5,3.0,3.2*35
$GPRMC,204423.074,A,5331.5487,N,11331.7190,W,0.111312,9.76,080605,,*17
$GPGGA,204424.074,5331.5487,N,11331.7184,W,1,04,3.0,641.3,M,-19.7,M,0.0,0000*43
$GPGSA,A,3,14,11,01,22,,,,,,,,,4.5,3.0,3.2*35
$GPRMC,204424.074,A,5331.5487,N,11331.7184,W,0.118261,14.87,080605,,*2B
$GPGGA,204425.074,5331.5486,N,11331.7178,W,1,04,3.0,641.6,M,-19.7,M,0.0,0000*45
$GPGSA,A,3,14,11,01,22,,,,,,,,,4.5,3.0,3.2*35
$GPRMC,204425.074,A,5331.5486,N,11331.7178,W,0.158515,12.22,080605,,*21
$GPGGA,204426.074,5331.5486,N,11331.7175,W,1,04,3.0,642.7,M,-19.7,M,0.0,0000*49
$GPGSA,A,3,14,11,01,22,,,,,,,,,4.5,3.0,3.2*35
$GPGSV,3,1,09,14,69,069,45,01,66,236,45,11,43,278,45,25,35,173,38*75
$GPGSV,3,2,09,22,31,111,43,05,14,054,00,20,12,292,28,30,09,095,00*70
$GPGSV,3,3,09,07,06,342,00*44
$GPRMC,204426.074,A,5331.5486,N,11331.7175,W,0.115986,26.60,080605,,*21
$GPGGA,204427.074,5331.5486,N,11331.7174,W,1,04,3.0,644.0,M,-19.7,M,0.0,0000*48
$GPGSA,A,3,14,11,01,22,,,,,,,,,4.5,3.0,3.2*35
$GPRMC,204427.074,A,5331.5486,N,11331.7174,W,0.158984,9.16,080605,,*16
$GPGGA,204428.074,5331.5486,N,11331.7175,W,1,04,3.0,644.7,M,-19.7,M,0.0,0000*41
$GPGSA,A,3,14,11,01,22,,,,,,,,,4.5,3.0,3.2*35
$GPRMC,204428.074,A,5331.5486,N,11331.7175,W,0.116349,11.22,080605,,*27
$GPGGA,204429.073,5331.5487,N,11331.7176,W,1,04,3.0,645.3,M,-19.7,M,0.0,0000*40
$GPGSA,A,3,14,11,01,22,,,,,,,,,4.5,3.0,3.2*35
$GPRMC,204429.073,A,5331.5487,N,11331.7176,W,0.125545,12.34,080605,,*2D
$GPGGA,204430.073,5331.5487,N,11331.7179,W,1,04,3.0,646.0,M,-19.7,M,0.0,0000*47
$GPGSA,A,3,14,11,01,22,,,,,,,,,4.5,3.0,3.2*35
$GPRMC,204430.073,A,5331.5487,N,11331.7179,W,0.115480,10.29,080605,,*2F
$GPGGA,204431.073,5331.5488,N,11331.7181,W,1,04,3.0,646.6,M,-19.7,M,0.0,0000*48
$GPGSA,A,3,14,11,01,22,,,,,,,,,4.5,3.0,3.2*35
$GPGSV,3,1,09,14,69,069,46,01,66,236,45,11,43,278,43,25,35,173,42*7D
$GPGSV,3,2,09,22,31,111,47,05,14,054,00,20,12,292,27,30,09,095,00*7B
$GPGSV,3,3,09,07,06,342,00*44
$GPRMC,204431.073,A,5331.5488,N,11331.7181,W,0.163628,9.88,080605,,*14
$GPGGA,204432.073,5331.5489,N,11331.7183,W,1,04,3.0,647.1,M,-19.7,M,0.0,0000*4E
$GPGSA,A,3,14,11,01,22,,,,,,,,,4.5,3.0,3.2*35
$GPRMC,204432.073,A,5331.5489,N,11331.7183,W,0.141581,10.32,080605,,*2D
$GPGGA,204433.073,5331.5489,N,11331.7186,W,1,04,3.0,647.4,M,-19.7,M,0.0,0000*4F
$GPGSA,A,3,14,11,01,22,,,,,,,,,4.5,3.0,3.2*35
$GPRMC,204433.073,A,5331.5489,N,11331.7186,W,0.143449,6.94,080605,,*15
$GPGGA,204434.073,5331.5490,N,11331.7190,W,1,04,3.0,647.7,M,-19.7,M,0.0,0000*44
$GPGSA,A,3,14,11,01,22,,,,,,,,,4.5,3.0,3.2*35
$GPRMC,204434.073,A,5331.5490,N,11331.7190,W,0.129776,13.44,080605,,*27
$GPGGA,204435.073,5331.5491,N,11331.7193,W,1,04,3.0,648.2,M,-19.7,M,0.0,0000*4D
$GPGSA,A,3,14,11,01,22,,,,,,,,,4.5,3.0,3.2*35
$GPRMC,204435.073,A,5331.5491,N,11331.7193,W,0.148496,9.04,080605,,*11
$GPGGA,204436.073,5331.5492,N,11331.7195,W,1,04,3.0,649.1,M,-19.7,M,0.0,0000*49
$GPGSA,A,3,14,11,01,22,,,,,,,,,4.5,3.0,3.2*35
$GPGSV,3,1,09,14,69,069,46,01,66,236,46,11,43,278,43,25,35,173,41*7D
$GPGSV,3,2,09,22,31,111,47,05,14,054,00,20,12,292,28,30,09,095,00*74
$GPGSV,3,3,09,07,06,342,00*44
$GPRMC,204436.073,A,5331.5492,N,11331.7195,W,0.134918,12.25,080605,,*2E
$GPGGA,204437.073,5331.5494,N,11331.7197,W,1,04,3.0,649.7,M,-19.7,M,0.0,0000*4A
$GPGSA,A,3,14,11,01,22,,,,,,,,,4.5,3.0,3.2*35
$GPRMC,204437.073,A,5331.5494,N,11331.7197,W,0.157929,7.35,080605,,*19
$GPGGA,204438.073,5331.5495,N,11331.7198,W,1,04,3.0,650.0,M,-19.7,M,0.0,0000*44
$GPGSA,A,3,14,11,01,22,,,,,,,,,4.5,3.0,3.2*35
$GPRMC,204438.073,A,5331.5495,N,11331.7198,W,0.133008,12.07,080605,,*25
$GPGGA,204439.073,5331.5492,N,11331.7188,W,1,05,2.6,655.6,M,-19.7,M,0.0,0000*46
$GPGSA,A,3,14,11,01,20,22,,,,,,,,3.3,2.6,1.8*39
$GPRMC,204439.073,A,5331.5492,N,11331.7188,W,0.117836,20.77,080605,,*27
$GPGGA,204440.073,5331.5493,N,11331.7190,W,1,04,3.0,655.8,M,-19.7,M,0.0,0000*48
$GPGSA,A,3,14,11,01,22,,,,,,,,,4.5,3.0,3.2*35
$GPRMC,204440.073,A,5331.5493,N,11331.7190,W,0.146288,9.39,080605,,*1B
$GPGGA,204441.073,5331.5494,N,11331.7192,W,1,04,3.0,655.7,M,-19.7,M,0.0,0000*43
$GPGSA,A,3,14,11,01,22,,,,,,,,,4.5,3.0,3.2*35
$GPGSV,3,1,09,14,69,069,46,01,66,236,46,11,43,278,44,25,36,173,41*79
$GPGSV,3,2,09,22,30,111,48,05,14,054,00,20,12,292,27,30,09,095,00*75
$GPGSV,3,3,09,07,06,342,00*44
$GPRMC,204441.073,A,5331.5494,N,11331.7192,W,0.137603,11.53,080605,,*2B
$GPGGA,204442.073,5331.5495,N,11331.7194,W,1,04,3.0,655.3,M,-19.7,M,0.0,0000*43
$GPGSA,A,3,14,11,01,22,,,,,,,,,4.5,3.0,3.2*35
$GPRMC,204442.073,A,5331.5495,N,11331.7194,W,0.134939,10.92,080605,,*26
$GPGGA,204443.073,5331.5496,N,11331.7197,W,1,04,3.0,654.9,M,-19.7,M,0.0,0000*49
$GPGSA,A,3,14,11,01,22,,,,,,,,,4.5,3.0,3.2*35
$GPRMC,204443.073,A,5331.5496,N,11331.7197,W,0.140819,13.54,080605,,*2E
$GPGGA,204444.073,5331.5496,N,11331.7197,W,1,04,3.0,654.7,M,-19.7,M,0.0,0000*40
$GPGSA,A,3,14,11,01,22,,,,,,,,,4.5,3.0,3.2*35
$GPRMC,204444.073,A,5331.5496,N,11331.7197,W,0.126861,6.73,080605,,*17
$GPGGA,204445.072,5331.5497,N,11331.7197,W,1,04,3.0,654.5,M,-19.7,M,0.0,0000*43
$GPGSA,A,3,14,11,01,22,,,,,,,,,4.5,3.0,3.2*35
$GPRMC,204445.072,A,5331.5497,N,11331.7197,W,0.130709,11.25,080605,,*25
$GPGGA,204446.072,5331.5496,N,11331.7198,W,1,04,3.0,654.4,M,-19.7,M,0.0,0000*4F
$GPGSA,A,3,14,11,01,22,,,,,,,,,4.5,3.0,3.2*35
$GPGSV,3,1,09,14,69,069,45,01,66,236,45,11,43,278,43,25,36,173,41*7E
$GPGSV,3,2,09,22,30,111,47,05,14,054,00,20,12,292,26,30,09,095,00*7B
$GPGSV,3,3,09,07,06,342,00*44
$GPRMC,204446.072,A,5331.5496,N,11331.7198,W,0.150594,11.32,080605,,*2E
$GPGGA,204447.072,5331.5496,N,11331.7197,W,1,04,3.2,654.6,M,-19.7,M,0.0,0000*41
$GPGSA,A,3,14,11,01,22,,,,,,,,,4.5,3.2,3.2*37
$GPRMC,204447.072,A,5331.5496,N,11331.7197,W,0.130778,10.60,080605,,*20
$GPGGA,204448.072,5331.5495,N,11331.7199,W,1,04,3.2,654.8,M,-19.7,M,0.0,0000*4D
$GPGSA,A,3,14,11,01,22,,,,,,,,,4.5,3.2,3.2*37
$GPRMC,204448.072,A,5331.5495,N,11331.7199,W,0.100910,8.61,080605,,*19
$GPGGA,204449.072,5331.5494,N,11331.7198,W,1,04,3.2,654.7,M,-19.7,M,0.0,0000*43
$GPGSA,A,3,14,11,01,22,,,,,,,,,4.5,3.2,3.2*37
$GPRMC,204449.072,A,5331.5494,N,11331.7198,W,0.136548,8.22,080605,,*1B
$GPGGA,204450.072,5331.5492,N,11331.7200,W,1,04,3.2,655.1,M,-19.7,M,0.0,0000*48
$GPGSA,A,3,14,11,01,22,,,,,,,,,4.5,3.2,3.2*37
$GPRMC,204450.072,A,5331.5492,N,11331.7200,W,0.144541,10.57,080605,,*20
$GPGGA,204451.072,5331.5491,N,11331.7200,W,1,04,3.2,655.4,M,-19.7,M,0.0,0000*4F
$GPGSA,A,3,14,11,01,22,,,,,,,,,4.5,3.2,3.2*37
$GPGSV,3,1,09,14,69,069,45,01,67,236,44,11,43,278,43,25,36,173,40*7F
$GPGSV,3,2,09,22,30,111,48,05,14,054,00,20,12,292,26,30,09,095,00*74
$GPGSV,3,3,09,07,06,342,00*44
$GPRMC,204451.072,A,5331.5491,N,11331.7200,W,0.118985,12.47,080605,,*2C
$GPGGA,204452.072,5331.5490,N,11331.7199,W,1,04,3.2,655.6,M,-19.7,M,0.0,0000*4C
$GPGSA,A,3,14,11,01,22,,,,,,,,,4.5,3.2,3.2*37
$GPRMC,204452.072,A,5331.5490,N,11331.7199,W,0.138868,9.25,080605,,*13
$GPGGA,204453.072,5331.5489,N,11331.7200,W,1,04,3.2,655.8,M,-19.7,M,0.0,0000*48
$GPGSA,A,3,14,11,01,22,,,,,,,,,4.5,3.2,3.2*37
$GPRMC,204453.072,A,5331.5489,N,11331.7200,W,0.145090,9.89,080605,,*1A
$GPGGA,204454.072,5331.5487,N,11331.7201,W,1,04,3.2,656.1,M,-19.7,M,0.0,0000*4A
$GPGSA,A,3,14,11,01,22,,,,,,,,,4.5,3.2,3.2*37
$GPRMC,204454.072,A,5331.5487,N,11331.7201,W,0.118484,11.15,080605,,*27
$GPGGA,204455.072,5331.5486,N,11331.7202,W,1,04,3.2,656.3,M,-19.7,M,0.0,0000*4B
$GPGSA,A,3,14,11,01,22,,,,,,,,,4.5,3.2,3.2*37
$GPRMC,204455.072,A,5331.5486,N,11331.7202,W,0.142831,10.84,080605,,*20
$GPGGA,204456.072,5331.5486,N,11331.7204,W,1,04,3.2,656.2,M,-19.7,M,0.0,0000*4F
$GPGSA,A,3,14,11,01,22,,,,,,,,,4.5,3.2,3.2*37
$GPGSV,3,1,09,14,69,069,45,01,67,236,43,11,43,278,44,25,36,173,40*7F
$GPGSV,3,2,09,22,30,111,48,05,14,054,00,20,12,292,00,30,09,095,00*70
$GPGSV,3,3,09,07,06,342,00*44
$GPRMC,204456.072,A,5331.5486,N,11331.7204,W,0.111055,13.84,080605,,*2A
$GPGGA,204457.072,5331.5485,N,11331.7206,W,1,04,3.2,656.0,M,-19.7,M,0.0,0000*4D
$GPGSA,A,3,14,11,01,22,,,,,,,,,4.5,3.2,3.2*37
$GPRMC,204457.072,A,5331.5485,N,11331.7206,W,0.121950,12.13,080605,,*2A
$GPGGA,204458.072,5331.5484,N,11331.7207,W,1,04,3.2,655.9,M,-19.7,M,0.0,0000*48
$GPGSA,A,3,14,11,01,22,,,,,,,,,4.5,3.2,3.2*37
$GPRMC,204458.072,A,5331.5484,N,11331.7207,W,0.142937,7.21,080605,,*14
$GPGGA,204459.072,5331.5483,N,11331.7208,W,1,04,3.2,655.8,M,-19.7,M,0.0,0000*40
$GPGSA,A,3,14,11,01,22,,,,,,,,,4.5,3.2,3.2*37
$GPRMC,204459.072,A,5331.5483,N,11331.7208,W,0.128057,11.99,080605,,*2A
$GPGGA,204500.072,5331.5482,N,11331.7209,W,1,04,3.2,655.8,M,-19.7,M,0.0,0000*4D
$GPGSA,A,3,14,11,01,22,,,,,,,,,4.5,3.2,3.2*37
$GPRMC,204500.072,A,5331.5482,N,11331.7209,W,0.142467,9.83,080605,,*1E
$GPGGA,204501.071,5331.5481,N,11331.7212,W,1,04,3.2,655.6,M,-19.7,M,0.0,0000*48
$GPGSA,A,3,14,11,01,22,,,,,,,,,4.5,3.2,3.2*37
$GPGSV,3,1,09,14,69,069,45,01,67,236,43,11,43,278,44,25,36,173,41*7E
$GPGSV,3,2,09,22,30,111,47,05,14,054,00,20,12,292,00,30,09,095,00*7F
$GPGSV,3,3,09,07,06,342,00*44
$GPRMC,204501.071,A,5331.5481,N,11331.7212,W,0.128885,11.80,080605,,*23
$GPGGA,204502.071,5331.5480,N,11331.7214,W,1,04,3.2,655.3,M,-19.7,M,0.0,0000*49
$GPGSA,A,3,14,11,01,22,,,,,,,,,4.5,3.2,3.2*37
$GPRMC,204502.071,A,5331.5480,N,11331.7214,W,0.136344,8.69,080605,,*11
$GPGGA,204503.071,5331.5479,N,11331.7216,W,1,04,3.2,655.1,M,-19.7,M,0.0,0000*4E
$GPGSA,A,3,14,11,01,22,,,,,,,,,4.5,3.2,3.2*37
$GPRMC,204503.071,A,5331.5479,N,11331.7216,W,0.150023,11.55,080605,,*21
$GPGGA,204504.071,5331.5479,N,11331.7218,W,1,04,3.2,655.0,M,-19.7,M,0.0,0000*46
$GPGSA,A,3,14,11,01,22,,,,,,,,,4.5,3.2,3.2*37
$GPRMC,204504.071,A,5331.5479,N,11331.7218,W,0.142554,9.95,080605,,*1B
$GPGGA,204505.071,5331.5479,N,11331.7221,W,1,04,3.2,654.5,M,-19.7,M,0.0,0000*49
$GPGSA,A,3,14,11,01,22,,,,,,,,,4.5,3.2,3.2*37
$GPRMC,204505.071,A,5331.5479,N,11331.7221,W,0.145839,8.04,080605,,*18
$GPGGA,204506.071,5331.5479,N,11331.7222,W,1,04,3.2,653.7,M,-19.7,M,0.0,0000*4C
$GPGSA,A,3,14,11,01,22,,,,,,,,,4.5,3.2,3.2*37
$GPGSV,3,1,09,14,69,069,45,01,67,236,44,11,43,278,43,25,36,173,40*7F
$GPGSV,3,2,09,22,30,111,46,05,14,054,00,20,12,292,00,30,09,095,00*7E
$GPGSV,3,3,09,07,06,342,00*44
$GPRMC,204506.071,A,5331.5479,N,11331.7222,W,0.138883,11.63,080605,,*2A
$GPGGA,204507.071,5331.5479,N,11331.7223,W,1,04,3.2,652.9,M,-19.7,M,0.0,0000*43
$GPGSA,A,3,14,11,01,22,,,,,,,,,4.5,3.2,3.2*37
$GPRMC,204507.071,A,5331.5479,N,11331.7223,W,0.129744,8.70,080605,,*14
$GPGGA,204508.071,5331.5480,N,11331.7224,W,1,04,3.2,651.8,M,-19.7,M,0.0,0000*4F
$GPGSA,A,3,14,11,01,22,,,,,,,,,4.5,3.2,3.2*37
$GPRMC,204508.071,A,5331.5480,N,11331.7224,W,0.153923,8.72,080605,,*1A
$GPGGA,204509.071,5331.5481,N,11331.7225,W,1,04,3.2,651.0,M,-19.7,M,0.0,0000*46
$GPGSA,A,3,14,11,01,22,,,,,,,,,4.5,3.2,3.2*37
$GPRMC,204509.071,A,5331.5481,N,11331.7225,W,0.165301,11.13,080605,,*2B
$GPGGA,204510.071,5331.5482,N,11331.7223,W,1,04,3.2,649.8,M,-19.7,M,0.0,0000*4A
$GPGSA,A,3,14,11,01,22,,,,,,,,,4.5,3.2,3.2*37
$GPRMC,204510.071,A,5331.5482,N,11331.7223,W,0.160987,9.56,080605,,*1F
$GPGGA,204511.071,5331.5482,N,11331.7221,W,1,04,3.2,648.9,M,-19.7,M,0.0,0000*49
$GPGSA,A,3,14,11,01,22,,,,,,,,,4.5,3.2,3.2*37
$GPGSV,3,1,09,14,69,069,45,01,67,236,45,11,43,278,43,25,36,173,40*7E
$GPGSV,3,2,09,22,30,111,46,05,14,054,00,20,12,292,00,30,09,095,00*7E
$GPGSV,3,3,09,07,06,342,00*44
$GPRMC,204511.071,A,5331.5482,N,11331.7221,W,0.138881,10.22,080605,,*2D
$GPGGA,204512.071,5331.5483,N,11331.7220,W,1,04,3.2,648.2,M,-19.7,M,0.0,0000*41
$GPGSA,A,3,14,11,01,22,,,,,,,,,4.5,3.2,3.2*37
$GPRMC,204512.071,A,5331.5483,N,11331.7220,W,0.139037,10.47,080605,,*29
$GPGGA,204513.071,5331.5483,N,11331.7218,W,1,04,3.2,647.4,M,-19.7,M,0.0,0000*42
$GPGSA,A,3,14,11,01,22,,,,,,,,,4.5,3.2,3.2*37
$GPRMC,204513.071,A,5331.5483,N,11331.7218,W,0.165483,8.07,080605,,*1C
$GPGGA,204514.071,5331.5484,N,11331.7215,W,1,04,3.2,646.7,M,-19.7,M,0.0,0000*4D
$GPGSA,A,3,14,11,01,22,,,,,,,,,4.5,3.2,3.2*37
$GPRMC,204514.071,A,5331.5484,N,11331.7215,W,0.124932,11.57,080605,,*2E
$GPGGA,204515.071,5331.5484,N,11331.7211,W,1,04,3.2,646.0,M,-19.7,M,0.0,0000*4F
$GPGSA,A,3,14,11,01,22,,,,,,,,,4.5,3.2,3.2*37
$GPRMC,204515.071,A,5331.5484,N,11331.7211,W,0.134365,7.25,080605,,*10
$GPGGA,204516.071,5331.5484,N,11331.7209,W,1,04,3.2,645.7,M,-19.7,M,0.0,0000*41
$GPGSA,A,3,14,11,01,22,,,,,,,,,4.6,3.2,3.2*34
$GPGSV,3,1,09,14,69,069,45,01,67,236,44,11,43,278,44,25,36,173,40*78
$GPGSV,3,2,09,22,30,111,46,05,14,054,00,20,12,292,00,30,09,095,00*7E
$GPGSV,3,3,09,07,06,342,00*44
$GPRMC,204516.071,A,5331.5484,N,11331.7209,W,0.135096,8.48,080605,,*10
$GPGGA,204517.070,5331.5485,N,11331.7208,W,1,04,3.2,645.2,M,-19.7,M,0.0,0000*44
$GPGSA,A,3,14,11,01,22,,,,,,,,,4.6,3.2,3.2*34
$GPRMC,204517.070,A,5331.5485,N,11331.7208,W,0.140171,7.21,080605,,*1A
$GPGGA,204518.070,5331.5484,N,11331.7206,W,1,04,3.2,645.0,M,-19.7,M,0.0,0000*46
$GPGSA,A,3,14,11,01,22,,,,,,,,,4.6,3.2,3.2*34
$GPRMC,204518.070,A,5331.5484,N,11331.7206,W,0.128133,9.67,080605,,*1E
$GPGGA,204519.070,5331.5485,N,11331.7204,W,1,04,3.2,644.6,M,-19.7,M,0.0,0000*43
$GPGSA,A,3,14,11,01,22,,,,,,,,,4.6,3.2,3.2*34
$GPRMC,204519.070,A,5331.5485,N,11331.7204,W,0.173731,9.18,080605,,*1E
$GPGGA,204520.070,5331.5484,N,11331.7201,W,1,04,3.2,644.1,M,-19.7,M,0.0,0000*4A
$GPGSA,A,3,14,11,01,22,,,,,,,,,4.6,3.2,3.2*34
$GPRMC,204520.070,A,5331.5484,N,11331.7201,W,0.136084,5.93,080605,,*17
$GPGGA,204521.070,5331.5484,N,11331.7198,W,1,04,3.2,644.0,M,-19.7,M,0.0,0000*49
$GPGSA,A,3,14,11,01,22,,,,,,,,,4.6,3.2,3.2*34
$GPGSV,3,1,09,14,68,068,46,01,67,236,43,11,43,277,44,25,36,173,39*7D
$GPGSV,3,2,09,22,30,111,46,05,14,053,00,20,12,292,00,30,09,095,00*79
$GPGSV,3,3,09,07,06,341,00*47
$GPRMC,204521.070,A,5331.5484,N,11331.7198,W,0.145572,9.07,080605,,*1C
$GPGGA,204522.070,5331.5484,N,11331.7196,W,1,04,3.2,643.4,M,-19.7,M,0.0,0000*47
$GPGSA,A,3,14,11,01,22,,,,,,,,,4.6,3.2,3.2*34
$GPRMC,204522.070,A,5331.5484,N,11331.7196,W,0.148083,7.88,080605,,*1E
$GPGGA,204523.070,5331.5483,N,11331.7194,W,1,04,3.2,643.0,M,-19.7,M,0.0,0000*47
$GPGSA,A,3,14,11,01,22,,,,,,,,,4.6,3.2,3.2*34
$GPRMC,204523.070,A,5331.5483,N,11331.7194,W,0.123048,8.61,080605,,*18
$GPGGA,204524.070,5331.5482,N,11331.7194,W,1,04,3.2,642.5,M,-19.7,M,0.0,0000*45
$GPGSA,A,3,14,11,01,22,,,,,,,,,4.6,3.2,3.2*34
$GPRMC,204524.070,A,5331.5482,N,11331.7194,W,0.126312,10.14,080605,,*2C
$GPGGA,204525.070,5331.5482,N,11331.7192,W,1,04,3.2,642.3,M,-19.7,M,0.0,0000*44
$GPGSA,A,3,14,11,01,22,,,,,,,,,4.6,3.2,3.2*34
$GPRMC,204525.070,A,5331.5482,N,11331.7192,W,0.146036,7.67,080605,,*1A
$GPGGA,204526.070,5331.5481,N,11331.7191,W,1,04,3.2,642.3,M,-19.7,M,0.0,0000*47
$GPGSA,A,3,14,11,01,22,,,,,,,,,4.6,3.2,3.2*34
$GPGSV,3,1,09,14,68,068,45,01,67,236,43,11,43,277,44,25,36,173,39*7E
$GPGSV,3,2,09,22,30,111,46,05,14,053,00,20,12,292,00,30,09,095,00*79
$GPGSV,3,3,09,07,06,341,00*47
$GPRMC,204526.070,A,5331.5481,N,11331.7191,W,0.135133,10.98,080605,,*2F
$GPGGA,204527.070,5331.5480,N,11331.7192,W,1,04,3.2,642.6,M,-19.7,M,0.0,0000*41
$GPGSA,A,3,14,11,01,22,,,,,,,,,4.6,3.2,3.2*34
$GPRMC,204527.070,A,5331.5480,N,11331.7192,W,0.125570,9.17,080605,,*11
$GPGGA,204528.070,5331.5479,N,11331.7194,W,1,04,3.2,642.9,M,-19.7,M,0.0,0000*41
$GPGSA,A,3,14,11,01,22,,,,,,,,,4.6,3.2,3.2*34
$GPRMC,204528.070,A,5331.5479,N,11331.7194,W,0.137727,9.64,080605,,*19
$GPGGA,204529.070,5331.5478,N,11331.7195,W,1,04,3.2,643.0,M,-19.7,M,0.0,0000*48
$GPGSA,A,3,14,11,01,22,,,,,,,,,4.6,3.2,3.2*34
$GPRMC,204529.070,A,5331.5478,N,11331.7195,W,0.117154,9.89,080605,,*1B
$GPGGA,204530.070,5331.5478,N,11331.7197,W,1,04,3.2,643.4,M,-19.7,M,0.0,0000*46
$GPGSA,A,3,14,11,01,22,,,,,,,,,4.6,3.2,3.2*34
$GPRMC,204530.070,A,5331.5478,N,11331.7197,W,0.120040,8.08,080605,,*19
$GPGGA,204531.070,5331.5477,N,11331.7199,W,1,04,3.2,643.7,M,-19.7,M,0.0,0000*45
$GPGSA,A,3,14,11,01,22,,,,,,,,,4.6,3.2,3.2*34
$GPGSV,3,1,09,14,68,068,46,01,67,236,42,11,43,277,45,25,36,173,38*7C
$GPGSV,3,2,09,22,30,111,46,05,14,053,00,20,12,292,00,30,09,095,00*79
$GPGSV,3,3,09,07,06,341,00*47
$GPRMC,204531.070,A,5331.5477,N,11331.7199,W,0.135636,9.06,080605,,*15
$GPGGA,204532.070,5331.5476,N,11331.7202,W,1,04,3.2,644.4,M,-19.7,M,0.0,0000*42
$GPGSA,A,3,14,11,01,22,,,,,,,,,4.6,3.2,3.2*34
$GPRMC,204532.070,A,5331.5476,N,11331.7202,W,0.142508,8.19,080605,,*17
$GPGGA,204533.070,5331.5475,N,11331.7204,W,1,04,3.2,645.6,M,-19.7,M,0.0,0000*45
$GPGSA,A,3,14,11,01,22,,,,,,,,,4.6,3.2,3.2*34
$GPRMC,204533.070,A,5331.5475,N,11331.7204,W,0.145297,10.44,080605,,*24
$GPGGA,204534.069,5331.5474,N,11331.7207,W,1,04,3.2,647.1,M,-19.7,M,0.0,0000*4D
$GPGSA,A,3,14,11,01,22,,,,,,,,,4.6,3.2,3.2*34
$GPRMC,204534.069,A,5331.5474,N,11331.7207,W,0.109674,12.07,080605,,*2D
$GPGGA,204535.069,5331.5474,N,11331.7210,W,1,04,3.2,648.6,M,-19.7,M,0.0,0000*42
$GPGSA,A,3,14,11,01,22,,,,,,,,,4.6,3.2,3.2*34
$GPRMC,204535.069,A,5331.5474,N,11331.7210,W,0.082566,16.40,080605,,*2F
$GPGGA,204536.069,5331.5473,N,11331.7213,W,1,04,3.2,649.6,M,-19.7,M,0.0,0000*44
$GPGSA,A,3,14,11,01,22,,,,,,,,,4.6,3.2,3.2*34
$GPGSV,3,1,09,14,68,068,45,01,67,236,42,11,43,277,43,25,36,173,39*78
$GPGSV,3,2,09,22,30,111,47,05,14,053,00,20,12,292,00,30,09,095,00*78
$GPGSV,3,3,09,07,06,341,00*47
$GPRMC,204536.069,A,5331.5473,N,11331.7213,W,0.161559,13.67,080605,,*28
$GPGGA,204537.069,5331.5472,N,11331.7214,W,1,04,3.2,650.7,M,-19.7,M,0.0,0000*4A
$GPGSA,A,3,14,11,01,22,,,,,,,,,4.6,3.2,3.2*34
$GPRMC,204537.069,A,5331.5472,N,11331.7214,W,0.085720,13.52,080605,,*2E
$GPGGA,204538.069,5331.5472,N,11331.7216,W,1,04,3.2,652.0,M,-19.7,M,0.0,0000*42
$GPGSA,A,3,14,11,01,22,,,,,,,,,4.6,3.2,3.2*34
$GPRMC,204538.069,A,5331.5472,N,11331.7216,W,0.120951,16.31,080605,,*25
$GPGGA,204539.069,5331.5471,N,11331.7218,W,1,04,3.2,653.3,M,-19.7,M,0.0,0000*4C
$GPGSA,A,3,14,11,01,22,,,,,,,,,4.6,3.2,3.2*34
$GPRMC,204539.069,A,5331.5471,N,11331.7218,W,0.139422,14.85,080605,,*25
$GPGGA,204540.069,5331.5471,N,11331.7220,W,1,04,3.2,654.3,M,-19.7,M,0.0,0000*4E
$GPGSA,A,3,14,11,01,22,,,,,,,,,4.6,3.2,3.2*34
$GPRMC,204540.069,A,5331.5471,N,11331.7220,W,0.106703,13.90,080605,,*2F
$GPGGA,204541.069,5331.5471,N,11331.7220,W,1,04,3.2,655.1,M,-19.7,M,0.0,0000*4C
$GPGSA,A,3,14,11,01,22,,,,,,,,,4.6,3.2,3.2*34
$GPGSV,3,1,09,14,68,068,44,01,67,236,43,11,43,277,44,25,36,173,40*71
