GPSD,W=1,R=1
$GPGSA,A,3,24,02,10,29,30,,,,,,,,3.7,2.6,2.7*3A
GPSD,O=?
$GPGSA,A,3,24,02,10,30,29,,,,,,,,3.7,2.6,2.7*3A
$PGRME,0.00,M,0.00,M,14.39,M*21
GPSD,O=?
$GPGSA,A,3,24,02,10,30,29,,,,,,,,3.7,2.6,2.7*3A
$PGRME,0.00,M,0.00,M,14.39,M*21
GPSD,O=?
$GPGSA,A,3,24,02,10,30,29,,,,,,,,3.7,2.6,2.7*3A
$PGRME,0.00,M,0.00,M,14.39,M*21
GPSD,O=?
$GPGSA,A,3,24,02,10,30,29,,,,,,,,3.7,2.6,2.7*3A
$PGRME,0.00,M,0.00,M,14.39,M*21
GPSD,O=?
$GPGSA,A,3,24,02,10,30,29,,,,,,,,3.7,2.6,2.7*3A
$PGRME,0.00,M,0.00,M,14.39,M*21
GPSD,O=?
$GPGSA,A,3,24,02,10,30,29,,,,,,,,3.7,2.6,2.7*3A
$PGRME,0.00,M,0.00,M,14.39,M*21
GPSD,O=?
$GPGSA,A,3,24,02,10,30,29,,,,,,,,3.7,2.5,2.7*39
$PGRME,0.00,M,0.00,M,14.39,M*21
GPSD,O=?
$GPGSA,A,3,02,10,24,30,29,,,,,,,,3.7,2.5,2.7*39
$PGRME,0.00,M,0.00,M,14.39,M*21
GPSD,O=?
$GPGSA,A,3,02,10,24,30,29,,,,,,,,3.7,2.5,2.7*39
$PGRME,0.00,M,0.00,M,14.39,M*21
GPSD,O=?
$GPGSA,A,3,02,10,24,30,29,,,,,,,,3.7,2.5,2.7*39
$PGRME,0.00,M,0.00,M,14.39,M*21
GPSD,O=?
$GPGSA,A,3,02,10,24,30,29,,,,,,,,3.7,2.5,2.7*39
$PGRME,0.00,M,0.00,M,14.39,M*21
GPSD,O=?
$GPGSA,A,3,02,10,24,30,29,,,,,,,,3.7,2.5,2.7*39
$PGRME,0.00,M,0.00,M,14.39,M*21
GPSD,O=?
$GPGSA,A,3,02,10,24,30,29,,,,,,,,3.7,2.5,2.7*39
$PGRME,0.00,M,0.00,M,14.39,M*21
GPSD,O=?
$GPGGA,012446,5332.2649,N,11329.5955,W,1,04,2.55,958.6,M,-19.816,M,,*41
$GPRMC,012446,A,5332.2649,N,11329.5955,W,0.0000,0.000,261106,,*32
GPSD,O=ID8f20 1164504286.000 0.005 53.537748 -113.493258 958.55 20.37 ? 0.0000 0.000 0.000 ? ? ? 2
$GPGGA,012447,5332.2652,N,11329.5949,W,1,04,2.55,959.4,M,-19.816,M,,*44
$GPRMC,012447,A,5332.2652,N,11329.5949,W,0.0000,0.000,261106,,*34
GPSD,O=ID8f20 1164504287.000 0.005 53.537753 -113.493248 959.45 20.37 ? 0.0000 0.000 0.000 ? 40.75 ? 2
$GPGSA,A,2,02,10,30,24,,,,,,,,,5.3,5.3,0.0*35
$PGRME,0.00,M,0.00,M,14.39,M*21
GPSD,O=ID6d 1164504287.000 0.005 53.537753 -113.493248 959.45 20.37 ? 0.0000 0.000 0.000 ? 40.75 ? 2
$GPGGA,012448,5332.2654,N,11329.5943,W,1,04,5.26,960.3,M,-19.817,M,,*48
$GPRMC,012448,A,5332.2654,N,11329.5943,W,0.0000,0.000,261106,,*37
GPSD,O=ID8f20 1164504288.000 0.005 53.537757 -113.493238 960.35 42.10 ? 0.0000 0.000 0.000 ? 62.47 ? 2
$GPGSA,A,2,02,10,30,24,,,,,,,,,5.3,5.3,0.0*35
$PGRME,0.00,M,0.00,M,14.39,M*21
GPSD,O=ID6d 1164504288.000 0.005 53.537757 -113.493238 960.35 42.10 ? 0.0000 0.000 0.000 ? 62.47 ? 2
$GPGGA,012449,5332.2657,N,11329.5937,W,1,04,5.26,961.2,M,-19.817,M,,*49
$GPRMC,012449,A,5332.2657,N,11329.5937,W,0.0000,0.000,261106,,*36
GPSD,O=ID8f20 1164504289.000 0.005 53.537761 -113.493229 961.19 42.07 ? 0.0000 0.000 0.000 ? 84.17 ? 2
$GPGSA,A,2,02,10,30,24,,,,,,,,,5.3,5.3,0.0*35
$PGRME,0.00,M,0.00,M,14.39,M*21
GPSD,O=ID6d 1164504289.000 0.005 53.537761 -113.493229 961.19 42.07 ? 0.0000 0.000 0.000 ? 84.17 ? 2
$GPGGA,012450,5332.2659,N,11329.5932,W,1,04,5.26,962.0,M,-19.817,M,,*4B
$GPRMC,012450,A,5332.2659,N,11329.5932,W,0.0000,0.000,261106,,*35
GPSD,O=ID8f20 1164504290.000 0.005 53.537765 -113.493220 961.98 42.07 ? 0.0000 0.000 0.000 ? 84.13 ? 2
$GPGSA,A,2,02,10,30,24,,,,,,,,,5.3,5.3,0.0*35
$PGRME,0.00,M,0.00,M,14.39,M*21
GPSD,O=ID6d 1164504290.000 0.005 53.537765 -113.493220 961.98 42.07 ? 0.0000 0.000 0.000 ? 84.13 ? 2
$GPGGA,012451,5332.2662,N,11329.5927,W,1,04,5.25,962.7,M,-19.817,M,,*42
$GPRMC,012451,A,5332.2662,N,11329.5927,W,0.0000,0.000,261106,,*38
GPSD,O=ID8f20 1164504291.000 0.005 53.537769 -113.493212 962.71 42.00 ? 0.0000 0.000 0.000 ? 84.07 ? 2
$GPGSA,A,2,02,10,30,24,,,,,,,,,5.3,5.3,0.0*35
$PGRME,0.00,M,0.00,M,14.39,M*21
GPSD,O=ID6d 1164504291.000 0.005 53.537769 -113.493212 962.71 42.00 ? 0.0000 0.000 0.000 ? 84.07 ? 2
$GPGGA,012452,5332.2664,N,11329.5923,W,1,04,5.25,963.4,M,-19.817,M,,*41
$GPRMC,012452,A,5332.2664,N,11329.5923,W,0.0000,0.000,261106,,*39
GPSD,O=ID8f20 1164504292.000 0.005 53.537773 -113.493205 963.37 42.00 ? 0.0000 0.000 0.000 ? 84.00 ? 2
$GPGGA,012453,5332.2666,N,11329.5919,W,1,04,5.25,964.0,M,-19.817,M,,*48
$GPRMC,012453,A,5332.2666,N,11329.5919,W,0.0000,0.000,261106,,*33
GPSD,O=ID8f20 1164504293.000 0.005 53.537776 -113.493198 964.02 42.00 ? 0.0000 0.000 0.000 ? 84.00 ? 2
$GPGGA,012454,5332.2668,N,11329.5915,W,1,04,5.25,964.6,M,-19.817,M,,*4B
$GPRMC,012454,A,5332.2668,N,11329.5915,W,0.0000,0.000,261106,,*36
GPSD,O=ID8f20 1164504294.000 0.005 53.537780 -113.493192 964.60 42.00 ? 0.0000 0.000 0.000 ? 84.00 ? 2
$GPGSA,A,2,02,10,30,24,,,,,,,,,5.2,5.2,0.0*35
$PGRME,0.00,M,0.00,M,14.39,M*21
GPSD,O=ID6d 1164504294.000 0.005 53.537780 -113.493192 964.60 42.00 ? 0.0000 0.000 0.000 ? 84.00 ? 2
$GPGGA,012455,5332.2669,N,11329.5912,W,1,04,5.24,965.1,M,-19.817,M,,*4B
$GPRMC,012455,A,5332.2669,N,11329.5912,W,0.0000,0.000,261106,,*31
GPSD,O=ID8f20 1164504295.000 0.005 53.537782 -113.493187 965.11 41.91 ? 0.0000 0.000 0.000 ? 83.91 ? 2
$GPGGA,012456,5332.2671,N,11329.5909,W,1,04,5.24,965.6,M,-19.817,M,,*4C
$GPRMC,012456,A,5332.2671,N,11329.5909,W,0.0000,0.000,261106,,*31
GPSD,O=ID8f20 1164504296.000 0.005 53.537785 -113.493182 965.56 41.91 ? 0.0000 0.000 0.000 ? 83.82 ? 2
$GPGGA,012457,5332.2672,N,11329.5907,W,1,04,5.24,966.0,M,-19.817,M,,*45
$GPRMC,012457,A,5332.2672,N,11329.5907,W,0.0000,0.000,261106,,*3D
GPSD,O=ID8f20 1164504297.000 0.005 53.537787 -113.493178 965.98 41.91 ? 0.0000 0.000 0.000 ? 83.82 ? 2
$GPGSA,A,2,02,10,30,24,,,,,,,,,5.2,5.2,0.0*35
$PGRME,0.00,M,0.00,M,14.39,M*21
GPSD,O=ID6d 1164504297.000 0.005 53.537787 -113.493178 965.98 41.91 ? 0.0000 0.000 0.000 ? 83.82 ? 2
$GPGGA,012458,5332.2673,N,11329.5905,W,1,04,5.23,966.3,M,-19.817,M,,*4D
$GPRMC,012458,A,5332.2673,N,11329.5905,W,0.0000,0.000,261106,,*31
GPSD,O=ID8f20 1164504298.000 0.005 53.537789 -113.493174 966.35 41.86 ? 0.0000 0.000 0.000 ? 83.77 ? 2
$GPGSA,A,2,02,10,30,24,,,,,,,,,5.2,5.2,0.0*35
$PGRME,0.00,M,0.00,M,14.39,M*21
GPSD,O=ID6d 1164504298.000 0.005 53.537789 -113.493174 966.35 41.86 ? 0.0000 0.000 0.000 ? 83.77 ? 2
$GPGGA,012459,5332.2674,N,11329.5902,W,1,04,5.23,966.7,M,-19.817,M,,*48
$GPRMC,012459,A,5332.2674,N,11329.5902,W,0.0000,0.000,261106,,*30
GPSD,O=ID8f20 1164504299.000 0.005 53.537790 -113.493171 966.69 41.86 ? 0.0000 0.000 0.000 ? 83.72 ? 2
$GPGGA,012500,5332.2675,N,11329.5900,W,1,04,5.23,967.0,M,-19.817,M,,*40
$GPRMC,012500,A,5332.2675,N,11329.5900,W,0.0000,0.000,261106,,*3E
GPSD,O=ID8f20 1164504300.000 0.005 53.537792 -113.493167 967.00 41.86 ? 0.0000 0.000 0.000 ? 83.72 ? 2
$GPGGA,012501,5332.2676,N,11329.5899,W,1,04,5.23,967.3,M,-19.817,M,,*40
$GPRMC,012501,A,5332.2676,N,11329.5899,W,0.0000,0.000,261106,,*3D
GPSD,O=ID8f20 1164504301.000 0.005 53.537793 -113.493165 967.28 41.86 ? 0.0000 0.000 0.000 ? 83.72 ? 2
$GPGSA,A,2,02,10,30,24,,,,,,,,,5.2,5.2,0.0*35
$PGRME,0.00,M,0.00,M,14.39,M*21
GPSD,O=ID6d 1164504301.000 0.005 53.537793 -113.493165 967.28 41.86 ? 0.0000 0.000 0.000 ? 83.72 ? 2
$GPGGA,012503,5332.2677,N,11329.5896,W,1,04,5.22,967.8,M,-19.817,M,,*46
$GPRMC,012503,A,5332.2677,N,11329.5896,W,0.0000,0.000,261106,,*31
GPSD,O=ID8f20 1164504303.000 0.005 53.537795 -113.493159 967.78 41.74 ? 0.0000 0.000 0.000 ? 41.80 ? 2
$GPGGA,012504,5332.2678,N,11329.5894,W,1,04,5.22,968.0,M,-19.817,M,,*4B
$GPRMC,012504,A,5332.2678,N,11329.5894,W,0.0000,0.000,261106,,*3B
GPSD,O=ID8f20 1164504304.000 0.005 53.537796 -113.493157 968.01 41.74 ? 0.0000 0.000 0.000 ? 83.48 ? 2
$GPGSA,A,2,02,10,30,24,,,,,,,,,5.2,5.2,0.0*35
$PGRME,0.00,M,0.00,M,14.39,M*21
GPSD,O=ID6d 1164504304.000 0.005 53.537796 -113.493157 968.01 41.74 ? 0.0000 0.000 0.000 ? 83.48 ? 2
$GPGGA,012505,5332.2678,N,11329.5893,W,1,04,5.21,968.2,M,-19.817,M,,*4C
$GPRMC,012505,A,5332.2678,N,11329.5893,W,0.0000,0.000,261106,,*3D
GPSD,O=ID8f20 1164504305.000 0.005 53.537797 -113.493154 968.21 41.69 ? 0.0000 0.000 0.000 ? 83.43 ? 2
$GPGGA,012506,5332.2679,N,11329.5891,W,1,04,5.21,968.4,M,-19.817,M,,*4A
$GPRMC,012506,A,5332.2679,N,11329.5891,W,0.0000,0.000,261106,,*3D
GPSD,O=ID8f20 1164504306.000 0.005 53.537798 -113.493152 968.41 41.69 ? 0.0000 0.000 0.000 ? 83.37 ? 2
$GPGSA,A,2,02,10,30,24,,,,,,,,,5.2,5.2,0.0*35
$PGRME,0.00,M,0.00,M,14.39,M*21
GPSD,O=ID6d 1164504306.000 0.005 53.537798 -113.493152 968.41 41.69 ? 0.0000 0.000 0.000 ? 83.37 ? 2
$GPGGA,012507,5332.2679,N,11329.5890,W,1,04,5.20,968.6,M,-19.817,M,,*49
$GPRMC,012507,A,5332.2679,N,11329.5890,W,0.0000,0.000,261106,,*3D
GPSD,O=ID8f20 1164504307.000 0.005 53.537799 -113.493150 968.59 41.63 ? 0.0000 0.000 0.000 ? 83.31 ? 2
$GPGSA,A,2,02,10,30,24,,,,,,,,,5.2,5.2,0.0*35
$PGRME,0.00,M,0.00,M,14.39,M*21
GPSD,O=ID6d 1164504307.000 0.005 53.537799 -113.493150 968.59 41.63 ? 0.0000 0.000 0.000 ? 83.31 ? 2
$GPGGA,012508,5332.2680,N,11329.5889,W,1,04,5.20,968.8,M,-19.817,M,,*46
$GPRMC,012508,A,5332.2680,N,11329.5889,W,0.0000,0.000,261106,,*3C
GPSD,O=ID8f20 1164504308.000 0.005 53.537799 -113.493148 968.75 41.58 ? 0.0000 0.000 0.000 ? 83.21 ? 2
$GPGGA,012509,5332.2680,N,11329.5888,W,1,04,5.20,968.9,M,-19.817,M,,*47
$GPRMC,012509,A,5332.2680,N,11329.5888,W,0.0000,0.000,261106,,*3C
GPSD,O=ID8f20 1164504309.000 0.005 53.537800 -113.493147 968.91 41.58 ? 0.0000 0.000 0.000 ? 83.16 ? 2
$GPGSA,A,2,02,10,30,24,,,,,,,,,5.2,5.2,0.0*35
$PGRME,0.00,M,0.00,M,14.39,M*21
GPSD,O=ID6d 1164504309.000 0.005 53.537800 -113.493147 968.91 41.58 ? 0.0000 0.000 0.000 ? 83.16 ? 2
$GPGGA,012510,5332.2680,N,11329.5887,W,1,04,5.20,969.1,M,-19.817,M,,*49
$GPRMC,012510,A,5332.2680,N,11329.5887,W,0.0000,0.000,261106,,*3B
GPSD,O=ID8f20 1164504310.000 0.005 53.537800 -113.493145 969.06 41.60 ? 0.0000 0.000 0.000 ? 83.18 ? 2
$GPGSA,A,2,02,10,30,24,,,,,,,,,5.2,5.2,0.0*35
$PGRME,0.00,M,0.00,M,14.39,M*21
GPSD,O=ID6d 1164504310.000 0.005 53.537800 -113.493145 969.06 41.60 ? 0.0000 0.000 0.000 ? 83.18 ? 2
$GPGGA,012511,5332.2681,N,11329.5886,W,1,04,5.19,969.2,M,-19.817,M,,*41
$GPRMC,012511,A,5332.2681,N,11329.5886,W,0.0000,0.000,261106,,*3A
GPSD,O=ID8f20 1164504311.000 0.005 53.537801 -113.493143 969.20 41.53 ? 0.0000 0.000 0.000 ? 83.12 ? 2
$GPGSA,A,2,02,10,30,24,,,,,,,,,5.2,5.2,0.0*35
$PGRME,0.00,M,0.00,M,14.39,M*21
GPSD,O=ID6d 1164504311.000 0.005 53.537801 -113.493143 969.20 41.53 ? 0.0000 0.000 0.000 ? 83.12 ? 2
$GPGGA,012512,5332.2681,N,11329.5885,W,1,04,5.19,969.3,M,-19.817,M,,*40
$GPRMC,012512,A,5332.2681,N,11329.5885,W,0.0000,0.000,261106,,*3A
GPSD,O=ID8f20 1164504312.000 0.005 53.537801 -113.493141 969.33 41.53 ? 0.0000 0.000 0.000 ? 83.06 ? 2
$GPGSA,A,2,02,10,30,24,,,,,,,,,5.2,5.2,0.0*35
$PGRME,0.00,M,0.00,M,14.39,M*21
GPSD,O=ID6d 1164504312.000 0.005 53.537801 -113.493141 969.33 41.53 ? 0.0000 0.000 0.000 ? 83.06 ? 2
$GPGGA,012513,5332.2681,N,11329.5884,W,1,04,5.18,969.5,M,-19.817,M,,*47
$GPRMC,012513,A,5332.2681,N,11329.5884,W,0.0000,0.000,261106,,*3A
GPSD,O=ID8f20 1164504313.000 0.005 53.537802 -113.493140 969.46 41.47 ? 0.0000 0.000 0.000 ? 83.00 ? 2
$GPGGA,012514,5332.2681,N,11329.5883,W,1,04,5.18,969.6,M,-19.817,M,,*44
$GPRMC,012514,A,5332.2681,N,11329.5883,W,0.0000,0.000,261106,,*3A
GPSD,O=ID8f20 1164504314.000 0.005 53.537802 -113.493138 969.57 41.47 ? 0.0000 0.000 0.000 ? 82.94 ? 2
$GPGGA,012515,5332.2681,N,11329.5882,W,1,04,5.18,969.7,M,-19.817,M,,*45
$GPRMC,012515,A,5332.2681,N,11329.5882,W,0.0000,0.000,261106,,*3A
GPSD,O=ID8f20 1164504315.000 0.005 53.537802 -113.493137 969.68 41.47 ? 0.0000 0.000 0.000 ? 82.94 ? 2
$GPGGA,012517,5332.2682,N,11329.5880,W,1,04,5.18,969.9,M,-19.817,M,,*48
$GPRMC,012517,A,5332.2682,N,11329.5880,W,0.0000,0.000,261106,,*39
GPSD,O=ID8f20 1164504317.000 0.005 53.537803 -113.493134 969.89 41.47 ? 0.0000 0.000 0.000 ? 41.47 ? 2
$GPGSA,A,2,02,10,24,30,,,,,,,,,5.2,5.2,0.0*35
$PGRME,0.00,M,0.00,M,14.39,M*21
GPSD,O=ID6d 1164504317.000 0.005 53.537803 -113.493134 969.89 41.47 ? 0.0000 0.000 0.000 ? 41.47 ? 2
$GPGGA,012518,5332.2682,N,11329.5879,W,1,04,5.17,970.0,M,-19.817,M,,*4F
$GPRMC,012518,A,5332.2682,N,11329.5879,W,0.0000,0.000,261106,,*30
GPSD,O=ID8f20 1164504318.000 0.005 53.537804 -113.493132 969.99 41.37 ? 0.0000 0.000 0.000 ? 82.84 ? 2
$GPGGA,012519,5332.2682,N,11329.5879,W,1,04,5.17,970.1,M,-19.817,M,,*4F
$GPRMC,012519,A,5332.2682,N,11329.5879,W,0.0000,0.000,261106,,*31
GPSD,O=ID8f20 1164504319.000 0.005 53.537804 -113.493131 970.08 41.37 ? 0.0000 0.000 0.000 ? 82.73 ? 2
$GPGGA,012520,5332.2682,N,11329.5878,W,1,04,5.17,970.2,M,-19.817,M,,*47
$GPRMC,012520,A,5332.2682,N,11329.5878,W,0.0000,0.000,261106,,*3A
GPSD,O=ID8f20 1164504320.000 0.005 53.537804 -113.493130 970.16 41.37 ? 0.0000 0.000 0.000 ? 82.73 ? 2
$GPGGA,012521,5332.2683,N,11329.5877,W,1,04,5.17,970.2,M,-19.817,M,,*48
$GPRMC,012521,A,5332.2683,N,11329.5877,W,0.0000,0.000,261106,,*35
GPSD,O=ID8f20 1164504321.000 0.005 53.537804 -113.493128 970.25 41.37 ? 0.0000 0.000 0.000 ? 82.73 ? 2
$GPGGA,012522,5332.2683,N,11329.5876,W,1,04,5.17,970.3,M,-19.817,M,,*4B
$GPRMC,012522,A,5332.2683,N,11329.5876,W,0.0000,0.000,261106,,*37
GPSD,O=ID8f20 1164504322.000 0.005 53.537805 -113.493127 970.33 41.37 ? 0.0000 0.000 0.000 ? 82.73 ? 2
$GPGSA,A,2,02,10,24,30,,,,,,,,,5.2,5.2,0.0*35
$PGRME,0.00,M,0.00,M,14.39,M*21
GPSD,O=ID6d 1164504322.000 0.005 53.537805 -113.493127 970.33 41.37 ? 0.0000 0.000 0.000 ? 82.73 ? 2
$GPGGA,012523,5332.2683,N,11329.5876,W,1,04,5.16,970.4,M,-19.817,M,,*4C
$GPRMC,012523,A,5332.2683,N,11329.5876,W,0.0000,0.000,261106,,*36
GPSD,O=ID8f20 1164504323.000 0.005 53.537805 -113.493126 970.40 41.28 ? 0.0000 0.000 0.000 ? 82.64 ? 2
$GPGSA,A,2,02,10,24,30,,,,,,,,,5.2,5.2,0.0*35
$PGRME,0.00,M,0.00,M,14.39,M*21
GPSD,O=ID6d 1164504323.000 0.005 53.537805 -113.493126 970.40 41.28 ? 0.0000 0.000 0.000 ? 82.64 ? 2
$GPGGA,012524,5332.2683,N,11329.5875,W,1,04,5.15,970.5,M,-19.817,M,,*4A
$GPRMC,012524,A,5332.2683,N,11329.5875,W,0.0000,0.000,261106,,*32
GPSD,O=ID8f20 1164504324.000 0.005 53.537805 -113.493125 970.47 41.23 ? 0.0000 0.000 0.000 ? 82.51 ? 2
$GPGGA,012525,5332.2683,N,11329.5874,W,1,04,5.15,970.5,M,-19.817,M,,*4A
$GPRMC,012525,A,5332.2683,N,11329.5874,W,0.0000,0.000,261106,,*32
GPSD,O=ID8f20 1164504325.000 0.005 53.537805 -113.493124 970.54 41.23 ? 0.0000 0.000 0.000 ? 82.46 ? 2
$GPGSA,A,2,02,10,24,30,,,,,,,,,5.1,5.1,0.0*35
$PGRME,0.00,M,0.00,M,14.39,M*21
GPSD,O=ID6d 1164504325.000 0.005 53.537805 -113.493124 970.54 41.23 ? 0.0000 0.000 0.000 ? 82.46 ? 2
$GPGGA,012526,5332.2683,N,11329.5874,W,1,04,5.15,970.6,M,-19.817,M,,*4A
$GPRMC,012526,A,5332.2683,N,11329.5874,W,0.0000,0.000,261106,,*31
GPSD,O=ID8f20 1164504326.000 0.005 53.537805 -113.493123 970.61 41.18 ? 0.0000 0.000 0.000 ? 82.42 ? 2
$GPGGA,012527,5332.2683,N,11329.5873,W,1,04,5.15,970.7,M,-19.817,M,,*4D
$GPRMC,012527,A,5332.2683,N,11329.5873,W,0.0000,0.000,261106,,*37
GPSD,O=ID8f20 1164504327.000 0.005 53.537806 -113.493121 970.67 41.18 ? 0.0000 0.000 0.000 ? 82.37 ? 2
$GPGGA,012528,5332.2684,N,11329.5872,W,1,04,5.15,970.7,M,-19.817,M,,*44
$GPRMC,012528,A,5332.2684,N,11329.5872,W,0.0000,0.000,261106,,*3E
GPSD,O=ID8f20 1164504328.000 0.005 53.537806 -113.493120 970.74 41.18 ? 0.0000 0.000 0.000 ? 82.37 ? 2
$GPGGA,012529,5332.2684,N,11329.5872,W,1,04,5.15,970.8,M,-19.817,M,,*4A
$GPRMC,012529,A,5332.2684,N,11329.5872,W,0.0000,0.000,261106,,*3F
GPSD,O=ID8f20 1164504329.000 0.005 53.537806 -113.493119 970.79 41.18 ? 0.0000 0.000 0.000 ? 82.37 ? 2
$GPGSA,A,2,02,10,24,30,,,,,,,,,5.1,5.1,0.0*35
$PGRME,0.00,M,0.00,M,14.39,M*21
GPSD,O=ID6d 1164504329.000 0.005 53.537806 -113.493119 970.79 41.18 ? 0.0000 0.000 0.000 ? 82.37 ? 2
$GPGGA,012530,5332.2684,N,11329.5871,W,1,04,5.13,970.9,M,-19.817,M,,*46
$GPRMC,012530,A,5332.2684,N,11329.5871,W,0.0000,0.000,261106,,*34
GPSD,O=ID8f20 1164504330.000 0.005 53.537806 -113.493119 970.85 41.06 ? 0.0000 0.000 0.000 ? 82.24 ? 2
$GPGSA,A,2,02,10,24,30,,,,,,,,,5.1,5.1,0.0*35
$PGRME,0.00,M,0.00,M,14.39,M*21
GPSD,O=ID6d 1164504330.000 0.005 53.537806 -113.493119 970.85 41.06 ? 0.0000 0.000 0.000 ? 82.24 ? 2
$GPGGA,012531,5332.2684,N,11329.5871,W,1,04,5.13,970.9,M,-19.817,M,,*47
$GPRMC,012531,A,5332.2684,N,11329.5871,W,0.0000,0.000,261106,,*35
GPSD,O=ID8f20 1164504331.000 0.005 53.537807 -113.493118 970.91 41.06 ? 0.0000 0.000 0.000 ? 82.12 ? 2
$GPGGA,012532,5332.2684,N,11329.5870,W,1,04,5.13,971.0,M,-19.817,M,,*4D
$GPRMC,012532,A,5332.2684,N,11329.5870,W,0.0000,0.000,261106,,*37
GPSD,O=ID8f20 1164504332.000 0.005 53.537807 -113.493117 970.96 41.06 ? 0.0000 0.000 0.000 ? 82.12 ? 2
$GPGSA,A,3,02,10,24,30,07,,,,,,,,2.9,1.5,2.5*3B
$PGRME,0.00,M,0.00,M,14.39,M*21
GPSD,O=ID6d 1164504332.000 0.005 53.537807 -113.493117 970.96 41.06 19.71 0.0000 0.000 0.000 ? 82.12 ? 3
$GPGSA,A,3,02,10,24,07,,,,,,,,,20.2,20.2,0.1*31
$PGRME,0.00,M,0.00,M,14.39,M*21
GPSD,O=ID6d 1164504332.000 0.005 53.537807 -113.493117 970.96 41.06 19.71 0.0000 0.000 0.000 ? 82.12 ? 3
$GPGSA,A,3,02,10,24,07,,,,,,,,,20.2,20.2,0.1*31
$PGRME,0.00,M,0.00,M,14.39,M*21
GPSD,O=ID6d 1164504332.000 0.005 53.537807 -113.493117 970.96 41.06 19.71 0.0000 0.000 0.000 ? 82.12 ? 3
$GPGSA,A,3,02,10,24,07,,,,,,,,,20.4,20.4,0.1*31
$PGRME,0.00,M,0.00,M,14.39,M*21
GPSD,O=ID6d 1164504332.000 0.005 53.537807 -113.493117 970.96 41.06 19.71 0.0000 0.000 0.000 ? 82.12 ? 3
$GPGSA,A,3,02,10,24,07,,,,,,,,,20.4,20.4,0.1*31
$PGRME,0.00,M,0.00,M,14.39,M*21
GPSD,O=ID6d 1164504332.000 0.005 53.537807 -113.493117 970.96 41.06 19.71 0.0000 0.000 0.000 ? 82.12 ? 3
$GPGSA,A,3,02,10,24,07,,,,,,,,,20.3,20.3,0.1*31
$PGRME,0.00,M,0.00,M,14.39,M*21
GPSD,O=ID6d 1164504332.000 0.005 53.537807 -113.493117 970.96 41.06 19.71 0.0000 0.000 0.000 ? 82.12 ? 3
$GPGSA,A,3,02,10,24,07,,,,,,,,,20.5,20.5,0.1*31
$PGRME,0.00,M,0.00,M,14.39,M*21
GPSD,O=ID6d 1164504332.000 0.005 53.537807 -113.493117 970.96 41.06 19.71 0.0000 0.000 0.000 ? 82.12 ? 3
$GPGSA,A,3,02,10,24,07,,,,,,,,,20.5,20.5,0.1*31
$PGRME,0.00,M,0.00,M,14.39,M*21
GPSD,O=ID6d 1164504332.000 0.005 53.537807 -113.493117 970.96 41.06 19.71 0.0000 0.000 0.000 ? 82.12 ? 3
$GPGSA,A,3,02,10,24,,,,,,,,,,30.5,30.5,1.0*36
$PGRME,0.00,M,0.00,M,14.39,M*21
GPSD,O=ID6d 1164504332.000 0.005 53.537807 -113.493117 970.96 41.06 19.71 0.0000 0.000 0.000 ? 82.12 ? 3
$GPGSA,A,3,02,10,24,,,,,,,,,,30.5,30.5,1.0*36
$PGRME,0.00,M,0.00,M,14.39,M*21
GPSD,O=ID6d 1164504332.000 0.005 53.537807 -113.493117 970.96 41.06 19.71 0.0000 0.000 0.000 ? 82.12 ? 3
$GPGSA,A,3,02,10,24,,,,,,,,,,30.5,30.5,1.0*36
$PGRME,0.00,M,0.00,M,14.39,M*21
GPSD,O=ID6d 1164504332.000 0.005 53.537807 -113.493117 970.96 41.06 19.71 0.0000 0.000 0.000 ? 82.12 ? 3
$GPGSA,A,3,02,10,24,,,,,,,,,,30.5,30.5,1.0*36
$PGRME,0.00,M,0.00,M,14.39,M*21
GPSD,O=ID6d 1164504332.000 0.005 53.537807 -113.493117 970.96 41.06 19.71 0.0000 0.000 0.000 ? 82.12 ? 3
$GPGSA,A,3,02,10,24,,,,,,,,,,30.5,30.5,1.0*36
$PGRME,0.00,M,0.00,M,14.39,M*21
GPSD,O=ID6d 1164504332.000 0.005 53.537807 -113.493117 970.96 41.06 19.71 0.0000 0.000 0.000 ? 82.12 ? 3
$GPGSA,A,3,02,10,24,,,,,,,,,,30.5,30.5,1.0*36
$PGRME,0.00,M,0.00,M,14.39,M*21
GPSD,O=ID6d 1164504332.000 0.005 53.537807 -113.493117 970.96 41.06 19.71 0.0000 0.000 0.000 ? 82.12 ? 3
$GPGSA,A,3,02,10,24,,,,,,,,,,30.5,30.5,1.0*36
$PGRME,0.00,M,0.00,M,14.39,M*21
GPSD,O=ID6d 1164504332.000 0.005 53.537807 -113.493117 970.96 41.06 19.71 0.0000 0.000 0.000 ? 82.12 ? 3
$GPGSA,A,3,02,10,24,,,,,,,,,,30.5,30.5,1.0*36
$PGRME,0.00,M,0.00,M,14.39,M*21
GPSD,O=ID6d 1164504332.000 0.005 53.537807 -113.493117 970.96 41.06 19.71 0.0000 0.000 0.000 ? 82.12 ? 3
$GPGSA,A,3,02,10,24,,,,,,,,,,30.5,30.5,1.0*36
$PGRME,0.00,M,0.00,M,14.39,M*21
GPSD,O=ID6d 1164504332.000 0.005 53.537807 -113.493117 970.96 41.06 19.71 0.0000 0.000 0.000 ? 82.12 ? 3
$GPGSA,A,3,02,10,24,,,,,,,,,,30.5,30.5,1.0*36
$PGRME,0.00,M,0.00,M,14.39,M*21
GPSD,O=ID6d 1164504332.000 0.005 53.537807 -113.493117 970.96 41.06 19.71 0.0000 0.000 0.000 ? 82.12 ? 3
$GPGSA,A,3,02,10,24,,,,,,,,,,30.5,30.5,1.0*36
$PGRME,0.00,M,0.00,M,14.39,M*21
GPSD,O=ID6d 1164504332.000 0.005 53.537807 -113.493117 970.96 41.06 19.71 0.0000 0.000 0.000 ? 82.12 ? 3
$GPGSA,A,3,02,10,24,,,,,,,,,,30.5,30.5,1.0*36
$PGRME,0.00,M,0.00,M,14.39,M*21
GPSD,O=ID6d 1164504332.000 0.005 53.537807 -113.493117 970.96 41.06 19.71 0.0000 0.000 0.000 ? 82.12 ? 3
$GPGSA,A,3,02,10,24,,,,,,,,,,30.5,30.5,1.0*36
$PGRME,0.00,M,0.00,M,14.39,M*21
GPSD,O=ID6d 1164504332.000 0.005 53.537807 -113.493117 970.96 41.06 19.71 0.0000 0.000 0.000 ? 82.12 ? 3
$GPGSA,A,3,02,10,24,,,,,,,,,,30.5,30.5,1.0*36
$PGRME,0.00,M,0.00,M,14.39,M*21
GPSD,O=ID6d 1164504332.000 0.005 53.537807 -113.493117 970.96 41.06 19.71 0.0000 0.000 0.000 ? 82.12 ? 3
$GPGSA,A,3,02,10,24,,,,,,,,,,30.5,30.5,1.0*36
$PGRME,0.00,M,0.00,M,14.39,M*21
GPSD,O=ID6d 1164504332.000 0.005 53.537807 -113.493117 970.96 41.06 19.71 0.0000 0.000 0.000 ? 82.12 ? 3
$GPGSA,A,3,02,10,24,,,,,,,,,,30.5,30.5,1.0*36
$PGRME,0.00,M,0.00,M,14.39,M*21
GPSD,O=ID6d 1164504332.000 0.005 53.537807 -113.493117 970.96 41.06 19.71 0.0000 0.000 0.000 ? 82.12 ? 3
$GPGSA,A,3,02,10,24,,,,,,,,,,30.5,30.5,1.0*36
$PGRME,0.00,M,0.00,M,14.39,M*21
GPSD,O=ID6d 1164504332.000 0.005 53.537807 -113.493117 970.96 41.06 19.71 0.0000 0.000 0.000 ? 82.12 ? 3
$GPGSA,A,3,02,10,24,,,,,,,,,,30.5,30.5,1.0*36
$PGRME,0.00,M,0.00,M,14.39,M*21
GPSD,O=ID6d 1164504332.000 0.005 53.537807 -113.493117 970.96 41.06 19.71 0.0000 0.000 0.000 ? 82.12 ? 3
$GPGSA,A,3,02,10,24,,,,,,,,,,30.5,30.5,1.0*36
$PGRME,0.00,M,0.00,M,14.39,M*21
GPSD,O=ID6d 1164504332.000 0.005 53.537807 -113.493117 970.96 41.06 19.71 0.0000 0.000 0.000 ? 82.12 ? 3
