GPSD,W=1,R=1
$GPGSA,A,3,18,22,09,01,,,,,,,,,3.3,2.1,2.5*37
GPSD,O=?
$GPGSA,A,3,18,22,09,01,,,,,,,,,3.3,2.1,2.5*37
GPSD,O=ID6d ? 0.005 ? ? ? 16.58 20.27 ? ? ? ? ? ? 3
$GPGSA,A,3,18,22,09,01,,,,,,,,,3.3,2.1,2.5*37
$PGRME,0.00,M,0.00,M,12.61,M*2A
GPSD,O=ID6d ? 0.005 ? ? ? 16.58 20.27 ? ? ? ? ? ? 3
$GPGSA,A,3,18,22,09,01,,,,,,,,,3.3,2.1,2.5*37
GPSD,O=ID6d ? 0.005 ? ? ? 16.58 20.27 ? ? ? ? ? ? 3
$GPGSA,A,3,18,09,22,01,,,,,,,,,3.3,2.1,2.5*37
GPSD,O=ID6d ? 0.005 ? ? ? 16.58 20.27 ? ? ? ? ? ? 3
$GPGSV,3,1,10,00,00,000,00,00,00,000,00,00,00,000,00,18,26,096,39*72
$GPGSV,3,2,10,01,29,221,30,11,25,307,26,03,08,225,28,00,00,000,00*72
$GPGSV,3,3,10,22,65,094,38,09,24,045,41*76
GPSD,Y=ID5c 1164524264.463 6:18 26 96 39 1:1 29 221 30 1:11 25 307 26 0:3 8 225 28 0:22 65 94 38 1:9 24 45 41 1:
$GPGSA,A,3,18,09,22,01,,,,,,,,,3.3,2.1,2.5*37
GPSD,O=ID6d ? 0.005 ? ? ? 16.58 20.27 ? ? ? ? ? ? 3
$GPGSA,A,3,18,09,22,01,,,,,,,,,3.3,2.1,2.5*37
$PGRME,0.00,M,0.00,M,12.61,M*2A
GPSD,O=ID6d ? 0.005 ? ? ? 16.58 20.27 ? ? ? ? ? ? 3
$GPGSA,A,3,18,22,09,01,,,,,,,,,3.3,2.1,2.5*37
GPSD,O=ID6d ? 0.005 ? ? ? 16.58 20.27 ? ? ? ? ? ? 3
$GPGSA,A,3,18,22,09,01,,,,,,,,,3.3,2.1,2.5*37
GPSD,O=ID6d ? 0.005 ? ? ? 16.58 20.27 ? ? ? ? ? ? 3
$GPGSV,3,1,10,00,00,000,00,00,00,000,00,00,00,000,00,18,26,096,39*72
$GPGSV,3,2,10,01,29,221,30,11,25,307,26,03,08,225,28,00,00,000,00*72
$GPGSV,3,3,10,22,64,094,39,09,24,045,40*77
GPSD,Y=ID5c 1164524264.463 6:18 26 96 39 1:1 29 221 30 1:11 25 307 26 0:3 8 225 28 0:22 64 94 39 1:9 24 45 40 1:
$GPGSA,A,3,18,22,09,01,,,,,,,,,3.3,2.1,2.5*37
GPSD,O=ID6d ? 0.005 ? ? ? 16.58 20.27 ? ? ? ? ? ? 3
$GPGSA,A,3,18,22,09,01,,,,,,,,,3.3,2.1,2.5*37
$PGRME,0.00,M,0.00,M,12.60,M*2B
GPSD,O=ID6d ? 0.005 ? ? ? 16.58 20.27 ? ? ? ? ? ? 3
$GPGSA,A,3,18,22,09,01,,,,,,,,,3.3,2.1,2.5*37
GPSD,O=ID6d ? 0.005 ? ? ? 16.58 20.27 ? ? ? ? ? ? 3
$GPGSA,A,3,18,22,09,01,,,,,,,,,3.3,2.1,2.5*37
GPSD,O=ID6d ? 0.005 ? ? ? 16.58 20.27 ? ? ? ? ? ? 3
$GPGSV,3,1,10,00,00,000,00,00,00,000,00,00,00,000,00,18,26,096,39*72
$GPGSV,3,2,10,01,29,221,30,11,25,307,26,03,08,225,28,00,00,000,00*72
$GPGSV,3,3,10,22,64,094,40,09,24,045,39*77
GPSD,Y=ID5c 1164524276.566 6:18 26 96 39 1:1 29 221 30 1:11 25 307 26 0:3 8 225 28 0:22 64 94 40 1:9 24 45 39 1:
$GPGSV,3,1,10,00,00,000,00,00,00,000,00,00,00,000,00,18,26,096,39*72
$GPGSV,3,2,10,01,29,221,29,11,25,307,26,03,08,225,28,00,00,000,00*7A
$GPGSV,3,3,10,22,64,094,41,09,24,045,38*77
GPSD,Y=ID5c 1164524284.449 6:18 26 96 39 1:1 29 221 29 1:11 25 307 26 0:3 8 225 28 0:22 64 94 41 1:9 24 45 38 1:
$GPGSA,A,3,18,22,09,01,,,,,,,,,3.3,2.1,2.5*37
GPSD,O=ID6d ? 0.005 ? ? ? 16.58 20.27 ? ? ? ? ? ? 3
$GPGSA,A,3,18,22,09,01,,,,,,,,,3.3,2.1,2.5*37
$PGRME,0.00,M,0.00,M,12.60,M*2B
GPSD,O=ID6d ? 0.005 ? ? ? 16.58 20.27 ? ? ? ? ? ? 3
$GPGSA,A,3,18,22,09,01,,,,,,,,,3.3,2.1,2.5*37
GPSD,O=ID6d ? 0.005 ? ? ? 16.58 20.27 ? ? ? ? ? ? 3
$GPGSV,3,1,10,00,00,000,00,00,00,000,00,00,00,000,00,18,26,096,39*72
$GPGSV,3,2,10,01,29,221,28,11,25,307,26,03,08,225,28,00,00,000,00*7B
$GPGSV,3,3,10,22,64,094,41,09,24,045,40*78
GPSD,Y=ID5c 1164524289.434 6:18 26 96 39 1:1 29 221 28 1:11 25 307 26 0:3 8 225 28 0:22 64 94 41 1:9 24 45 40 1:
$GPGSA,A,3,18,22,09,01,,,,,,,,,3.3,2.1,2.5*37
GPSD,O=ID6d ? 0.005 ? ? ? 16.58 20.27 ? ? ? ? ? ? 3
$GPGGA,065813,5332.3091,N,11329.9353,W,1,03,2.06,699.0,M,-19.813,M,,*4F
$GPRMC,065813,A,5332.3091,N,11329.9353,W,0.0000,0.000,261106,,*3C
GPSD,O=ID8f20 1164524293.000 0.005 53.538484 -113.498921 698.96 16.47 ? 0.0000 0.000 0.000 ? ? ? 2
$GPGGA,065814,5332.3090,N,11329.9353,W,1,03,2.06,699.0,M,-19.813,M,,*49
$GPRMC,065814,A,5332.3090,N,11329.9353,W,0.0000,0.000,261106,,*3A
GPSD,O=ID8f20 1164524294.000 0.005 53.538484 -113.498921 698.97 16.47 ? 0.0000 0.000 0.000 ? 32.93 ? 2
$GPGSA,A,2,18,22,09,,,,,,,,,,3.8,3.7,1.0*3D
GPSD,O=ID6d ? 0.005 53.538484 -113.498921 698.97 16.47 ? 0.0000 0.000 0.000 ? 32.93 ? 2
$GPGSV,3,1,10,00,00,000,00,19,26,249,27,00,00,000,00,18,26,096,38*75
$GPGSV,3,2,10,01,29,221,26,11,25,307,26,03,08,225,28,00,00,000,00*75
$GPGSV,3,3,10,22,64,094,41,09,24,045,41*79
GPSD,Y=ID5c 1164524294.451 7:19 26 249 27 0:18 26 96 38 1:1 29 221 26 0:11 25 307 26 0:3 8 225 28 0:22 64 94 41 1:9 24 45 41 1:
$GPGGA,065815,5332.3090,N,11329.9353,W,1,03,3.72,699.0,M,-19.813,M,,*4A
$GPRMC,065815,A,5332.3090,N,11329.9353,W,0.0000,0.000,261106,,*3B
GPSD,O=ID8f20 1164524295.000 0.005 53.538484 -113.498921 698.97 29.73 ? 0.0000 0.000 0.000 ? ? ? 2
$GPGGA,065816,5332.3090,N,11329.9352,W,1,03,3.72,699.0,M,-19.813,M,,*48
$GPRMC,065816,A,5332.3090,N,11329.9352,W,0.0000,0.000,261106,,*39
GPSD,O=ID8f20 1164524296.000 0.005 53.538483 -113.498921 698.97 29.73 ? 0.0000 0.000 0.000 ? 59.46 ? 2
$GPGGA,065817,5332.3090,N,11329.9352,W,1,03,3.72,699.0,M,-19.813,M,,*49
$GPRMC,065817,A,5332.3090,N,11329.9352,W,0.0000,0.000,261106,,*38
GPSD,O=ID8f20 1164524297.000 0.005 53.538483 -113.498920 698.98 29.73 ? 0.0000 0.000 0.000 ? 59.46 ? 2
$GPGGA,065818,5332.3090,N,11329.9352,W,1,03,3.72,699.0,M,-19.813,M,,*46
$GPRMC,065818,A,5332.3090,N,11329.9352,W,0.0000,0.000,261106,,*37
GPSD,O=ID8f20 1164524298.000 0.005 53.538483 -113.498920 698.98 29.73 ? 0.0000 0.000 0.000 ? 59.46 ? 2
$GPGSA,A,2,18,22,09,,,,,,,,,,3.9,3.7,1.0*3C
GPSD,O=ID6d 1164524298.000 0.005 53.538483 -113.498920 698.98 29.73 ? 0.0000 0.000 0.000 ? 59.46 ? 2
$GPGGA,065819,5332.3090,N,11329.9352,W,1,03,3.72,699.0,M,-19.813,M,,*47
$GPRMC,065819,A,5332.3090,N,11329.9352,W,0.0000,0.000,261106,,*36
GPSD,O=ID8f20 1164524299.000 0.005 53.538483 -113.498920 698.99 29.74 ? 0.0000 0.000 0.000 ? 59.47 ? 2
$GPGSA,A,2,18,22,09,,,,,,,,,,3.9,3.7,1.0*3C
GPSD,O=ID6d ? 0.005 53.538483 -113.498920 698.99 29.74 ? 0.0000 0.000 0.000 ? 59.47 ? 2
$GPGSV,3,1,10,00,00,000,00,19,26,249,27,00,00,000,00,18,26,096,38*75
$GPGSV,3,2,10,01,29,221,26,11,25,307,26,03,08,225,28,00,00,000,00*75
$GPGSV,3,3,10,22,64,094,42,09,24,045,41*7A
GPSD,Y=ID5c 1164524299.432 7:19 26 249 27 0:18 26 96 38 1:1 29 221 26 0:11 25 307 26 0:3 8 225 28 0:22 64 94 42 1:9 24 45 41 1:
$GPGGA,065820,5332.3089,N,11329.9352,W,1,03,3.72,699.0,M,-19.813,M,,*45
$GPRMC,065820,A,5332.3089,N,11329.9352,W,0.0000,0.000,261106,,*34
GPSD,O=ID8f20 1164524300.000 0.005 53.538482 -113.498920 698.99 29.74 ? 0.0000 0.000 0.000 ? ? ? 2
$GPGSA,A,2,18,22,09,,,,,,,,,,3.9,3.7,1.0*3C
$PGRME,0.00,M,0.00,M,14.84,M*27
GPSD,O=ID6d 1164524300.000 0.005 53.538482 -113.498920 698.99 29.74 ? 0.0000 0.000 0.000 ? ? ? 2
$GPGGA,065821,5332.3089,N,11329.9352,W,1,03,3.72,699.0,M,-19.813,M,,*44
$GPRMC,065821,A,5332.3089,N,11329.9352,W,0.0000,0.000,261106,,*35
GPSD,O=ID8f20 1164524301.000 0.005 53.538482 -113.498920 698.99 29.75 ? 0.0000 0.000 0.000 ? 59.49 ? 2
$GPGSA,A,2,18,22,09,,,,,,,,,,3.9,3.7,1.0*3C
$PGRME,0.00,M,0.00,M,14.84,M*27
GPSD,O=ID6d 1164524301.000 0.005 53.538482 -113.498920 698.99 29.75 ? 0.0000 0.000 0.000 ? 59.49 ? 2
$GPGGA,065823,5332.3089,N,11329.9352,W,1,03,3.72,699.0,M,-19.813,M,,*46
$GPRMC,065823,A,5332.3089,N,11329.9352,W,0.0000,0.000,261106,,*37
GPSD,O=ID8f20 1164524303.000 0.005 53.538481 -113.498919 699.00 29.75 ? 0.0000 0.000 0.000 ? 29.75 ? 2
$GPGSA,A,2,18,22,09,,,,,,,,,,3.9,3.7,1.0*3C
$PGRME,0.00,M,0.00,M,14.84,M*27
GPSD,O=ID6d 1164524303.000 0.005 53.538481 -113.498919 699.00 29.75 ? 0.0000 0.000 0.000 ? 29.75 ? 2
$GPGGA,065824,5332.3089,N,11329.9352,W,1,03,3.72,699.0,M,-19.813,M,,*41
$GPRMC,065824,A,5332.3089,N,11329.9352,W,0.0000,0.000,261106,,*30
GPSD,O=ID8f20 1164524304.000 0.005 53.538481 -113.498919 699.00 29.76 ? 0.0000 0.000 0.000 ? 59.50 ? 2
$GPGSV,3,1,10,00,00,000,00,19,26,249,27,00,00,000,00,18,26,096,35*78
$GPGSV,3,2,10,01,30,221,26,11,25,307,26,03,08,225,28,00,00,000,00*7D
$GPGSV,3,3,10,22,64,094,42,09,24,045,40*7B
GPSD,Y=ID5c 1164524304.000 7:19 26 249 27 0:18 26 96 35 1:1 30 221 26 0:11 25 307 26 0:3 8 225 28 0:22 64 94 42 1:9 24 45 40 1:
$GPGGA,065825,5332.3088,N,11329.9351,W,1,03,3.72,699.0,M,-19.813,M,,*42
$GPRMC,065825,A,5332.3088,N,11329.9351,W,0.0000,0.000,261106,,*33
GPSD,O=ID8f20 1164524305.000 0.005 53.538481 -113.498919 699.01 29.76 ? 0.0000 0.000 0.000 ? 59.51 ? 2
$GPGSA,A,2,18,22,09,,,,,,,,,,3.9,3.7,1.0*3C
$PGRME,0.00,M,0.00,M,14.84,M*27
GPSD,O=ID6d 1164524305.000 0.005 53.538481 -113.498919 699.01 29.76 ? 0.0000 0.000 0.000 ? 59.51 ? 2
$GPGGA,065826,5332.3088,N,11329.9351,W,1,03,3.72,699.0,M,-19.813,M,,*41
$GPRMC,065826,A,5332.3088,N,11329.9351,W,0.0000,0.000,261106,,*30
GPSD,O=ID8f20 1164524306.000 0.005 53.538481 -113.498919 699.01 29.76 ? 0.0000 0.000 0.000 ? 59.52 ? 2
$GPGGA,065827,5332.3088,N,11329.9351,W,1,03,3.72,699.0,M,-19.813,M,,*40
$GPRMC,065827,A,5332.3088,N,11329.9351,W,0.0000,0.000,261106,,*31
GPSD,O=ID8f20 1164524307.000 0.005 53.538480 -113.498919 699.01 29.76 ? 0.0000 0.000 0.000 ? 59.53 ? 2
$GPGSA,A,2,22,09,18,,,,,,,,,,3.9,3.7,1.0*3C
GPSD,O=ID6d 1164524307.000 0.005 53.538480 -113.498919 699.01 29.76 ? 0.0000 0.000 0.000 ? 59.53 ? 2
$GPGGA,065828,5332.3088,N,11329.9351,W,1,03,3.72,699.0,M,-19.813,M,,*4F
$GPRMC,065828,A,5332.3088,N,11329.9351,W,0.0000,0.000,261106,,*3E
GPSD,O=ID8f20 1164524308.000 0.005 53.538480 -113.498919 699.02 29.77 ? 0.0000 0.000 0.000 ? 59.53 ? 2
$GPGSA,A,2,22,09,18,,,,,,,,,,3.9,3.7,1.0*3C
GPSD,O=ID6d 1164524308.000 0.005 53.538480 -113.498919 699.02 29.77 ? 0.0000 0.000 0.000 ? 59.53 ? 2
$GPGGA,065829,5332.3088,N,11329.9351,W,1,03,3.72,699.0,M,-19.813,M,,*4E
$GPRMC,065829,A,5332.3088,N,11329.9351,W,0.0000,0.000,261106,,*3F
GPSD,O=ID8f20 1164524309.000 0.005 53.538480 -113.498919 699.02 29.78 ? 0.0000 0.000 0.000 ? 59.55 ? 2
$GPGSV,3,1,10,00,00,000,00,19,26,249,27,00,00,000,00,18,26,096,32*7F
$GPGSV,3,2,10,01,30,221,26,11,25,307,26,03,08,225,28,00,00,000,00*7D
$GPGSV,3,3,10,22,64,094,41,09,24,045,39*76
GPSD,Y=ID5c 1164524309.000 7:19 26 249 27 0:18 26 96 32 1:1 30 221 26 0:11 25 307 26 0:3 8 225 28 0:22 64 94 41 1:9 24 45 39 1:
$GPGGA,065830,5332.3088,N,11329.9351,W,1,03,3.72,699.0,M,-19.813,M,,*46
$GPRMC,065830,A,5332.3088,N,11329.9351,W,0.0000,0.000,261106,,*37
GPSD,O=ID8f20 1164524310.000 0.005 53.538480 -113.498918 699.03 29.78 ? 0.0000 0.000 0.000 ? 59.55 ? 2
$GPGGA,065831,5332.3088,N,11329.9351,W,1,03,3.72,699.0,M,-19.813,M,,*47
$GPRMC,065831,A,5332.3088,N,11329.9351,W,0.0000,0.000,261106,,*36
GPSD,O=ID8f20 1164524311.000 0.005 53.538479 -113.498918 699.03 29.78 ? 0.0000 0.000 0.000 ? 59.55 ? 2
$GPGSA,A,2,22,09,18,,,,,,,,,,3.9,3.7,1.0*3C
GPSD,O=ID6d 1164524311.000 0.005 53.538479 -113.498918 699.03 29.78 ? 0.0000 0.000 0.000 ? 59.55 ? 2
$GPGGA,065832,5332.3087,N,11329.9351,W,1,03,3.72,699.0,M,-19.813,M,,*4B
$GPRMC,065832,A,5332.3087,N,11329.9351,W,0.0000,0.000,261106,,*3A
GPSD,O=ID8f20 1164524312.000 0.005 53.538479 -113.498918 699.03 29.78 ? 0.0000 0.000 0.000 ? 59.56 ? 2
$GPGSA,A,2,22,09,18,,,,,,,,,,3.9,3.7,1.0*3C
GPSD,O=ID6d 1164524312.000 0.005 53.538479 -113.498918 699.03 29.78 ? 0.0000 0.000 0.000 ? 59.56 ? 2
$GPGGA,065833,5332.3087,N,11329.9351,W,1,03,3.72,699.0,M,-19.813,M,,*4A
$GPRMC,065833,A,5332.3087,N,11329.9351,W,0.0000,0.000,261106,,*3B
GPSD,O=ID8f20 1164524313.000 0.005 53.538479 -113.498918 699.04 29.78 ? 0.0000 0.000 0.000 ? 59.57 ? 2
$GPGSA,A,2,22,09,18,,,,,,,,,,3.9,3.7,1.0*3C
GPSD,O=ID6d 1164524313.000 0.005 53.538479 -113.498918 699.04 29.78 ? 0.0000 0.000 0.000 ? 59.57 ? 2
$GPGGA,065834,5332.3087,N,11329.9351,W,1,03,3.72,699.0,M,-19.813,M,,*4D
$GPRMC,065834,A,5332.3087,N,11329.9351,W,0.0000,0.000,261106,,*3C
GPSD,O=ID8f20 1164524314.000 0.005 53.538479 -113.498918 699.04 29.79 ? 0.0000 0.000 0.000 ? 59.57 ? 2
$GPGSV,3,1,10,00,00,000,00,19,26,249,27,00,00,000,00,18,26,096,32*7F
$GPGSV,3,2,10,01,30,221,26,11,25,307,26,03,08,225,28,00,00,000,00*7D
$GPGSV,3,3,10,22,64,094,40,09,24,045,38*76
GPSD,Y=ID5c 1164524314.000 7:19 26 249 27 0:18 26 96 32 1:1 30 221 26 0:11 25 307 26 0:3 8 225 28 0:22 64 94 40 1:9 24 45 38 1:
$GPGGA,065835,5332.3087,N,11329.9351,W,1,03,3.72,699.0,M,-19.813,M,,*4C
$GPRMC,065835,A,5332.3087,N,11329.9351,W,0.0000,0.000,261106,,*3D
GPSD,O=ID8f20 1164524315.000 0.005 53.538478 -113.498918 699.04 29.79 ? 0.0000 0.000 0.000 ? 59.58 ? 2
$GPGSA,A,2,22,09,18,,,,,,,,,,3.9,3.7,1.0*3C
$PGRME,0.00,M,0.00,M,14.86,M*25
GPSD,O=ID6d 1164524315.000 0.005 53.538478 -113.498918 699.04 29.79 ? 0.0000 0.000 0.000 ? 59.58 ? 2
$GPGGA,065837,5332.3087,N,11329.9351,W,1,03,3.72,699.0,M,-19.813,M,,*4E
$GPRMC,065837,A,5332.3087,N,11329.9351,W,0.0000,0.000,261106,,*3F
GPSD,O=ID8f20 1164524317.000 0.005 53.538478 -113.498918 699.05 29.80 ? 0.0000 0.000 0.000 ? 29.79 ? 2
$GPGSA,A,2,22,09,18,,,,,,,,,,3.9,3.7,1.0*3C
$PGRME,0.00,M,0.00,M,14.86,M*25
GPSD,O=ID6d 1164524317.000 0.005 53.538478 -113.498918 699.05 29.80 ? 0.0000 0.000 0.000 ? 29.79 ? 2
$GPGGA,065838,5332.3087,N,11329.9351,W,1,03,3.73,699.1,M,-19.813,M,,*41
$GPRMC,065838,A,5332.3087,N,11329.9351,W,0.0000,0.000,261106,,*30
GPSD,O=ID8f20 1164524318.000 0.005 53.538478 -113.498918 699.05 29.80 ? 0.0000 0.000 0.000 ? 59.60 ? 2
$GPGGA,065839,5332.3087,N,11329.9351,W,1,03,3.73,699.1,M,-19.813,M,,*40
$GPRMC,065839,A,5332.3087,N,11329.9351,W,0.0000,0.000,261106,,*31
GPSD,O=ID8f20 1164524319.000 0.005 53.538478 -113.498918 699.05 29.80 ? 0.0000 0.000 0.000 ? 59.61 ? 2
$GPGSV,3,1,10,00,00,000,00,19,26,249,27,00,00,000,00,18,26,096,30*7D
$GPGSV,3,2,10,01,30,221,26,11,25,307,26,03,07,225,28,00,00,000,00*72
$GPGSV,3,3,10,22,64,094,40,09,24,045,39*77
GPSD,Y=ID5c 1164524319.000 7:19 26 249 27 0:18 26 96 30 1:1 30 221 26 0:11 25 307 26 0:3 7 225 28 0:22 64 94 40 1:9 24 45 39 1:
$GPGSA,A,2,22,09,18,,,,,,,,,,3.9,3.7,1.0*3C
GPSD,O=ID6d 1164524319.000 0.005 53.538478 -113.498918 699.05 29.80 ? 0.0000 0.000 0.000 ? 59.61 ? 2
$GPGGA,065841,5332.3086,N,11329.9350,W,1,03,3.73,699.1,M,-19.813,M,,*4F
$GPRMC,065841,A,5332.3086,N,11329.9350,W,0.0000,0.000,261106,,*3E
GPSD,O=ID8f20 1164524321.000 0.005 53.538477 -113.498917 699.06 29.81 ? 0.0000 0.000 0.000 ? 29.81 ? 2
$GPGSA,A,2,22,09,18,,,,,,,,,,3.9,3.7,1.0*3C
GPSD,O=ID6d 1164524321.000 0.005 53.538477 -113.498917 699.06 29.81 ? 0.0000 0.000 0.000 ? 29.81 ? 2
$GPGGA,065842,5332.3086,N,11329.9350,W,1,03,3.73,699.1,M,-19.813,M,,*4C
$GPRMC,065842,A,5332.3086,N,11329.9350,W,0.0000,0.000,261106,,*3D
GPSD,O=ID8f20 1164524322.000 0.005 53.538477 -113.498917 699.06 29.82 ? 0.0000 0.000 0.000 ? 59.63 ? 2
$GPGGA,065843,5332.3086,N,11329.9350,W,1,03,3.73,699.1,M,-19.813,M,,*4D
$GPRMC,065843,A,5332.3086,N,11329.9350,W,0.0000,0.000,261106,,*3C
GPSD,O=ID8f20 1164524323.000 0.005 53.538477 -113.498917 699.07 29.82 ? 0.0000 0.000 0.000 ? 59.64 ? 2
$GPGGA,065844,5332.3086,N,11329.9350,W,1,03,3.73,699.1,M,-19.813,M,,*4A
$GPRMC,065844,A,5332.3086,N,11329.9350,W,0.0000,0.000,261106,,*3B
GPSD,O=ID8f20 1164524324.000 0.005 53.538477 -113.498917 699.07 29.82 ? 0.0000 0.000 0.000 ? 59.64 ? 2
$GPGGA,065845,5332.3086,N,11329.9350,W,1,03,3.73,699.1,M,-19.813,M,,*4B
$GPRMC,065845,A,5332.3086,N,11329.9350,W,0.0000,0.000,261106,,*3A
GPSD,O=ID8f20 1164524325.000 0.005 53.538477 -113.498917 699.07 29.82 ? 0.0000 0.000 0.000 ? ? ? 2
$GPGSA,A,2,22,09,18,,,,,,,,,,3.9,3.7,1.0*3C
GPSD,O=ID6d 1164524325.000 0.005 53.538477 -113.498917 699.07 29.82 ? 0.0000 0.000 0.000 ? ? ? 2
$GPGGA,065846,5332.3086,N,11329.9350,W,1,03,3.73,699.1,M,-19.813,M,,*48
$GPRMC,065846,A,5332.3086,N,11329.9350,W,0.0000,0.000,261106,,*39
GPSD,O=ID8f20 1164524326.000 0.005 53.538476 -113.498917 699.08 29.83 ? 0.0000 0.000 0.000 ? 59.65 ? 2
$GPGSA,A,2,22,09,18,,,,,,,,,,3.9,3.7,1.0*3C
GPSD,O=ID6d 1164524326.000 0.005 53.538476 -113.498917 699.08 29.83 ? 0.0000 0.000 0.000 ? 59.65 ? 2
$GPGGA,065847,5332.3086,N,11329.9350,W,1,03,3.73,699.1,M,-19.813,M,,*49
$GPRMC,065847,A,5332.3086,N,11329.9350,W,0.0000,0.000,261106,,*38
GPSD,O=ID8f20 1164524327.000 0.005 53.538476 -113.498917 699.08 29.83 ? 0.0000 0.000 0.000 ? 59.67 ? 2
$GPGGA,065848,5332.3086,N,11329.9350,W,1,03,3.73,699.1,M,-19.813,M,,*46
$GPRMC,065848,A,5332.3086,N,11329.9350,W,0.0000,0.000,261106,,*37
GPSD,O=ID8f20 1164524328.000 0.005 53.538476 -113.498917 699.08 29.83 ? 0.0000 0.000 0.000 ? 59.67 ? 2
$GPGGA,065849,5332.3085,N,11329.9350,W,1,03,3.73,699.1,M,-19.813,M,,*44
$GPRMC,065849,A,5332.3085,N,11329.9350,W,0.0000,0.000,261106,,*35
GPSD,O=ID8f20 1164524329.000 0.005 53.538476 -113.498917 699.08 29.83 ? 0.0000 0.000 0.000 ? 59.67 ? 2
$GPGSA,A,2,22,09,18,,,,,,,,,,3.9,3.7,1.0*3C
GPSD,O=ID6d ? 0.005 53.538476 -113.498917 699.08 29.83 ? 0.0000 0.000 0.000 ? 59.67 ? 2
$GPGSV,3,1,10,00,00,000,00,19,26,249,27,00,00,000,00,18,26,096,28*74
$GPGSV,3,2,10,01,30,221,26,11,25,307,26,03,07,225,28,00,00,000,00*72
$GPGSV,3,3,10,22,64,094,39,09,24,045,37*77
GPSD,Y=ID5c 1164524329.430 7:19 26 249 27 0:18 26 96 28 1:1 30 221 26 0:11 25 307 26 0:3 7 225 28 0:22 64 94 39 1:9 24 45 37 1:
$GPGGA,065850,5332.3085,N,11329.9350,W,1,03,3.73,699.1,M,-19.813,M,,*4C
$GPRMC,065850,A,5332.3085,N,11329.9350,W,0.0000,0.000,261106,,*3D
GPSD,O=ID8f20 1164524330.000 0.005 53.538476 -113.498917 699.09 29.84 ? 0.0000 0.000 0.000 ? ? ? 2
$GPGSA,A,2,22,09,18,,,,,,,,,,3.9,3.7,1.0*3C
$PGRME,0.00,M,0.00,M,14.88,M*2B
GPSD,O=ID6d 1164524330.000 0.005 53.538476 -113.498917 699.09 29.84 ? 0.0000 0.000 0.000 ? ? ? 2
$GPGGA,065851,5332.3085,N,11329.9350,W,1,03,3.73,699.1,M,-19.813,M,,*4D
$GPRMC,065851,A,5332.3085,N,11329.9350,W,0.0000,0.000,261106,,*3C
GPSD,O=ID8f20 1164524331.000 0.005 53.538475 -113.498917 699.09 29.85 ? 0.0000 0.000 0.000 ? 59.69 ? 2
$GPGSA,A,2,22,09,18,,,,,,,,,,3.9,3.7,1.0*3C
$PGRME,0.00,M,0.00,M,14.88,M*2B
GPSD,O=ID6d 1164524331.000 0.005 53.538475 -113.498917 699.09 29.85 ? 0.0000 0.000 0.000 ? 59.69 ? 2
$GPGGA,065852,5332.3085,N,11329.9350,W,1,03,3.73,699.1,M,-19.813,M,,*4E
$GPRMC,065852,A,5332.3085,N,11329.9350,W,0.0000,0.000,261106,,*3F
GPSD,O=ID8f20 1164524332.000 0.005 53.538475 -113.498917 699.09 29.85 ? 0.0000 0.000 0.000 ? 59.70 ? 2
$GPGSA,A,2,22,09,18,,,,,,,,,,3.9,3.7,1.0*3C
$PGRME,0.00,M,0.00,M,14.88,M*2B
GPSD,O=ID6d 1164524332.000 0.005 53.538475 -113.498917 699.09 29.85 ? 0.0000 0.000 0.000 ? 59.70 ? 2
$GPGGA,065853,5332.3085,N,11329.9350,W,1,03,3.73,699.1,M,-19.813,M,,*4F
$GPRMC,065853,A,5332.3085,N,11329.9350,W,0.0000,0.000,261106,,*3E
GPSD,O=ID8f20 1164524333.000 0.005 53.538475 -113.498917 699.09 29.85 ? 0.0000 0.000 0.000 ? 59.70 ? 2
$GPGSA,A,2,22,09,18,,,,,,,,,,3.9,3.7,1.0*3C
$PGRME,0.00,M,0.00,M,14.89,M*2A
GPSD,O=ID6d 1164524333.000 0.005 53.538475 -113.498917 699.09 29.85 ? 0.0000 0.000 0.000 ? 59.70 ? 2
$GPGGA,065854,5332.3085,N,11329.9350,W,1,03,3.73,699.1,M,-19.813,M,,*48
$GPRMC,065854,A,5332.3085,N,11329.9350,W,0.0000,0.000,261106,,*39
GPSD,O=ID8f20 1164524334.000 0.005 53.538475 -113.498917 699.10 29.85 ? 0.0000 0.000 0.000 ? 59.71 ? 2
$GPGSA,A,2,22,09,,,,,,,,,,,0.0,0.0,0.0*3A
$PGRME,0.00,M,0.00,M,14.89,M*2A
GPSD,O=ID6d 1164524334.000 0.005 53.538475 -113.498917 699.10 29.85 ? 0.0000 0.000 0.000 ? 59.71 ? 2
