GPSD,W=1,R=1
$GPGSV,3,1,12,04,51,189,00,11,63,142,46,23,22,187,44,20,69,250,44*7D
$GPGSV,3,2,12,13,34,231,00,07,35,297,42,02,13,316,00,01,49,069,46*70
$GPGSV,3,3,12,27,46,082,00,14,18,040,46,25,18,090,44,24,43,294,47*77
GPSD,Y=MID4 1118480772.990 12:4 51 189 0 0:11 63 142 46 0:23 22 187 44 0:20 69 250 44 0:13 34 231 0 0:7 35 297 42 0:2 13 316 0 0:1 49 69 46 0:27 46 82 0 0:14 18 40 46 0:25 18 90 44 0:24 43 294 47 0:
$GPGGA,090612,5203.7606,N,00508.3161,E,1,08,1.80,33.3,M,46.772,M,,*47
$GPRMC,090612,A,5203.7606,N,00508.3161,E,0.0000,0.000,110605,,*29
$GPGSA,A,3,11,23,20,07,01,14,25,24,,,,,2.1,1.8,0.7*3E
GPSD,O=MID2 1118480772.990 0.005 52.062676 5.138601 33.30 14.40 5.66 0.0000 0.000 0.000 ? ? ? 3
$GPGGA,090613,5203.7605,N,00508.3168,E,1,08,1.80,34.4,M,46.772,M,,*4C
$GPRMC,090613,A,5203.7605,N,00508.3168,E,0.0447,54.442,110605,,*16
$GPGSA,A,3,11,23,20,07,01,14,25,24,,,,,0.8,1.8,1.0*33
$PGRME,0.00,M,0.00,M,8.20,M*14
GPSD,O=MID98 1118480773.999 0.005 52.062675 5.138613 34.43 14.40 5.66 54.4418 0.023 0.024 ? 28.54 ? 3
$GPGGA,090614,5203.7605,N,00508.3168,E,1,08,1.80,34.4,M,46.772,M,,*4B
$GPRMC,090614,A,5203.7605,N,00508.3168,E,0.0525,55.231,110605,,*17
$GPGSA,A,3,11,23,20,07,01,14,25,24,,,,,0.8,1.8,1.0*33
$PGRME,0.00,M,0.00,M,8.20,M*14
GPSD,O=MID98 1118480774.999 0.005 52.062675 5.138613 34.44 14.40 5.66 55.2310 0.027 0.027 ? 28.54 ? 3
$GPGGA,090615,5203.7605,N,00508.3168,E,1,08,1.80,34.5,M,46.772,M,,*4B
$GPRMC,090615,A,5203.7605,N,00508.3168,E,0.0467,53.664,110605,,*13
$GPGSA,A,3,11,23,20,07,01,14,25,24,,,,,0.8,1.8,1.0*33
$PGRME,0.00,M,0.00,M,8.20,M*14
GPSD,O=MID98 1118480775.999 0.005 52.062675 5.138613 34.46 14.40 5.66 53.6641 0.024 0.024 ? 28.54 ? 3
$GPGGA,090616,5203.7605,N,00508.3168,E,1,08,1.80,34.5,M,46.772,M,,*48
$GPRMC,090616,A,5203.7605,N,00508.3168,E,0.0525,57.361,110605,,*13
$GPGSA,A,3,11,23,20,07,01,14,25,24,,,,,0.8,1.8,1.0*33
$PGRME,0.00,M,0.00,M,8.20,M*14
GPSD,O=MID98 1118480776.999 0.005 52.062675 5.138613 34.47 14.40 5.66 57.3607 0.027 0.026 ? 28.54 ? 3
$GPGGA,090617,5203.7605,N,00508.3168,E,1,08,1.80,34.5,M,46.772,M,,*49
$GPRMC,090617,A,5203.7605,N,00508.3168,E,0.0467,50.658,110605,,*1D
$GPGSA,A,3,11,23,20,07,01,14,25,24,,,,,0.8,1.8,1.0*33
$PGRME,0.00,M,0.00,M,8.20,M*14
GPSD,O=MID98 1118480777.999 0.005 52.062675 5.138613 34.49 14.40 5.66 50.6579 0.024 0.025 ? 28.54 ? 3
$GPGSV,3,1,12,04,51,189,00,11,63,142,46,23,22,187,44,20,69,250,44*7D
$GPGSV,3,2,12,13,34,231,00,07,35,297,43,02,13,316,00,01,49,069,46*71
$GPGSV,3,3,12,27,46,082,00,14,18,040,46,25,18,090,44,24,43,294,47*77
GPSD,Y=MID4 1118480777.990 12:4 51 189 0 0:11 63 142 46 1:23 22 187 44 1:20 69 250 44 1:13 34 231 0 0:7 35 297 43 1:2 13 316 0 0:1 49 69 46 1:27 46 82 0 0:14 18 40 46 1:25 18 90 44 1:24 43 294 47 1:
$GPGGA,090618,5203.7605,N,00508.3168,E,1,08,1.80,34.5,M,46.772,M,,*46
$GPRMC,090618,A,5203.7605,N,00508.3168,E,0.0583,58.520,110605,,*1D
$GPGSA,A,3,11,23,20,07,01,14,25,24,,,,,0.8,1.8,1.0*33
$PGRME,0.00,M,0.00,M,8.20,M*14
GPSD,O=MID98 1118480778.999 0.005 52.062675 5.138613 34.50 14.40 5.66 58.5200 0.030 0.029 ? 28.54 ? 3
$GPGGA,090619,5203.7605,N,00508.3168,E,1,08,1.80,34.5,M,46.772,M,,*47
$GPRMC,090619,A,5203.7605,N,00508.3168,E,0.0525,52.550,110605,,*1D
$GPGSA,A,3,11,23,20,07,01,14,25,24,,,,,0.8,1.8,1.0*33
$PGRME,0.00,M,0.00,M,8.20,M*14
GPSD,O=MID98 1118480779.999 0.005 52.062675 5.138613 34.53 14.40 5.66 52.5503 0.027 0.027 ? 28.54 ? 3
$GPGGA,090620,5203.7604,N,00508.3168,E,1,08,1.80,34.5,M,46.772,M,,*4C
$GPRMC,090620,A,5203.7604,N,00508.3168,E,0.0544,52.048,110605,,*1D
$GPGSA,A,3,11,23,20,07,01,14,25,24,,,,,0.8,1.8,1.0*33
$PGRME,0.00,M,0.00,M,8.20,M*14
GPSD,O=MID98 1118480780.999 0.005 52.062674 5.138613 34.55 14.40 5.66 52.0477 0.028 0.026 ? 28.54 ? 3
$GPGGA,090621,5203.7604,N,00508.3168,E,1,08,1.80,34.6,M,46.772,M,,*4E
$GPRMC,090621,A,5203.7604,N,00508.3168,E,0.0505,57.303,110605,,*10
$GPGSA,A,3,11,23,20,07,01,14,25,24,,,,,0.8,1.8,1.0*33
$PGRME,0.00,M,0.00,M,8.20,M*14
GPSD,O=MID98 1118480781.999 0.005 52.062674 5.138613 34.56 14.40 5.66 57.3033 0.026 0.027 ? 28.54 ? 3
$GPGGA,090622,5203.7604,N,00508.3168,E,1,08,1.80,34.6,M,46.772,M,,*4D
$GPRMC,090622,A,5203.7604,N,00508.3168,E,0.0544,50.157,110605,,*12
$GPGSA,A,3,11,23,20,07,01,14,25,24,,,,,0.8,1.8,1.0*33
$PGRME,0.00,M,0.00,M,8.20,M*14
GPSD,O=MID98 1118480782.999 0.005 52.062674 5.138613 34.58 14.40 5.66 50.1571 0.028 0.027 ? 28.54 ? 3
$GPGSV,3,1,12,04,51,189,00,11,63,142,47,23,22,187,44,20,69,250,44*7C
$GPGSV,3,2,12,13,34,231,00,07,35,297,42,02,13,316,00,01,49,069,46*70
$GPGSV,3,3,12,27,46,082,00,14,18,040,46,25,18,090,44,24,43,294,47*77
GPSD,Y=MID4 1118480782.990 12:4 51 189 0 0:11 63 142 47 1:23 22 187 44 1:20 69 250 44 1:13 34 231 0 0:7 35 297 42 1:2 13 316 0 0:1 49 69 46 1:27 46 82 0 0:14 18 40 46 1:25 18 90 44 1:24 43 294 47 1:
$GPGGA,090623,5203.7604,N,00508.3168,E,1,08,1.80,34.6,M,46.772,M,,*4C
$GPRMC,090623,A,5203.7604,N,00508.3168,E,0.0544,53.626,110605,,*11
$GPGSA,A,3,11,23,20,07,01,14,25,24,,,,,0.8,1.8,1.0*33
$PGRME,0.00,M,0.00,M,8.20,M*14
GPSD,O=MID98 1118480783.999 0.005 52.062674 5.138613 34.60 14.40 5.66 53.6261 0.028 0.025 ? 28.54 ? 3
$GPGGA,090624,5203.7604,N,00508.3168,E,1,08,1.80,34.6,M,46.772,M,,*4B
$GPRMC,090624,A,5203.7604,N,00508.3168,E,0.0505,52.472,110605,,*11
$GPGSA,A,3,11,23,20,07,01,14,25,24,,,,,0.8,1.8,1.0*33
$PGRME,0.00,M,0.00,M,8.20,M*14
GPSD,O=MID98 1118480784.999 0.005 52.062674 5.138613 34.61 14.40 5.66 52.4722 0.026 0.024 ? 28.54 ? 3
$GPGGA,090625,5203.7604,N,00508.3168,E,1,08,1.80,34.6,M,46.772,M,,*4A
$GPRMC,090625,A,5203.7604,N,00508.3168,E,0.0544,46.638,110605,,*1C
$GPGSA,A,3,11,23,20,07,01,14,25,24,,,,,0.8,1.8,1.0*33
$PGRME,0.00,M,0.00,M,8.20,M*14
GPSD,O=MID98 1118480785.998 0.005 52.062674 5.138613 34.63 14.40 5.66 46.6380 0.028 0.027 ? 28.54 ? 3
$GPGGA,090626,5203.7604,N,00508.3168,E,1,08,1.80,34.6,M,46.772,M,,*49
$GPRMC,090626,A,5203.7604,N,00508.3168,E,0.0525,52.472,110605,,*11
$GPGSA,A,3,11,23,20,07,01,14,25,24,,,,,0.8,1.8,1.0*33
$PGRME,0.00,M,0.00,M,8.20,M*14
GPSD,O=MID98 1118480786.998 0.005 52.062674 5.138613 34.65 14.40 5.66 52.4723 0.027 0.025 ? 28.54 ? 3
$GPGGA,090627,5203.7604,N,00508.3168,E,1,08,1.80,34.7,M,46.772,M,,*49
$GPRMC,090627,A,5203.7604,N,00508.3168,E,0.0467,55.803,110605,,*1A
$GPGSA,A,3,11,23,20,07,01,14,25,24,,,,,0.8,1.8,1.0*33
$PGRME,0.00,M,0.00,M,8.20,M*14
GPSD,O=MID98 1118480787.999 0.005 52.062674 5.138613 34.66 14.40 5.66 55.8031 0.024 0.024 ? 28.54 ? 3
$GPGSV,3,1,12,04,51,189,00,11,63,142,47,23,22,187,44,20,69,250,44*7C
$GPGSV,3,2,12,13,34,231,00,07,35,297,42,02,13,316,00,01,49,069,47*71
$GPGSV,3,3,12,27,46,082,00,14,18,040,47,25,18,090,44,24,43,294,47*76
GPSD,Y=MID4 1118480787.990 12:4 51 189 0 0:11 63 142 47 1:23 22 187 44 1:20 69 250 44 1:13 34 231 0 0:7 35 297 42 1:2 13 316 0 0:1 49 69 47 1:27 46 82 0 0:14 18 40 47 1:25 18 90 44 1:24 43 294 47 1:
$GPGGA,090628,5203.7604,N,00508.3168,E,1,08,1.80,34.7,M,46.772,M,,*46
$GPRMC,090628,A,5203.7604,N,00508.3168,E,0.0544,57.676,110605,,*1B
$GPGSA,A,3,11,23,20,07,01,14,25,24,,,,,0.8,1.8,1.0*33
$PGRME,0.00,M,0.00,M,8.20,M*14
GPSD,O=MID98 1118480788.999 0.005 52.062674 5.138613 34.68 14.40 5.66 57.6760 0.028 0.026 ? 28.54 ? 3
$GPGGA,090629,5203.7604,N,00508.3168,E,1,08,1.80,34.7,M,46.772,M,,*47
$GPRMC,090629,A,5203.7604,N,00508.3168,E,0.0505,47.992,110605,,*1B
$GPGSA,A,3,11,23,20,07,01,14,25,24,,,,,0.8,1.8,1.0*33
$PGRME,0.00,M,0.00,M,8.20,M*14
GPSD,O=MID98 1118480789.999 0.005 52.062674 5.138613 34.69 14.40 5.66 47.9916 0.026 0.027 ? 28.54 ? 3
$GPGGA,090630,5203.7604,N,00508.3168,E,1,08,1.80,34.7,M,46.772,M,,*4F
$GPRMC,090630,A,5203.7604,N,00508.3168,E,0.0525,54.404,110605,,*11
$GPGSA,A,3,11,23,20,07,01,14,25,24,,,,,0.8,1.8,1.0*33
$PGRME,0.00,M,0.00,M,8.20,M*14
GPSD,O=MID98 1118480790.999 0.005 52.062674 5.138613 34.71 14.40 5.66 54.4040 0.027 0.027 ? 28.54 ? 3
$GPGGA,090631,5203.7604,N,00508.3168,E,1,08,1.80,34.7,M,46.772,M,,*4E
$GPRMC,090631,A,5203.7604,N,00508.3168,E,0.0544,57.430,110605,,*13
$GPGSA,A,3,11,23,20,07,01,14,25,24,,,,,0.8,1.8,1.0*33
$PGRME,0.00,M,0.00,M,8.20,M*14
GPSD,O=MID98 1118480791.999 0.005 52.062674 5.138613 34.73 14.40 5.66 57.4299 0.028 0.029 ? 28.54 ? 3
$GPGGA,090632,5203.7604,N,00508.3168,E,1,08,1.80,34.8,M,46.772,M,,*42
$GPRMC,090632,A,5203.7604,N,00508.3168,E,0.0505,50.753,110605,,*14
$GPGSA,A,3,11,23,20,07,01,14,25,24,,,,,0.8,1.8,1.0*33
$PGRME,0.00,M,0.00,M,8.20,M*14
GPSD,O=MID98 1118480792.999 0.005 52.062674 5.138613 34.75 14.40 5.66 50.7535 0.026 0.024 ? 28.54 ? 3
$GPGSV,3,1,12,04,51,189,00,11,63,142,47,23,22,187,44,20,69,250,44*7C
$GPGSV,3,2,12,13,34,231,00,07,35,297,44,02,13,316,00,01,49,069,47*77
$GPGSV,3,3,12,27,46,082,00,14,18,040,47,25,18,090,44,24,43,294,47*76
GPSD,Y=MID4 1118480792.990 12:4 51 189 0 0:11 63 142 47 1:23 22 187 44 1:20 69 250 44 1:13 34 231 0 0:7 35 297 44 1:2 13 316 0 0:1 49 69 47 1:27 46 82 0 0:14 18 40 47 1:25 18 90 44 1:24 43 294 47 1:
$GPGGA,090633,5203.7604,N,00508.3168,E,1,08,1.80,34.8,M,46.772,M,,*43
$GPRMC,090633,A,5203.7604,N,00508.3168,E,0.0525,55.771,110605,,*12
$GPGSA,A,3,11,23,20,07,01,14,25,24,,,,,0.8,1.8,1.0*33
$PGRME,0.00,M,0.00,M,8.20,M*14
GPSD,O=MID98 1118480793.999 0.005 52.062674 5.138613 34.77 14.40 5.66 55.7710 0.027 0.025 ? 28.54 ? 3
$GPGGA,090634,5203.7604,N,00508.3168,E,1,08,1.80,34.8,M,46.772,M,,*44
$GPRMC,090634,A,5203.7604,N,00508.3168,E,0.0525,56.120,110605,,*14
$GPGSA,A,3,11,23,20,07,01,14,25,24,,,,,0.8,1.8,1.0*33
$PGRME,0.00,M,0.00,M,8.20,M*14
GPSD,O=MID98 1118480794.999 0.005 52.062674 5.138613 34.79 14.40 5.66 56.1196 0.027 0.029 ? 28.54 ? 3
$GPGGA,090635,5203.7604,N,00508.3168,E,1,08,1.80,34.8,M,46.772,M,,*45
$GPRMC,090635,A,5203.7604,N,00508.3168,E,0.0505,55.137,110605,,*12
$GPGSA,A,3,11,23,20,07,01,14,25,24,,,,,0.8,1.8,1.0*33
$PGRME,0.00,M,0.00,M,8.20,M*14
GPSD,O=MID98 1118480795.999 0.005 52.062674 5.138613 34.81 14.40 5.66 55.1368 0.026 0.027 ? 28.54 ? 3
$GPGGA,090636,5203.7604,N,00508.3168,E,1,08,1.80,34.8,M,46.772,M,,*46
$GPRMC,090636,A,5203.7604,N,00508.3168,E,0.0525,56.312,110605,,*15
$GPGSA,A,3,11,23,20,07,01,14,25,24,,,,,0.8,1.8,1.0*33
$PGRME,0.00,M,0.00,M,8.20,M*14
GPSD,O=MID98 1118480796.999 0.005 52.062674 5.138613 34.83 14.40 5.66 56.3121 0.027 0.027 ? 28.54 ? 3
$GPGGA,090637,5203.7604,N,00508.3168,E,1,08,1.80,34.9,M,46.772,M,,*46
$GPRMC,090637,A,5203.7604,N,00508.3168,E,0.0564,56.963,110605,,*1D
$GPGSA,A,3,11,23,20,07,01,14,25,24,,,,,0.8,1.8,1.0*33
$PGRME,0.00,M,0.00,M,8.20,M*14
GPSD,O=MID98 1118480797.999 0.005 52.062674 5.138613 34.85 14.40 5.66 56.9633 0.029 0.028 ? 28.54 ? 3
$GPGSV,3,1,12,04,51,189,00,11,63,142,47,23,22,187,45,20,69,250,44*7D
$GPGSV,3,2,12,13,34,231,00,07,35,297,43,02,13,316,00,01,49,069,47*70
$GPGSV,3,3,12,27,46,082,00,14,18,040,46,25,18,090,43,24,43,294,47*70
GPSD,Y=MID4 1118480797.990 12:4 51 189 0 0:11 63 142 47 1:23 22 187 45 1:20 69 250 44 1:13 34 231 0 0:7 35 297 43 1:2 13 316 0 0:1 49 69 47 1:27 46 82 0 0:14 18 40 46 1:25 18 90 43 1:24 43 294 47 1:
$GPGGA,090638,5203.7604,N,00508.3168,E,1,08,1.80,34.9,M,46.772,M,,*49
$GPRMC,090638,A,5203.7604,N,00508.3168,E,0.0467,50.169,110605,,*14
$GPGSA,A,3,11,23,20,07,01,14,25,24,,,,,0.8,1.8,1.0*33
$PGRME,0.00,M,0.00,M,8.20,M*14
GPSD,O=MID98 1118480798.999 0.005 52.062674 5.138613 34.87 14.40 5.66 50.1692 0.024 0.027 ? 28.54 ? 3
$GPGGA,090639,5203.7604,N,00508.3168,E,1,08,1.80,34.9,M,46.772,M,,*48
$GPRMC,090639,A,5203.7604,N,00508.3168,E,0.0583,59.282,110605,,*11
$GPGSA,A,3,11,23,20,07,01,14,25,24,,,,,0.8,1.8,1.0*33
$PGRME,0.00,M,0.00,M,8.20,M*14
GPSD,O=MID98 1118480799.999 0.005 52.062674 5.138613 34.89 14.40 5.66 59.2822 0.030 0.026 ? 28.54 ? 3
$GPGGA,090640,5203.7604,N,00508.3168,E,1,08,1.80,34.9,M,46.772,M,,*46
$GPRMC,090640,A,5203.7604,N,00508.3168,E,0.0583,50.788,110605,,*19
$GPGSA,A,3,11,23,20,07,01,14,25,24,,,,,0.8,1.8,1.0*33
$PGRME,0.00,M,0.00,M,8.20,M*14
GPSD,O=MID98 1118480800.999 0.005 52.062674 5.138613 34.91 14.40 5.66 50.7882 0.030 0.027 ? 28.54 ? 3
$GPGGA,090641,5203.7604,N,00508.3168,E,1,08,1.80,34.9,M,46.772,M,,*47
$GPRMC,090641,A,5203.7604,N,00508.3168,E,0.0544,52.764,110605,,*13
$GPGSA,A,3,11,23,20,07,01,14,25,24,,,,,0.8,1.8,1.0*33
$PGRME,0.00,M,0.00,M,8.20,M*14
GPSD,O=MID98 1118480801.999 0.005 52.062674 5.138613 34.93 14.40 5.66 52.7638 0.028 0.028 ? 28.54 ? 3
$GPGGA,090642,5203.7604,N,00508.3168,E,1,08,1.80,34.9,M,46.772,M,,*44
$GPRMC,090642,A,5203.7604,N,00508.3168,E,0.0525,53.233,110605,,*11
$GPGSA,A,3,11,23,20,07,01,14,25,24,,,,,0.8,1.8,1.0*33
$PGRME,0.00,M,0.00,M,8.20,M*14
GPSD,O=MID98 1118480802.999 0.005 52.062674 5.138613 34.95 14.40 5.66 53.2332 0.027 0.026 ? 28.54 ? 3
$GPGSV,3,1,12,04,51,189,00,11,63,142,47,23,22,187,45,20,69,250,45*7C
$GPGSV,3,2,12,13,34,231,00,07,35,297,43,02,13,316,00,01,49,069,46*71
$GPGSV,3,3,12,27,46,082,00,14,18,040,46,25,18,090,44,24,43,294,47*77
GPSD,Y=MID4 1118480802.990 12:4 51 189 0 0:11 63 142 47 1:23 22 187 45 1:20 69 250 45 1:13 34 231 0 0:7 35 297 43 1:2 13 316 0 0:1 49 69 46 1:27 46 82 0 0:14 18 40 46 1:25 18 90 44 1:24 43 294 47 1:
$GPGGA,090643,5203.7604,N,00508.3168,E,1,08,1.80,35.0,M,46.772,M,,*4D
$GPRMC,090643,A,5203.7604,N,00508.3168,E,0.0525,57.787,110605,,*1E
$GPGSA,A,3,11,23,20,07,01,14,25,24,,,,,0.8,1.8,1.0*33
$PGRME,0.00,M,0.00,M,8.20,M*14
GPSD,O=MID98 1118480803.999 0.005 52.062674 5.138613 34.97 14.40 5.66 57.7866 0.027 0.026 ? 28.54 ? 3
$GPGGA,090644,5203.7604,N,00508.3168,E,1,08,1.80,35.0,M,46.772,M,,*4A
$GPRMC,090644,A,5203.7604,N,00508.3168,E,0.0544,53.946,110605,,*19
$GPGSA,A,3,11,23,20,07,01,14,25,24,,,,,0.8,1.8,1.0*33
$PGRME,0.00,M,0.00,M,8.20,M*14
GPSD,O=MID98 1118480804.998 0.005 52.062674 5.138613 34.98 14.40 5.66 53.9462 0.028 0.025 ? 28.54 ? 3
$GPGGA,090645,5203.7604,N,00508.3168,E,1,08,1.80,35.0,M,46.772,M,,*4B
$GPRMC,090645,A,5203.7604,N,00508.3168,E,0.0467,53.835,110605,,*1D
$GPGSA,A,3,11,23,20,07,01,14,25,24,,,,,0.8,1.8,1.0*33
$PGRME,0.00,M,0.00,M,8.20,M*14
GPSD,O=MID98 1118480805.998 0.005 52.062674 5.138613 35.00 14.40 5.66 53.8351 0.024 0.024 ? 28.54 ? 3
$GPGGA,090646,5203.7604,N,00508.3168,E,1,08,1.80,35.0,M,46.772,M,,*48
$GPRMC,090646,A,5203.7604,N,00508.3168,E,0.0486,56.661,110605,,*1B
$GPGSA,A,3,11,23,20,07,01,14,25,24,,,,,0.8,1.8,1.0*33
$PGRME,0.00,M,0.00,M,8.20,M*14
GPSD,O=MID98 1118480806.999 0.005 52.062674 5.138613 35.02 14.40 5.66 56.6610 0.025 0.023 ? 28.54 ? 3
$GPGGA,090647,5203.7604,N,00508.3168,E,1,08,1.80,35.0,M,46.772,M,,*49
$GPRMC,090647,A,5203.7604,N,00508.3168,E,0.0583,56.423,110605,,*1A
$GPGSA,A,3,11,23,20,07,01,14,25,24,,,,,0.8,1.8,1.0*33
$PGRME,0.00,M,0.00,M,8.20,M*14
GPSD,O=MID98 1118480807.999 0.005 52.062674 5.138613 35.03 14.40 5.66 56.4233 0.030 0.028 ? 28.54 ? 3
$GPGSV,3,1,12,04,51,189,00,11,63,142,47,23,22,187,45,20,69,250,44*7D
$GPGSV,3,2,12,13,34,231,00,07,35,297,43,02,13,316,00,01,49,069,47*70
$GPGSV,3,3,12,27,46,082,00,14,18,040,47,25,18,090,44,24,43,294,47*76
GPSD,Y=MID4 1118480807.990 12:4 51 189 0 0:11 63 142 47 1:23 22 187 45 1:20 69 250 44 1:13 34 231 0 0:7 35 297 43 1:2 13 316 0 0:1 49 69 47 1:27 46 82 0 0:14 18 40 47 1:25 18 90 44 1:24 43 294 47 1:
$GPGGA,090648,5203.7604,N,00508.3168,E,1,08,1.80,35.1,M,46.772,M,,*47
$GPRMC,090648,A,5203.7604,N,00508.3168,E,0.0544,53.197,110605,,*11
$GPGSA,A,3,11,23,20,07,01,14,25,24,,,,,0.8,1.8,1.0*33
$PGRME,0.00,M,0.00,M,8.20,M*14
GPSD,O=MID98 1118480808.999 0.005 52.062674 5.138613 35.05 14.40 5.66 53.1973 0.028 0.026 ? 28.54 ? 3
$GPGGA,090649,5203.7604,N,00508.3168,E,1,08,1.80,35.1,M,46.772,M,,*46
$GPRMC,090649,A,5203.7604,N,00508.3168,E,0.0525,50.564,110605,,*1C
$GPGSA,A,3,11,23,20,07,01,14,25,24,,,,,0.8,1.8,1.0*33
$PGRME,0.00,M,0.00,M,8.20,M*14
GPSD,O=MID98 1118480809.999 0.005 52.062674 5.138613 35.07 14.40 5.66 50.5642 0.027 0.024 ? 28.54 ? 3
$GPGGA,090650,5203.7604,N,00508.3168,E,1,08,1.80,35.1,M,46.772,M,,*4E
$GPRMC,090650,A,5203.7604,N,00508.3168,E,0.0564,54.515,110605,,*13
$GPGSA,A,3,11,23,20,07,01,14,25,24,,,,,0.8,1.8,1.0*33
$PGRME,0.00,M,0.00,M,8.20,M*14
GPSD,O=MID98 1118480810.999 0.005 52.062673 5.138613 35.08 14.40 5.66 54.5150 0.029 0.026 ? 28.54 ? 3
$GPGGA,090651,5203.7604,N,00508.3168,E,1,08,1.80,35.1,M,46.772,M,,*4F
$GPRMC,090651,A,5203.7604,N,00508.3168,E,0.0544,53.714,110605,,*14
$GPGSA,A,3,11,23,20,07,01,14,25,24,,,,,0.8,1.8,1.0*33
$PGRME,0.00,M,0.00,M,8.20,M*14
GPSD,O=MID98 1118480811.999 0.005 52.062673 5.138613 35.10 14.40 5.66 53.7143 0.028 0.028 ? 28.54 ? 3
