GPSD,W=1,R=1
$GPGGA,204220,5203.7576,N,00508.3123,E,1,08,,8.2,M,47.120,M,0.91,W*20
$GPRMC,204220,A,5203.7576,N,00508.3123,E,0.0000,0.000,130605,,*23
GPSD,O=1000 1118695340.00 0.005 52.062626 5.138538 8.23 ? ? 0.0000 0.000 -0.010 ? ? ? 3
$PRWIZCH,01,2,05,7,04,7,14,7,02,0,07,7,30,7,18,6,24,7,09,7,00,0,22,7*4C
GPSD,Y=?
$GPGGA,204221,5203.7576,N,00508.3123,E,1,08,,8.2,M,47.120,M,0.91,W*21
$GPRMC,204221,A,5203.7576,N,00508.3123,E,0.0000,0.000,130605,,*22
GPSD,O=1000 1118695341.00 0.005 52.062626 5.138538 8.23 ? ? 0.0000 0.000 0.000 ? ? ? 3
$PRWIZCH,01,2,05,7,04,7,14,7,02,0,07,7,30,7,18,6,24,7,09,7,00,0,22,7*4C
GPSD,Y=?
$GPGGA,204222,5203.7576,N,00508.3123,E,1,08,,8.2,M,47.120,M,0.91,W*22
$GPRMC,204222,A,5203.7576,N,00508.3123,E,0.0000,0.000,130605,,*21
GPSD,O=1000 1118695342.00 0.005 52.062626 5.138538 8.20 ? ? 0.0000 0.000 -0.020 ? ? ? 3
$PRWIZCH,01,2,05,7,04,7,14,7,02,0,07,7,30,7,18,6,24,7,09,7,00,0,22,7*4C
GPSD,Y=?
$GPGGA,204223,5203.7576,N,00508.3123,E,1,08,,8.3,M,47.120,M,0.91,W*22
$GPRMC,204223,A,5203.7576,N,00508.3123,E,0.0000,0.000,130605,,*20
GPSD,O=1000 1118695343.00 0.005 52.062626 5.138538 8.28 ? ? 0.0000 0.000 0.050 ? ? ? 3
$PRWIZCH,01,2,05,7,04,7,14,7,02,0,07,7,30,7,18,6,24,7,09,7,00,0,22,7*4C
GPSD,Y=?
$GPGGA,204224,5203.7576,N,00508.3123,E,1,08,,8.3,M,47.120,M,0.91,W*25
$GPRMC,204224,A,5203.7576,N,00508.3123,E,0.0000,0.000,130605,,*27
GPSD,O=1000 1118695344.00 0.005 52.062626 5.138538 8.27 ? ? 0.0000 0.000 0.010 ? ? ? 3
$PRWIZCH,01,2,05,7,04,7,14,7,02,0,07,7,30,7,18,6,24,7,09,7,00,0,22,7*4C
GPSD,Y=?
$GPGGA,204225,5203.7576,N,00508.3123,E,1,08,,8.3,M,47.120,M,0.91,W*24
$GPRMC,204225,A,5203.7576,N,00508.3123,E,0.0000,0.000,130605,,*26
GPSD,O=1000 1118695345.00 0.005 52.062626 5.138538 8.26 ? ? 0.0000 0.000 0.000 ? ? ? 3
$PRWIZCH,01,2,05,7,04,7,14,7,02,0,07,7,30,7,18,6,24,7,09,7,00,0,22,7*4C
GPSD,Y=?
$GPGGA,204226,5203.7576,N,00508.3123,E,1,08,,8.3,M,47.120,M,0.91,W*27
$GPRMC,204226,A,5203.7576,N,00508.3123,E,0.0000,0.000,130605,,*25
GPSD,O=1000 1118695346.00 0.005 52.062626 5.138538 8.29 ? ? 0.0000 0.000 0.030 ? ? ? 3
$PRWIZCH,01,2,05,7,04,7,14,7,02,0,07,7,30,7,18,6,24,7,09,7,00,0,22,7*4C
GPSD,Y=?
$GPGGA,204227,5203.7576,N,00508.3123,E,1,08,,8.3,M,47.120,M,0.91,W*26
$GPRMC,204227,A,5203.7576,N,00508.3123,E,0.0000,0.000,130605,,*24
GPSD,O=1000 1118695347.00 0.005 52.062626 5.138538 8.28 ? ? 0.0000 0.000 0.000 ? ? ? 3
$PRWIZCH,01,2,05,7,04,7,14,7,02,0,07,7,30,7,18,6,24,7,09,7,00,0,22,7*4C
GPSD,Y=?
$GPGGA,204228,5203.7576,N,00508.3123,E,1,08,,8.3,M,47.120,M,0.91,W*29
$GPRMC,204228,A,5203.7576,N,00508.3123,E,0.0000,0.000,130605,,*2B
GPSD,O=1000 1118695348.00 0.005 52.062626 5.138538 8.29 ? ? 0.0000 0.000 0.010 ? ? ? 3
$PRWIZCH,01,2,05,7,04,7,14,7,02,0,07,7,30,7,18,6,24,7,09,7,00,0,22,7*4C
GPSD,Y=?
$GPGGA,204229,5203.7576,N,00508.3123,E,1,08,,8.3,M,47.120,M,0.91,W*28
$GPRMC,204229,A,5203.7576,N,00508.3123,E,0.0000,0.000,130605,,*2A
GPSD,O=1000 1118695349.00 0.005 52.062626 5.138538 8.28 ? ? 0.0000 0.000 -0.010 ? ? ? 3
$PRWIZCH,01,2,05,7,04,7,14,7,02,0,07,7,30,7,18,6,24,7,09,7,00,0,22,7*4C
GPSD,Y=?
$GPGGA,204230,5203.7576,N,00508.3123,E,1,08,,8.3,M,47.120,M,0.91,W*20
$GPRMC,204230,A,5203.7576,N,00508.3123,E,0.0000,0.000,130605,,*22
GPSD,O=1000 1118695350.00 0.005 52.062626 5.138538 8.32 ? ? 0.0000 0.000 0.040 ? ? ? 3
$PRWIZCH,01,2,05,7,04,7,14,7,02,0,07,7,30,7,18,6,24,7,09,7,00,0,22,7*4C
GPSD,Y=?
$GPGGA,204231,5203.7576,N,00508.3123,E,1,08,,8.3,M,47.120,M,0.91,W*21
$GPRMC,204231,A,5203.7576,N,00508.3123,E,0.0000,0.000,130605,,*23
GPSD,O=1000 1118695351.00 0.005 52.062626 5.138538 8.33 ? ? 0.0000 0.000 0.030 ? ? ? 3
$PRWIZCH,01,2,05,7,04,7,14,7,02,0,07,7,30,7,18,6,24,7,09,7,00,0,22,7*4C
GPSD,Y=?
$GPGGA,204232,5203.7576,N,00508.3123,E,1,08,,8.3,M,47.120,M,0.91,W*22
$GPRMC,204232,A,5203.7576,N,00508.3123,E,0.0000,0.000,130605,,*20
GPSD,O=1000 1118695352.00 0.005 52.062626 5.138538 8.31 ? ? 0.0000 0.000 0.000 ? ? ? 3
$PRWIZCH,01,2,05,7,04,7,14,7,02,0,07,7,30,7,18,6,24,7,09,7,00,0,22,7*4C
GPSD,Y=?
$GPGGA,204233,5203.7576,N,00508.3123,E,1,08,,8.3,M,47.120,M,0.91,W*23
$GPRMC,204233,A,5203.7576,N,00508.3123,E,0.0000,0.000,130605,,*21
GPSD,O=1000 1118695353.00 0.005 52.062626 5.138538 8.27 ? ? 0.0000 0.000 -0.020 ? ? ? 3
$PRWIZCH,01,2,05,7,04,7,14,7,02,0,07,7,30,7,18,6,24,7,09,7,00,0,22,7*4C
GPSD,Y=?
$GPGGA,204234,5203.7576,N,00508.3123,E,1,08,,8.3,M,47.120,M,0.91,W*24
$GPRMC,204234,A,5203.7576,N,00508.3123,E,0.0000,0.000,130605,,*26
GPSD,O=1000 1118695354.00 0.005 52.062626 5.138538 8.29 ? ? 0.0000 0.000 0.020 ? ? ? 3
$PRWIZCH,01,2,05,7,04,7,14,7,02,0,07,7,30,7,18,6,24,7,09,7,00,0,22,7*4C
GPSD,Y=?
$GPGGA,204235,5203.7576,N,00508.3123,E,1,08,,8.3,M,47.120,M,0.91,W*25
$GPRMC,204235,A,5203.7576,N,00508.3123,E,0.0000,0.000,130605,,*27
GPSD,O=1000 1118695355.00 0.005 52.062626 5.138538 8.27 ? ? 0.0000 0.000 -0.010 ? ? ? 3
$PRWIZCH,01,2,05,7,04,7,14,7,02,0,07,7,30,7,18,6,24,7,09,7,00,0,22,7*4C
GPSD,Y=?
$GPGGA,204236,5203.7576,N,00508.3123,E,1,08,,8.3,M,47.120,M,0.91,W*26
$GPRMC,204236,A,5203.7576,N,00508.3123,E,0.0000,0.000,130605,,*24
GPSD,O=1000 1118695356.00 0.005 52.062626 5.138538 8.26 ? ? 0.0000 0.000 -0.010 ? ? ? 3
$PRWIZCH,01,2,05,7,04,7,14,7,02,0,07,7,30,7,18,6,24,7,09,7,00,0,22,7*4C
GPSD,Y=?
$GPGGA,204237,5203.7576,N,00508.3123,E,1,08,,8.3,M,47.120,M,0.91,W*27
$GPRMC,204237,A,5203.7576,N,00508.3123,E,0.0000,0.000,130605,,*25
GPSD,O=1000 1118695357.00 0.005 52.062626 5.138538 8.25 ? ? 0.0000 0.000 0.000 ? ? ? 3
$PRWIZCH,01,2,05,7,04,7,14,7,02,0,07,7,30,7,18,6,24,7,09,7,00,0,22,7*4C
GPSD,Y=?
$GPGGA,204238,5203.7576,N,00508.3123,E,1,08,,8.2,M,47.120,M,0.91,W*29
$GPRMC,204238,A,5203.7576,N,00508.3123,E,0.0000,0.000,130605,,*2A
GPSD,O=1000 1118695358.00 0.005 52.062626 5.138538 8.20 ? ? 0.0000 0.000 -0.030 ? ? ? 3
$PRWIZCH,01,2,05,7,04,7,14,7,02,0,07,7,30,7,18,6,24,7,09,7,00,0,22,7*4C
GPSD,Y=?
$GPGGA,204239,5203.7576,N,00508.3123,E,1,08,,8.2,M,47.120,M,0.91,W*28
$GPRMC,204239,A,5203.7576,N,00508.3123,E,0.0000,0.000,130605,,*2B
GPSD,O=1000 1118695359.00 0.005 52.062626 5.138538 8.18 ? ? 0.0000 0.000 -0.030 ? ? ? 3
$PRWIZCH,01,2,05,7,04,7,14,7,02,0,07,7,30,7,18,6,24,7,09,7,00,0,22,7*4C
GPSD,Y=?
$GPGGA,204240,5203.7576,N,00508.3123,E,1,08,,8.2,M,47.120,M,0.91,W*26
$GPRMC,204240,A,5203.7576,N,00508.3123,E,0.0000,0.000,130605,,*25
GPSD,O=1000 1118695360.00 0.005 52.062626 5.138538 8.19 ? ? 0.0000 0.000 -0.010 ? ? ? 3
$PRWIZCH,01,2,05,7,04,7,14,7,02,0,07,7,30,7,18,6,24,7,09,7,00,0,22,7*4C
GPSD,Y=?
