GPSD,W=1,R=1
$GPGGA,204220,5203.7576,N,00508.3123,E,3,08,,55.4,M,47.120,M0.91,W*30
$GPRMC,204220,A,5203.7576,N,00508.3123,E,0.0000,0.000,130605,,*23
GPSD,O=1000 1118695340.00 0.005 52.062626 5.138538   55.35  2.10  2.21   0.0000    0.000 -0.010             ?  0.56        ?
$PRWIZCH,01,2,05,7,04,7,14,7,02,0,07,7,30,7,18,6,24,7,09,7,00,0,22,7*4C
GPSD,Y=?
$GPGGA,204221,5203.7576,N,00508.3123,E,3,08,,55.4,M,47.120,M0.91,W*31
$GPRMC,204221,A,5203.7576,N,00508.3123,E,0.0000,0.000,130605,,*22
GPSD,O=1000 1118695341.00 0.005 52.062626 5.138538   55.35  2.10  2.21   0.0000    0.000  0.000             ?  0.56        ?
$PRWIZCH,01,2,05,7,04,7,14,7,02,0,07,7,30,7,18,6,24,7,09,7,00,0,22,7*4C
GPSD,Y=?
$GPGGA,204222,5203.7576,N,00508.3123,E,3,08,,55.3,M,47.120,M0.91,W*35
$GPRMC,204222,A,5203.7576,N,00508.3123,E,0.0000,0.000,130605,,*21
GPSD,O=1000 1118695342.00 0.005 52.062626 5.138538   55.32  2.10  2.21   0.0000    0.000 -0.020             ?  0.56        ?
$PRWIZCH,01,2,05,7,04,7,14,7,02,0,07,7,30,7,18,6,24,7,09,7,00,0,22,7*4C
GPSD,Y=?
$GPGGA,204223,5203.7576,N,00508.3123,E,3,08,,55.4,M,47.120,M0.91,W*33
$GPRMC,204223,A,5203.7576,N,00508.3123,E,0.0000,0.000,130605,,*20
GPSD,O=1000 1118695343.00 0.005 52.062626 5.138538   55.40  2.10  2.21   0.0000    0.000  0.050             ?  0.56        ?
$PRWIZCH,01,2,05,7,04,7,14,7,02,0,07,7,30,7,18,6,24,7,09,7,00,0,22,7*4C
GPSD,Y=?
$GPGGA,204224,5203.7576,N,00508.3123,E,3,08,,55.4,M,47.120,M0.91,W*34
$GPRMC,204224,A,5203.7576,N,00508.3123,E,0.0000,0.000,130605,,*27
GPSD,O=1000 1118695344.00 0.005 52.062626 5.138538   55.39  2.10  2.21   0.0000    0.000  0.010             ?  0.56        ?
$PRWIZCH,01,2,05,7,04,7,14,7,02,0,07,7,30,7,18,6,24,7,09,7,00,0,22,7*4C
GPSD,Y=?
$GPGGA,204225,5203.7576,N,00508.3123,E,3,08,,55.4,M,47.120,M0.91,W*35
$GPRMC,204225,A,5203.7576,N,00508.3123,E,0.0000,0.000,130605,,*26
GPSD,O=1000 1118695345.00 0.005 52.062626 5.138538   55.38  2.10  2.21   0.0000    0.000  0.000             ?  0.56        ?
$PRWIZCH,01,2,05,7,04,7,14,7,02,0,07,7,30,7,18,6,24,7,09,7,00,0,22,7*4C
GPSD,Y=?
$GPGGA,204226,5203.7576,N,00508.3123,E,3,08,,55.4,M,47.120,M0.91,W*36
$GPRMC,204226,A,5203.7576,N,00508.3123,E,0.0000,0.000,130605,,*25
GPSD,O=1000 1118695346.00 0.005 52.062626 5.138538   55.41  2.10  2.21   0.0000    0.000  0.030             ?  0.56        ?
$PRWIZCH,01,2,05,7,04,7,14,7,02,0,07,7,30,7,18,6,24,7,09,7,00,0,22,7*4C
GPSD,Y=?
$GPGGA,204227,5203.7576,N,00508.3123,E,3,08,,55.4,M,47.120,M0.91,W*37
$GPRMC,204227,A,5203.7576,N,00508.3123,E,0.0000,0.000,130605,,*24
GPSD,O=1000 1118695347.00 0.005 52.062626 5.138538   55.40  2.10  2.21   0.0000    0.000  0.000             ?  0.56        ?
$PRWIZCH,01,2,05,7,04,7,14,7,02,0,07,7,30,7,18,6,24,7,09,7,00,0,22,7*4C
GPSD,Y=?
$GPGGA,204228,5203.7576,N,00508.3123,E,3,08,,55.4,M,47.120,M0.91,W*38
$GPRMC,204228,A,5203.7576,N,00508.3123,E,0.0000,0.000,130605,,*2B
GPSD,O=1000 1118695348.00 0.005 52.062626 5.138538   55.41  2.10  2.21   0.0000    0.000  0.010             ?  0.56        ?
$PRWIZCH,01,2,05,7,04,7,14,7,02,0,07,7,30,7,18,6,24,7,09,7,00,0,22,7*4C
GPSD,Y=?
$GPGGA,204229,5203.7576,N,00508.3123,E,3,08,,55.4,M,47.120,M0.91,W*39
$GPRMC,204229,A,5203.7576,N,00508.3123,E,0.0000,0.000,130605,,*2A
GPSD,O=1000 1118695349.00 0.005 52.062626 5.138538   55.40  2.10  2.21   0.0000    0.000 -0.010             ?  0.56        ?
$PRWIZCH,01,2,05,7,04,7,14,7,02,0,07,7,30,7,18,6,24,7,09,7,00,0,22,7*4C
GPSD,Y=?
$GPGGA,204230,5203.7576,N,00508.3123,E,3,08,,55.4,M,47.120,M0.91,W*31
$GPRMC,204230,A,5203.7576,N,00508.3123,E,0.0000,0.000,130605,,*22
GPSD,O=1000 1118695350.00 0.005 52.062626 5.138538   55.44  2.10  2.21   0.0000    0.000  0.040             ?  0.56        ?
$PRWIZCH,01,2,05,7,04,7,14,7,02,0,07,7,30,7,18,6,24,7,09,7,00,0,22,7*4C
GPSD,Y=?
$GPGGA,204231,5203.7576,N,00508.3123,E,3,08,,55.5,M,47.120,M0.91,W*31
$GPRMC,204231,A,5203.7576,N,00508.3123,E,0.0000,0.000,130605,,*23
GPSD,O=1000 1118695351.00 0.005 52.062626 5.138538   55.45  2.10  2.21   0.0000    0.000  0.030             ?  0.56        ?
$PRWIZCH,01,2,05,7,04,7,14,7,02,0,07,7,30,7,18,6,24,7,09,7,00,0,22,7*4C
GPSD,Y=?
$GPGGA,204232,5203.7576,N,00508.3123,E,3,08,,55.4,M,47.120,M0.91,W*33
$GPRMC,204232,A,5203.7576,N,00508.3123,E,0.0000,0.000,130605,,*20
GPSD,O=1000 1118695352.00 0.005 52.062626 5.138538   55.43  2.10  2.21   0.0000    0.000  0.000             ?  0.56        ?
$PRWIZCH,01,2,05,7,04,7,14,7,02,0,07,7,30,7,18,6,24,7,09,7,00,0,22,7*4C
GPSD,Y=?
$GPGGA,204233,5203.7576,N,00508.3123,E,3,08,,55.4,M,47.120,M0.91,W*32
$GPRMC,204233,A,5203.7576,N,00508.3123,E,0.0000,0.000,130605,,*21
GPSD,O=1000 1118695353.00 0.005 52.062626 5.138538   55.39  2.10  2.21   0.0000    0.000 -0.020             ?  0.56        ?
$PRWIZCH,01,2,05,7,04,7,14,7,02,0,07,7,30,7,18,6,24,7,09,7,00,0,22,7*4C
GPSD,Y=?
$GPGGA,204234,5203.7576,N,00508.3123,E,3,08,,55.4,M,47.120,M0.91,W*35
$GPRMC,204234,A,5203.7576,N,00508.3123,E,0.0000,0.000,130605,,*26
GPSD,O=1000 1118695354.00 0.005 52.062626 5.138538   55.41  2.10  2.21   0.0000    0.000  0.020             ?  0.56        ?
$PRWIZCH,01,2,05,7,04,7,14,7,02,0,07,7,30,7,18,6,24,7,09,7,00,0,22,7*4C
GPSD,Y=?
$GPGGA,204235,5203.7576,N,00508.3123,E,3,08,,55.4,M,47.120,M0.91,W*34
$GPRMC,204235,A,5203.7576,N,00508.3123,E,0.0000,0.000,130605,,*27
GPSD,O=1000 1118695355.00 0.005 52.062626 5.138538   55.39  2.10  2.21   0.0000    0.000 -0.010             ?  0.56        ?
$PRWIZCH,01,2,05,7,04,7,14,7,02,0,07,7,30,7,18,6,24,7,09,7,00,0,22,7*4C
GPSD,Y=?
$GPGGA,204236,5203.7576,N,00508.3123,E,3,08,,55.4,M,47.120,M0.91,W*37
$GPRMC,204236,A,5203.7576,N,00508.3123,E,0.0000,0.000,130605,,*24
GPSD,O=1000 1118695356.00 0.005 52.062626 5.138538   55.38  2.10  2.21   0.0000    0.000 -0.010             ?  0.56        ?
$PRWIZCH,01,2,05,7,04,7,14,7,02,0,07,7,30,7,18,6,24,7,09,7,00,0,22,7*4C
GPSD,Y=?
$GPGGA,204237,5203.7576,N,00508.3123,E,3,08,,55.4,M,47.120,M0.91,W*36
$GPRMC,204237,A,5203.7576,N,00508.3123,E,0.0000,0.000,130605,,*25
GPSD,O=1000 1118695357.00 0.005 52.062626 5.138538   55.37  2.10  2.21   0.0000    0.000  0.000             ?  0.56        ?
$PRWIZCH,01,2,05,7,04,7,14,7,02,0,07,7,30,7,18,6,24,7,09,7,00,0,22,7*4C
GPSD,Y=?
$GPGGA,204238,5203.7576,N,00508.3123,E,3,08,,55.3,M,47.120,M0.91,W*3E
$GPRMC,204238,A,5203.7576,N,00508.3123,E,0.0000,0.000,130605,,*2A
GPSD,O=1000 1118695358.00 0.005 52.062626 5.138538   55.32  2.10  2.21   0.0000    0.000 -0.030             ?  0.56        ?
$PRWIZCH,01,2,05,7,04,7,14,7,02,0,07,7,30,7,18,6,24,7,09,7,00,0,22,7*4C
GPSD,Y=?
$GPGGA,204239,5203.7576,N,00508.3123,E,3,08,,55.3,M,47.120,M0.91,W*3F
$GPRMC,204239,A,5203.7576,N,00508.3123,E,0.0000,0.000,130605,,*2B
GPSD,O=1000 1118695359.00 0.005 52.062626 5.138538   55.30  2.10  2.21   0.0000    0.000 -0.030             ?  0.56        ?
$PRWIZCH,01,2,05,7,04,7,14,7,02,0,07,7,30,7,18,6,24,7,09,7,00,0,22,7*4C
GPSD,Y=?
$GPGGA,204240,5203.7576,N,00508.3123,E,3,08,,55.3,M,47.120,M0.91,W*31
$GPRMC,204240,A,5203.7576,N,00508.3123,E,0.0000,0.000,130605,,*25
GPSD,O=1000 1118695360.00 0.005 52.062626 5.138538   55.31  2.10  2.21   0.0000    0.000 -0.010             ?  0.56        ?
