{"class":"VERSION","release":"3.12~dev","rev":"release-3.11-314-gcdcee16","proto_major":3,"proto_minor":10}
{"class":"DEVICES","devices":[{"class":"DEVICE","path":"nmea2000://vcan0","driver":"NMEA2000","activated":"2015-01-31T08:35:54.884Z"}]}
{"class":"WATCH","enable":true,"json":true,"nmea":true,"raw":0,"scaled":true,"timing":false,"split24":false,"pps":false}
$GPRMC,000000,V,3755.3232,N,02301.0145,E,0.0000,0.000,000000,,*3E
$GPGSA,A,0,,,,,,,,,,,,,0.0,0.0,0.0*31
{"class":"TPV","device":"nmea2000://vcan0","mode":0}
$GPGSA,A,0,,,,,,,,,,,,,0.0,0.0,0.0*31
{"class":"TPV","device":"nmea2000://vcan0","mode":0}
$GPRMC,000000,V,3755.3232,N,02301.0145,E,0.0583,0.000,000000,,*30
$GPGSA,A,0,,,,,,,,,,,,,0.0,0.0,0.0*31
{"class":"TPV","device":"nmea2000://vcan0","mode":0}
$GPRMC,000000,V,3755.3232,N,02301.0145,E,0.0583,0.000,000000,,*30
$GPGSA,A,0,,,,,,,,,,,,,0.0,0.0,0.0*31
{"class":"TPV","device":"nmea2000://vcan0","mode":0}
$GPRMC,000000,V,3755.3232,N,02301.0145,E,0.0583,0.000,000000,,*30
$GPGSA,A,0,,,,,,,,,,,,,0.0,0.0,0.0*31
{"class":"TPV","device":"nmea2000://vcan0","mode":0}
$GPGSA,A,0,,,,,,,,,,,,,0.0,0.0,0.0*31
{"class":"TPV","device":"nmea2000://vcan0","mode":0}
$GPRMC,000000,V,3755.3232,N,02301.0145,E,0.0583,0.000,000000,,*30
$GPGSA,A,0,,,,,,,,,,,,,0.0,0.0,0.0*31
{"class":"TPV","device":"nmea2000://vcan0","mode":0}
$GPGSA,A,0,,,,,,,,,,,,,0.0,0.0,0.0*31
{"class":"TPV","device":"nmea2000://vcan0","mode":0,"time":"2014-09-14T16:53:04.000Z","ept":0.005}
$GPGSA,A,3,,,,,,,,,,,,,0.0,0.7,1.1*35
{"class":"TPV","device":"nmea2000://vcan0","mode":3,"time":"2014-09-14T16:53:04.000Z","ept":0.005,"lat":37.922053400,"lon":23.016909000,"epv":24.150,"track":0.0000,"speed":0.030}
$GPGSV,3,1,12,11,77,292,48,32,71,311,48,14,33,048,45,22,14,066,45*79
$GPGSV,3,2,12,01,53,319,50,27,16,171,43,23,10,207,43,04,30,309,44*7F
$GPGSV,3,3,12,31,15,115,45,28,06,293,35,19,43,188,46,20,30,269,44*7A
{"class":"SKY","device":"nmea2000://vcan0","time":"1970-01-01T00:00:00.000Z","xdop":0.49,"ydop":0.55,"vdop":1.05,"tdop":1.00,"hdop":0.73,"gdop":1.42,"pdop":1.29,"satellites":[{"PRN":11,"el":77,"az":292,"ss":48,"used":true},{"PRN":32,"el":71,"az":311,"ss":48,"used":true},{"PRN":14,"el":33,"az":48,"ss":45,"used":true},{"PRN":22,"el":14,"az":66,"ss":45,"used":true},{"PRN":1,"el":53,"az":319,"ss":50,"used":true},{"PRN":27,"el":16,"az":171,"ss":43,"used":true},{"PRN":23,"el":10,"az":207,"ss":43,"used":true},{"PRN":4,"el":30,"az":309,"ss":44,"used":true},{"PRN":31,"el":15,"az":115,"ss":45,"used":true},{"PRN":28,"el":6,"az":293,"ss":35,"used":true},{"PRN":19,"el":43,"az":188,"ss":46,"used":true},{"PRN":20,"el":30,"az":269,"ss":44,"used":true}]}
$GPZDA,165304.00,14,09,2014,00,00*68
$GPGGA,165304,3755.3232,N,02301.0145,E,1,12,0.73,7.98,M,35.000,M,,*44
$GPRMC,165304,A,3755.3232,N,02301.0145,E,0.0583,0.000,140914,,*2B
$GPGSA,A,3,11,32,14,22,1,27,23,4,31,28,19,20,1.3,0.7,1.1*30
{"class":"TPV","device":"nmea2000://vcan0","mode":3,"time":"2014-09-14T16:53:04.000Z","ept":0.005,"lat":37.922053451,"lon":23.016909028,"alt":7.977,"epx":7.286,"epy":8.304,"epv":24.150,"track":0.0000,"speed":0.030,"climb":0.000}
$GPGGA,165304,3755.3232,N,02301.0145,E,1,12,0.73,7.98,M,35.000,M,,*44
$GPRMC,165304,A,3755.3232,N,02301.0145,E,0.0583,0.000,140914,,*2B
$GPGSA,A,3,11,32,14,22,1,27,23,4,31,28,19,20,1.3,0.7,1.1*30
$GPGBS,165304,7.29,M,8.30,M,24.15,M*0E
{"class":"TPV","device":"nmea2000://vcan0","mode":3,"time":"2014-09-14T16:53:04.000Z","ept":0.005,"lat":37.922053400,"lon":23.016909000,"alt":7.977,"epx":7.286,"epy":8.304,"epv":24.150,"track":0.0000,"speed":0.030,"climb":0.000}
$GPGSA,A,3,11,32,14,22,1,27,23,4,31,28,19,20,1.3,0.7,1.1*30
{"class":"TPV","device":"nmea2000://vcan0","mode":3,"time":"2014-09-14T16:53:04.000Z","ept":0.005,"lat":37.922053400,"lon":23.016909000,"alt":7.977,"epx":7.286,"epy":8.304,"epv":24.150,"track":0.0000,"speed":0.060,"climb":0.000}
$GPGGA,165304,3755.3232,N,02301.0145,E,1,12,0.73,7.98,M,35.000,M,,*44
$GPRMC,165304,A,3755.3232,N,02301.0145,E,0.1166,0.000,140914,,*25
$GPGSA,A,3,11,32,14,22,1,27,23,4,31,28,19,20,1.3,0.7,1.1*30
$GPGBS,165304,7.29,M,8.30,M,24.15,M*0E
{"class":"TPV","device":"nmea2000://vcan0","mode":3,"time":"2014-09-14T16:53:04.000Z","ept":0.005,"lat":37.922053400,"lon":23.016909000,"alt":7.977,"epx":7.286,"epy":8.304,"epv":24.150,"track":0.0000,"speed":0.060,"climb":0.000}
$GPGGA,165304,3755.3232,N,02301.0145,E,1,12,0.73,7.98,M,35.000,M,,*44
$GPRMC,165304,A,3755.3232,N,02301.0145,E,0.1166,0.000,140914,,*25
$GPGSA,A,3,11,32,14,22,1,27,23,4,31,28,19,20,1.3,0.7,1.1*30
{"class":"TPV","device":"nmea2000://vcan0","mode":3,"time":"2014-09-14T16:53:04.000Z","ept":0.005,"lat":37.922053400,"lon":23.016909000,"alt":7.977,"epx":7.286,"epy":8.304,"epv":24.150,"track":0.0000,"speed":0.060,"climb":0.000}
$GPGGA,165304,3755.3232,N,02301.0145,E,1,12,0.73,7.98,M,35.000,M,,*44
$GPRMC,165304,A,3755.3232,N,02301.0145,E,0.1166,0.000,140914,,*25
$GPGSA,A,3,11,32,14,22,1,27,23,4,31,28,19,20,1.3,0.7,1.1*30
$GPGBS,165304,7.29,M,8.30,M,24.15,M*0E
{"class":"TPV","device":"nmea2000://vcan0","mode":3,"time":"2014-09-14T16:53:04.000Z","ept":0.005,"lat":37.922053400,"lon":23.016909000,"alt":7.977,"epx":7.286,"epy":8.304,"epv":24.150,"track":0.0000,"speed":0.060,"climb":0.000}
{"class":"DEVICE","path":"nmea2000://vcan0:176","activated":1422693357.713277}
$GPGSA,A,3,11,32,14,22,1,27,23,4,31,28,19,20,1.3,0.7,1.1*30
{"class":"TPV","device":"nmea2000://vcan0","mode":3,"time":"2014-09-14T16:53:04.000Z","ept":0.005,"lat":37.922053400,"lon":23.016909000,"alt":7.977,"epx":7.286,"epy":8.304,"epv":24.150,"track":0.0000,"speed":0.060,"climb":0.000}
$GPGGA,165304,3755.3232,N,02301.0145,E,1,12,0.73,7.98,M,35.000,M,,*44
$GPRMC,165304,A,3755.3232,N,02301.0145,E,0.1166,0.000,140914,,*25
$GPGSA,A,3,11,32,14,22,1,27,23,4,31,28,19,20,1.3,0.7,1.1*30
$GPGBS,165304,7.29,M,8.30,M,24.15,M*0E
{"class":"TPV","device":"nmea2000://vcan0","mode":3,"time":"2014-09-14T16:53:04.000Z","ept":0.005,"lat":37.922053400,"lon":23.016909000,"alt":7.977,"epx":7.286,"epy":8.304,"epv":24.150,"track":0.0000,"speed":0.060,"climb":0.000}
$GPGGA,165304,3755.3232,N,02301.0145,E,1,12,0.73,7.98,M,35.000,M,,*44
$GPRMC,165304,A,3755.3232,N,02301.0145,E,0.1166,0.000,140914,,*25
$GPGSA,A,3,11,32,14,22,1,27,23,4,31,28,19,20,1.3,0.7,1.1*30
{"class":"TPV","device":"nmea2000://vcan0","mode":3,"time":"2014-09-14T16:53:04.000Z","ept":0.005,"lat":37.922053400,"lon":23.016909000,"alt":7.977,"epx":7.286,"epy":8.304,"epv":24.150,"track":0.0000,"speed":0.060,"climb":0.000}
$GPGSA,A,3,11,32,14,22,1,27,23,4,31,28,19,20,1.3,0.7,1.1*30
$GPGBS,165304,7.29,M,8.30,M,24.15,M*0E
{"class":"TPV","device":"nmea2000://vcan0","mode":3,"time":"2014-09-14T16:53:04.000Z","ept":0.005,"lat":37.922053400,"lon":23.016909000,"alt":7.977,"epx":7.286,"epy":8.304,"epv":24.150,"track":0.0000,"speed":0.060,"climb":0.000}
$GPGGA,165304,3755.3232,N,02301.0145,E,1,12,0.73,7.98,M,35.000,M,,*44
$GPRMC,165304,A,3755.3232,N,02301.0145,E,0.1166,0.000,140914,,*25
$GPGSA,A,3,11,32,14,22,1,27,23,4,31,28,19,20,1.3,0.7,1.1*30
{"class":"TPV","device":"nmea2000://vcan0","mode":3,"time":"2014-09-14T16:53:04.000Z","ept":0.005,"lat":37.922053400,"lon":23.016909000,"alt":7.977,"epx":7.286,"epy":8.304,"epv":24.150,"track":0.0000,"speed":0.060,"climb":0.000}
{"class":"DEVICE","path":"nmea2000://vcan0:1","activated":1422693358.015235}
$GPGGA,165304,3755.3232,N,02301.0145,E,1,12,0.73,7.98,M,35.000,M,,*44
$GPRMC,165304,A,3755.3232,N,02301.0145,E,0.1166,0.000,140914,,*25
$GPGSA,A,3,11,32,14,22,1,27,23,4,31,28,19,20,1.3,0.7,1.1*30
$GPGBS,165304,7.29,M,8.30,M,24.15,M*0E
{"class":"TPV","device":"nmea2000://vcan0","mode":3,"time":"2014-09-14T16:53:04.000Z","ept":0.005,"lat":37.922053400,"lon":23.016909000,"alt":7.977,"epx":7.286,"epy":8.304,"epv":24.150,"track":0.0000,"speed":0.060,"climb":0.000}
$GPGGA,165304,3755.3232,N,02301.0145,E,1,12,0.73,7.98,M,35.000,M,,*44
$GPRMC,165304,A,3755.3232,N,02301.0145,E,0.1166,0.000,140914,,*25
$GPGSA,A,3,11,32,14,22,1,27,23,4,31,28,19,20,1.3,0.7,1.1*30
{"class":"TPV","device":"nmea2000://vcan0","mode":3,"time":"2014-09-14T16:53:04.000Z","ept":0.005,"lat":37.922053400,"lon":23.016909000,"alt":7.977,"epx":7.286,"epy":8.304,"epv":24.150,"track":0.0000,"speed":0.060,"climb":0.000}
$GPGSA,A,3,11,32,14,22,1,27,23,4,31,28,19,20,1.3,0.7,1.1*30
$GPGBS,165304,7.29,M,8.30,M,24.15,M*0E
{"class":"TPV","device":"nmea2000://vcan0","mode":3,"time":"2014-09-14T16:53:04.000Z","ept":0.005,"lat":37.922053400,"lon":23.016909000,"alt":7.977,"epx":7.286,"epy":8.304,"epv":24.150,"track":0.0000,"speed":0.060,"climb":0.000}
$GPGGA,165304,3755.3232,N,02301.0145,E,1,12,0.73,7.98,M,35.000,M,,*44
$GPRMC,165304,A,3755.3232,N,02301.0145,E,0.1166,0.000,140914,,*25
$GPGSA,A,3,11,32,14,22,1,27,23,4,31,28,19,20,1.3,0.7,1.1*30
{"class":"TPV","device":"nmea2000://vcan0","mode":3,"time":"2014-09-14T16:53:04.000Z","ept":0.005,"lat":37.922053400,"lon":23.016909000,"alt":7.977,"epx":7.286,"epy":8.304,"epv":24.150,"track":0.0000,"speed":0.060,"climb":0.000}
$GPZDA,165305.00,14,09,2014,00,00*69
$GPGSA,A,3,11,32,14,22,1,27,23,4,31,28,19,20,1.3,0.7,1.1*30
$GPGBS,165305,7.29,M,8.30,M,24.15,M*0F
{"class":"TPV","device":"nmea2000://vcan0","mode":3,"time":"2014-09-14T16:53:05.000Z","ept":0.005,"lat":37.922053400,"lon":23.016909000,"alt":7.977,"epx":7.286,"epy":8.304,"epv":24.150,"track":0.0000,"speed":0.060,"climb":0.000,"eps":16.61,"epc":48.30}
$GPGSA,A,3,11,32,14,22,1,27,23,4,31,28,19,20,1.3,0.7,1.1*30
{"class":"TPV","device":"nmea2000://vcan0","mode":3,"time":"2014-09-14T16:53:05.000Z","ept":0.005,"lat":37.922053400,"lon":23.016909000,"alt":7.977,"epx":7.286,"epy":8.304,"epv":24.150,"track":0.0000,"speed":0.060,"climb":0.000,"eps":16.61,"epc":48.30}
!AIVDM,1,1,,B,B3R8SG0000JEl75K;v4r;wR5h006,0*7E
{"class":"AIS","device":"nmea2000://vcan0:1","type":18,"repeat":0,"mmsi":237118300,"scaled":true,"reserved":0,"speed":0.0,"accuracy":false,"lon":23.0170,"lat":37.9221,"course":93.0,"heading":511,"second":4,"regional":0,"cs":true,"display":false,"dsc":true,"band":true,"msg22":true,"raim":false,"radio":6}
$GPGSV,3,1,12,11,77,292,47,32,71,311,48,14,33,048,46,22,14,066,45*75
$GPGSV,3,2,12,01,53,319,48,27,16,171,41,23,10,207,43,04,30,309,43*73
$GPGSV,3,3,12,31,15,115,44,28,06,293,35,19,42,188,46,20,30,269,47*79
{"class":"SKY","device":"nmea2000://vcan0","time":"1970-01-01T00:00:00.000Z","xdop":0.49,"ydop":0.55,"vdop":1.05,"tdop":1.00,"hdop":0.73,"gdop":1.42,"pdop":1.28,"satellites":[{"PRN":11,"el":77,"az":292,"ss":47,"used":true},{"PRN":32,"el":71,"az":311,"ss":48,"used":true},{"PRN":14,"el":33,"az":48,"ss":46,"used":true},{"PRN":22,"el":14,"az":66,"ss":45,"used":true},{"PRN":1,"el":53,"az":319,"ss":48,"used":true},{"PRN":27,"el":16,"az":171,"ss":41,"used":true},{"PRN":23,"el":10,"az":207,"ss":43,"used":true},{"PRN":4,"el":30,"az":309,"ss":43,"used":true},{"PRN":31,"el":15,"az":115,"ss":44,"used":true},{"PRN":28,"el":6,"az":293,"ss":35,"used":true},{"PRN":19,"el":42,"az":188,"ss":46,"used":true},{"PRN":20,"el":30,"az":269,"ss":47,"used":true}]}
$GPZDA,165305.00,14,09,2014,00,00*69
$GPGGA,165305,3755.3232,N,02301.0145,E,1,12,0.73,7.98,M,35.000,M,,*45
$GPRMC,165305,A,3755.3232,N,02301.0145,E,0.1166,0.000,140914,,*24
$GPGSA,A,3,11,32,14,22,1,27,23,4,31,28,19,20,1.3,0.7,1.1*30
{"class":"TPV","device":"nmea2000://vcan0","mode":3,"time":"2014-09-14T16:53:05.000Z","ept":0.005,"lat":37.922053451,"lon":23.016909028,"alt":7.977,"epx":7.286,"epy":8.304,"epv":24.150,"track":0.0000,"speed":0.060,"climb":0.000,"eps":16.61,"epc":48.30}
$GPGGA,165305,3755.3232,N,02301.0145,E,1,12,0.73,7.98,M,35.000,M,,*45
$GPRMC,165305,A,3755.3232,N,02301.0145,E,0.1166,0.000,140914,,*24
$GPGSA,A,3,11,32,14,22,1,27,23,4,31,28,19,20,1.3,0.7,1.1*30
$GPGBS,165305,7.29,M,8.30,M,24.15,M*0F
{"class":"TPV","device":"nmea2000://vcan0","mode":3,"time":"2014-09-14T16:53:05.000Z","ept":0.005,"lat":37.922053400,"lon":23.016909000,"alt":7.977,"epx":7.286,"epy":8.304,"epv":24.150,"track":0.0000,"speed":0.060,"climb":0.000,"eps":16.61,"epc":48.30}
$GPGSA,A,3,11,32,14,22,1,27,23,4,31,28,19,20,1.3,0.7,1.1*30
{"class":"TPV","device":"nmea2000://vcan0","mode":3,"time":"2014-09-14T16:53:05.000Z","ept":0.005,"lat":37.922053400,"lon":23.016909000,"alt":7.977,"epx":7.286,"epy":8.304,"epv":24.150,"track":0.0000,"speed":0.030,"climb":0.000,"eps":16.61,"epc":48.30}
$GPGGA,165305,3755.3232,N,02301.0145,E,1,12,0.73,7.98,M,35.000,M,,*45
$GPRMC,165305,A,3755.3232,N,02301.0145,E,0.0583,0.000,140914,,*2A
$GPGSA,A,3,11,32,14,22,1,27,23,4,31,28,19,20,1.3,0.7,1.1*30
$GPGBS,165305,7.29,M,8.30,M,24.15,M*0F
{"class":"TPV","device":"nmea2000://vcan0","mode":3,"time":"2014-09-14T16:53:05.000Z","ept":0.005,"lat":37.922053400,"lon":23.016909000,"alt":7.977,"epx":7.286,"epy":8.304,"epv":24.150,"track":0.0000,"speed":0.030,"climb":0.000,"eps":16.61,"epc":48.30}
$GPGGA,165305,3755.3232,N,02301.0145,E,1,12,0.73,7.98,M,35.000,M,,*45
$GPRMC,165305,A,3755.3232,N,02301.0145,E,0.0583,0.000,140914,,*2A
$GPGSA,A,3,11,32,14,22,1,27,23,4,31,28,19,20,1.3,0.7,1.1*30
{"class":"TPV","device":"nmea2000://vcan0","mode":3,"time":"2014-09-14T16:53:05.000Z","ept":0.005,"lat":37.922053400,"lon":23.016909000,"alt":7.977,"epx":7.286,"epy":8.304,"epv":24.150,"track":0.0000,"speed":0.030,"climb":0.000,"eps":16.61,"epc":48.30}
$GPGGA,165305,3755.3232,N,02301.0145,E,1,12,0.73,7.98,M,35.000,M,,*45
$GPRMC,165305,A,3755.3232,N,02301.0145,E,0.0583,0.000,140914,,*2A
$GPGSA,A,3,11,32,14,22,1,27,23,4,31,28,19,20,1.3,0.7,1.1*30
$GPGBS,165305,7.29,M,8.30,M,24.15,M*0F
{"class":"TPV","device":"nmea2000://vcan0","mode":3,"time":"2014-09-14T16:53:05.000Z","ept":0.005,"lat":37.922053400,"lon":23.016909000,"alt":7.977,"epx":7.286,"epy":8.304,"epv":24.150,"track":0.0000,"speed":0.030,"climb":0.000,"eps":16.61,"epc":48.30}
$GPGSA,A,3,11,32,14,22,1,27,23,4,31,28,19,20,1.3,0.7,1.1*30
{"class":"TPV","device":"nmea2000://vcan0","mode":3,"time":"2014-09-14T16:53:05.000Z","ept":0.005,"lat":37.922053400,"lon":23.016909000,"alt":7.977,"epx":7.286,"epy":8.304,"epv":24.150,"track":0.0000,"speed":0.030,"climb":0.000,"eps":16.61,"epc":48.30}
$GPGGA,165305,3755.3232,N,02301.0145,E,1,12,0.73,7.98,M,35.000,M,,*45
$GPRMC,165305,A,3755.3232,N,02301.0145,E,0.0583,0.000,140914,,*2A
$GPGSA,A,3,11,32,14,22,1,27,23,4,31,28,19,20,1.3,0.7,1.1*30
$GPGBS,165305,7.29,M,8.30,M,24.15,M*0F
{"class":"TPV","device":"nmea2000://vcan0","mode":3,"time":"2014-09-14T16:53:05.000Z","ept":0.005,"lat":37.922053400,"lon":23.016909000,"alt":7.977,"epx":7.286,"epy":8.304,"epv":24.150,"track":0.0000,"speed":0.030,"climb":0.000,"eps":16.61,"epc":48.30}
$GPGGA,165305,3755.3232,N,02301.0145,E,1,12,0.73,7.98,M,35.000,M,,*45
$GPRMC,165305,A,3755.3232,N,02301.0145,E,0.0583,0.000,140914,,*2A
$GPGSA,A,3,11,32,14,22,1,27,23,4,31,28,19,20,1.3,0.7,1.1*30
{"class":"TPV","device":"nmea2000://vcan0","mode":3,"time":"2014-09-14T16:53:05.000Z","ept":0.005,"lat":37.922053400,"lon":23.016909000,"alt":7.977,"epx":7.286,"epy":8.304,"epv":24.150,"track":0.0000,"speed":0.030,"climb":0.000,"eps":16.61,"epc":48.30}
{"class":"DEVICE","path":"nmea2000://vcan0:17","activated":1422693358.958313}
$GPGSA,A,3,11,32,14,22,1,27,23,4,31,28,19,20,1.3,0.7,1.1*30
$GPGBS,165305,7.29,M,8.30,M,24.15,M*0F
{"class":"TPV","device":"nmea2000://vcan0","mode":3,"time":"2014-09-14T16:53:05.000Z","ept":0.005,"lat":37.922053400,"lon":23.016909000,"alt":7.977,"epx":7.286,"epy":8.304,"epv":24.150,"track":0.0000,"speed":0.030,"climb":0.000,"eps":16.61,"epc":48.30}
$GPGGA,165305,3755.3232,N,02301.0145,E,1,12,0.73,7.98,M,35.000,M,,*45
$GPRMC,165305,A,3755.3232,N,02301.0145,E,0.0583,0.000,140914,,*2A
$GPGSA,A,3,11,32,14,22,1,27,23,4,31,28,19,20,1.3,0.7,1.1*30
{"class":"TPV","device":"nmea2000://vcan0","mode":3,"time":"2014-09-14T16:53:05.000Z","ept":0.005,"lat":37.922053400,"lon":23.016909000,"alt":7.977,"epx":7.286,"epy":8.304,"epv":24.150,"track":0.0000,"speed":0.030,"climb":0.000,"eps":16.61,"epc":48.30}
!AIVDM,1,1,,A,13U9mB001M1``vnEgc6c`q46083K,0*45
{"class":"AIS","device":"nmea2000://vcan0:1","type":1,"repeat":0,"mmsi":240285000,"scaled":true,"status":0,"status_text":"Under way using engine","turn":0,"speed":9.3,"accuracy":false,"lon":22.8590,"lat":38.0020,"course":297.9,"heading":290,"second":3,"maneuver":0,"raim":false,"radio":32987}
$GPGGA,165305,3755.3232,N,02301.0145,E,1,12,0.73,7.98,M,35.000,M,,*45
$GPRMC,165305,A,3755.3232,N,02301.0145,E,0.0583,0.000,140914,,*2A
$GPGSA,A,3,11,32,14,22,1,27,23,4,31,28,19,20,1.3,0.7,1.1*30
$GPGBS,165305,7.29,M,8.30,M,24.15,M*0F
{"class":"TPV","device":"nmea2000://vcan0","mode":3,"time":"2014-09-14T16:53:05.000Z","ept":0.005,"lat":37.922053400,"lon":23.016909000,"alt":7.977,"epx":7.286,"epy":8.304,"epv":24.150,"track":0.0000,"speed":0.030,"climb":0.000,"eps":16.61,"epc":48.30}
$GPGGA,165305,3755.3232,N,02301.0145,E,1,12,0.73,7.98,M,35.000,M,,*45
$GPRMC,165305,A,3755.3232,N,02301.0145,E,0.0583,0.000,140914,,*2A
$GPGSA,A,3,11,32,14,22,1,27,23,4,31,28,19,20,1.3,0.7,1.1*30
{"class":"TPV","device":"nmea2000://vcan0","mode":3,"time":"2014-09-14T16:53:05.000Z","ept":0.005,"lat":37.922053400,"lon":23.016909000,"alt":7.977,"epx":7.286,"epy":8.304,"epv":24.150,"track":0.0000,"speed":0.030,"climb":0.000,"eps":16.61,"epc":48.30}
$GPGSA,A,3,11,32,14,22,1,27,23,4,31,28,19,20,1.3,0.7,1.1*30
$GPGBS,165305,7.29,M,8.30,M,24.15,M*0F
{"class":"TPV","device":"nmea2000://vcan0","mode":3,"time":"2014-09-14T16:53:05.000Z","ept":0.005,"lat":37.922053400,"lon":23.016909000,"alt":7.977,"epx":7.286,"epy":8.304,"epv":24.150,"track":0.0000,"speed":0.030,"climb":0.000,"eps":16.61,"epc":48.30}
$GPGGA,165305,3755.3232,N,02301.0145,E,1,12,0.73,7.98,M,35.000,M,,*45
$GPRMC,165305,A,3755.3232,N,02301.0145,E,0.0583,0.000,140914,,*2A
$GPGSA,A,3,11,32,14,22,1,27,23,4,31,28,19,20,1.3,0.7,1.1*30
{"class":"TPV","device":"nmea2000://vcan0","mode":3,"time":"2014-09-14T16:53:05.000Z","ept":0.005,"lat":37.922053400,"lon":23.016909000,"alt":7.977,"epx":7.286,"epy":8.304,"epv":24.150,"track":0.0000,"speed":0.030,"climb":0.000,"eps":16.61,"epc":48.30}
$GPZDA,165306.00,14,09,2014,00,00*6A
$GPGSA,A,3,11,32,14,22,1,27,23,4,31,28,19,20,1.3,0.7,1.1*30
$GPGBS,165306,7.29,M,8.30,M,24.15,M*0C
{"class":"TPV","device":"nmea2000://vcan0","mode":3,"time":"2014-09-14T16:53:06.000Z","ept":0.005,"lat":37.922053400,"lon":23.016909000,"alt":7.977,"epx":7.286,"epy":8.304,"epv":24.150,"track":0.0000,"speed":0.030,"climb":0.000,"eps":16.61,"epc":48.30}
$GPGSA,A,3,11,32,14,22,1,27,23,4,31,28,19,20,1.3,0.7,1.1*30
{"class":"TPV","device":"nmea2000://vcan0","mode":3,"time":"2014-09-14T16:53:06.000Z","ept":0.005,"lat":37.922053400,"lon":23.016909000,"alt":7.977,"epx":7.286,"epy":8.304,"epv":24.150,"track":0.0000,"speed":0.030,"climb":0.000,"eps":16.61,"epc":48.30}
$GPGSV,3,1,12,11,77,292,47,32,71,311,50,14,33,048,46,22,14,066,45*7C
$GPGSV,3,2,12,01,53,319,48,27,16,171,42,23,10,207,43,04,30,309,44*77
$GPGSV,3,3,12,31,15,115,44,28,06,293,35,19,42,188,47,20,30,269,43*7C
{"class":"SKY","device":"nmea2000://vcan0","time":"1970-01-01T00:00:00.000Z","xdop":0.49,"ydop":0.55,"vdop":1.05,"tdop":1.00,"hdop":0.73,"gdop":1.42,"pdop":1.28,"satellites":[{"PRN":11,"el":77,"az":292,"ss":47,"used":true},{"PRN":32,"el":71,"az":311,"ss":50,"used":true},{"PRN":14,"el":33,"az":48,"ss":46,"used":true},{"PRN":22,"el":14,"az":66,"ss":45,"used":true},{"PRN":1,"el":53,"az":319,"ss":48,"used":true},{"PRN":27,"el":16,"az":171,"ss":42,"used":true},{"PRN":23,"el":10,"az":207,"ss":43,"used":true},{"PRN":4,"el":30,"az":309,"ss":44,"used":true},{"PRN":31,"el":15,"az":115,"ss":44,"used":true},{"PRN":28,"el":6,"az":293,"ss":35,"used":true},{"PRN":19,"el":42,"az":188,"ss":47,"used":true},{"PRN":20,"el":30,"az":269,"ss":43,"used":true}]}
$GPZDA,165306.00,14,09,2014,00,00*6A
$GPGGA,165306,3755.3232,N,02301.0145,E,1,12,0.73,7.98,M,35.000,M,,*46
$GPRMC,165306,A,3755.3232,N,02301.0145,E,0.0583,0.000,140914,,*29
$GPGSA,A,3,11,32,14,22,1,27,23,4,31,28,19,20,1.3,0.7,1.1*30
{"class":"TPV","device":"nmea2000://vcan0","mode":3,"time":"2014-09-14T16:53:06.000Z","ept":0.005,"lat":37.922053451,"lon":23.016909028,"alt":7.977,"epx":7.286,"epy":8.304,"epv":24.150,"track":0.0000,"speed":0.030,"climb":0.000,"eps":16.61,"epc":48.30}
$GPGGA,165306,3755.3232,N,02301.0145,E,1,12,0.73,7.98,M,35.000,M,,*46
$GPRMC,165306,A,3755.3232,N,02301.0145,E,0.0583,0.000,140914,,*29
$GPGSA,A,3,11,32,14,22,1,27,23,4,31,28,19,20,1.3,0.7,1.1*30
$GPGBS,165306,7.29,M,8.30,M,24.15,M*0C
{"class":"TPV","device":"nmea2000://vcan0","mode":3,"time":"2014-09-14T16:53:06.000Z","ept":0.005,"lat":37.922053400,"lon":23.016909000,"alt":7.977,"epx":7.286,"epy":8.304,"epv":24.150,"track":0.0000,"speed":0.030,"climb":0.000,"eps":16.61,"epc":48.30}
$GPGSA,A,3,11,32,14,22,1,27,23,4,31,28,19,20,1.3,0.7,1.1*30
{"class":"TPV","device":"nmea2000://vcan0","mode":3,"time":"2014-09-14T16:53:06.000Z","ept":0.005,"lat":37.922053400,"lon":23.016909000,"alt":7.977,"epx":7.286,"epy":8.304,"epv":24.150,"track":0.0000,"speed":0.040,"climb":0.000,"eps":16.61,"epc":48.30}
$GPGGA,165306,3755.3232,N,02301.0145,E,1,12,0.73,7.98,M,35.000,M,,*46
$GPRMC,165306,A,3755.3232,N,02301.0145,E,0.0778,0.000,140914,,*2F
$GPGSA,A,3,11,32,14,22,1,27,23,4,31,28,19,20,1.3,0.7,1.1*30
$GPGBS,165306,7.29,M,8.30,M,24.15,M*0C
{"class":"TPV","device":"nmea2000://vcan0","mode":3,"time":"2014-09-14T16:53:06.000Z","ept":0.005,"lat":37.922053400,"lon":23.016909000,"alt":7.977,"epx":7.286,"epy":8.304,"epv":24.150,"track":0.0000,"speed":0.040,"climb":0.000,"eps":16.61,"epc":48.30}
$GPGGA,165306,3755.3232,N,02301.0145,E,1,12,0.73,7.98,M,35.000,M,,*46
$GPRMC,165306,A,3755.3232,N,02301.0145,E,0.0778,0.000,140914,,*2F
$GPGSA,A,3,11,32,14,22,1,27,23,4,31,28,19,20,1.3,0.7,1.1*30
{"class":"TPV","device":"nmea2000://vcan0","mode":3,"time":"2014-09-14T16:53:06.000Z","ept":0.005,"lat":37.922053400,"lon":23.016909000,"alt":7.977,"epx":7.286,"epy":8.304,"epv":24.150,"track":0.0000,"speed":0.040,"climb":0.000,"eps":16.61,"epc":48.30}
$GPGGA,165306,3755.3232,N,02301.0145,E,1,12,0.73,7.98,M,35.000,M,,*46
$GPRMC,165306,A,3755.3232,N,02301.0145,E,0.0778,0.000,140914,,*2F
$GPGSA,A,3,11,32,14,22,1,27,23,4,31,28,19,20,1.3,0.7,1.1*30
$GPGBS,165306,7.29,M,8.30,M,24.15,M*0C
{"class":"TPV","device":"nmea2000://vcan0","mode":3,"time":"2014-09-14T16:53:06.000Z","ept":0.005,"lat":37.922053400,"lon":23.016909000,"alt":7.977,"epx":7.286,"epy":8.304,"epv":24.150,"track":0.0000,"speed":0.040,"climb":0.000,"eps":16.61,"epc":48.30}
$GPGSA,A,3,11,32,14,22,1,27,23,4,31,28,19,20,1.3,0.7,1.1*30
{"class":"TPV","device":"nmea2000://vcan0","mode":3,"time":"2014-09-14T16:53:06.000Z","ept":0.005,"lat":37.922053400,"lon":23.016909000,"alt":7.977,"epx":7.286,"epy":8.304,"epv":24.150,"track":0.0000,"speed":0.040,"climb":0.000,"eps":16.61,"epc":48.30}
$GPGGA,165306,3755.3232,N,02301.0145,E,1,12,0.73,7.98,M,35.000,M,,*46
$GPRMC,165306,A,3755.3232,N,02301.0145,E,0.0778,0.000,140914,,*2F
$GPGSA,A,3,11,32,14,22,1,27,23,4,31,28,19,20,1.3,0.7,1.1*30
$GPGBS,165306,7.29,M,8.30,M,24.15,M*0C
{"class":"TPV","device":"nmea2000://vcan0","mode":3,"time":"2014-09-14T16:53:06.000Z","ept":0.005,"lat":37.922053400,"lon":23.016909000,"alt":7.977,"epx":7.286,"epy":8.304,"epv":24.150,"track":0.0000,"speed":0.040,"climb":0.000,"eps":16.61,"epc":48.30}
$GPGGA,165306,3755.3232,N,02301.0145,E,1,12,0.73,7.98,M,35.000,M,,*46
$GPRMC,165306,A,3755.3232,N,02301.0145,E,0.0778,0.000,140914,,*2F
$GPGSA,A,3,11,32,14,22,1,27,23,4,31,28,19,20,1.3,0.7,1.1*30
{"class":"TPV","device":"nmea2000://vcan0","mode":3,"time":"2014-09-14T16:53:06.000Z","ept":0.005,"lat":37.922053400,"lon":23.016909000,"alt":7.977,"epx":7.286,"epy":8.304,"epv":24.150,"track":0.0000,"speed":0.040,"climb":0.000,"eps":16.61,"epc":48.30}
$GPGSA,A,3,11,32,14,22,1,27,23,4,31,28,19,20,1.3,0.7,1.1*30
$GPGBS,165306,7.29,M,8.30,M,24.15,M*0C
{"class":"TPV","device":"nmea2000://vcan0","mode":3,"time":"2014-09-14T16:53:06.000Z","ept":0.005,"lat":37.922053400,"lon":23.016909000,"alt":7.977,"epx":7.286,"epy":8.304,"epv":24.150,"track":0.0000,"speed":0.040,"climb":0.000,"eps":16.61,"epc":48.30}
$GPGGA,165306,3755.3232,N,02301.0145,E,1,12,0.73,7.98,M,35.000,M,,*46
$GPRMC,165306,A,3755.3232,N,02301.0145,E,0.0778,0.000,140914,,*2F
$GPGSA,A,3,11,32,14,22,1,27,23,4,31,28,19,20,1.3,0.7,1.1*30
{"class":"TPV","device":"nmea2000://vcan0","mode":3,"time":"2014-09-14T16:53:06.000Z","ept":0.005,"lat":37.922053400,"lon":23.016909000,"alt":7.977,"epx":7.286,"epy":8.304,"epv":24.150,"track":0.0000,"speed":0.040,"climb":0.000,"eps":16.61,"epc":48.30}
$GPGGA,165306,3755.3232,N,02301.0145,E,1,12,0.73,7.98,M,35.000,M,,*46
$GPRMC,165306,A,3755.3232,N,02301.0145,E,0.0778,0.000,140914,,*2F
$GPGSA,A,3,11,32,14,22,1,27,23,4,31,28,19,20,1.3,0.7,1.1*30
$GPGBS,165306,7.29,M,8.30,M,24.15,M*0C
{"class":"TPV","device":"nmea2000://vcan0","mode":3,"time":"2014-09-14T16:53:06.000Z","ept":0.005,"lat":37.922053400,"lon":23.016909000,"alt":7.977,"epx":7.286,"epy":8.304,"epv":24.150,"track":0.0000,"speed":0.040,"climb":0.000,"eps":16.61,"epc":48.30}
$GPGGA,165306,3755.3232,N,02301.0145,E,1,12,0.73,7.98,M,35.000,M,,*46
$GPRMC,165306,A,3755.3232,N,02301.0145,E,0.0778,0.000,140914,,*2F
$GPGSA,A,3,11,32,14,22,1,27,23,4,31,28,19,20,1.3,0.7,1.1*30
{"class":"TPV","device":"nmea2000://vcan0","mode":3,"time":"2014-09-14T16:53:06.000Z","ept":0.005,"lat":37.922053400,"lon":23.016909000,"alt":7.977,"epx":7.286,"epy":8.304,"epv":24.150,"track":0.0000,"speed":0.040,"climb":0.000,"eps":16.61,"epc":48.30}
$GPGSA,A,3,11,32,14,22,1,27,23,4,31,28,19,20,1.3,0.7,1.1*30
$GPGBS,165306,7.29,M,8.30,M,24.15,M*0C
{"class":"TPV","device":"nmea2000://vcan0","mode":3,"time":"2014-09-14T16:53:06.000Z","ept":0.005,"lat":37.922053400,"lon":23.016909000,"alt":7.977,"epx":7.286,"epy":8.304,"epv":24.150,"track":0.0000,"speed":0.040,"climb":0.000,"eps":16.61,"epc":48.30}
$GPGGA,165306,3755.3232,N,02301.0145,E,1,12,0.73,7.98,M,35.000,M,,*46
$GPRMC,165306,A,3755.3232,N,02301.0145,E,0.0778,0.000,140914,,*2F
$GPGSA,A,3,11,32,14,22,1,27,23,4,31,28,19,20,1.3,0.7,1.1*30
{"class":"TPV","device":"nmea2000://vcan0","mode":3,"time":"2014-09-14T16:53:06.000Z","ept":0.005,"lat":37.922053400,"lon":23.016909000,"alt":7.977,"epx":7.286,"epy":8.304,"epv":24.150,"track":0.0000,"speed":0.040,"climb":0.000,"eps":16.61,"epc":48.30}
$GPZDA,165307.00,14,09,2014,00,00*6B
$GPGSA,A,3,11,32,14,22,1,27,23,4,31,28,19,20,1.3,0.7,1.1*30
$GPGBS,165307,7.29,M,8.30,M,24.15,M*0D
{"class":"TPV","device":"nmea2000://vcan0","mode":3,"time":"2014-09-14T16:53:07.000Z","ept":0.005,"lat":37.922053400,"lon":23.016909000,"alt":7.977,"epx":7.286,"epy":8.304,"epv":24.150,"track":0.0000,"speed":0.040,"climb":0.000,"eps":16.61,"epc":48.30}
$GPGSA,A,3,11,32,14,22,1,27,23,4,31,28,19,20,1.3,0.7,1.1*30
{"class":"TPV","device":"nmea2000://vcan0","mode":3,"time":"2014-09-14T16:53:07.000Z","ept":0.005,"lat":37.922053400,"lon":23.016909000,"alt":7.977,"epx":7.286,"epy":8.304,"epv":24.150,"track":0.0000,"speed":0.040,"climb":0.000,"eps":16.61,"epc":48.30}
$GPGSV,3,1,12,11,77,292,47,32,71,311,50,14,33,048,46,22,14,066,45*7C
$GPGSV,3,2,12,01,53,319,50,27,16,171,43,23,10,207,42,04,30,309,46*7C
$GPGSV,3,3,12,31,15,115,45,28,06,293,35,19,42,188,48,20,31,270,43*7B
{"class":"SKY","device":"nmea2000://vcan0","time":"1970-01-01T00:00:00.000Z","xdop":0.49,"ydop":0.55,"vdop":1.05,"tdop":1.00,"hdop":0.73,"gdop":1.42,"pdop":1.28,"satellites":[{"PRN":11,"el":77,"az":292,"ss":47,"used":true},{"PRN":32,"el":71,"az":311,"ss":50,"used":true},{"PRN":14,"el":33,"az":48,"ss":46,"used":true},{"PRN":22,"el":14,"az":66,"ss":45,"used":true},{"PRN":1,"el":53,"az":319,"ss":50,"used":true},{"PRN":27,"el":16,"az":171,"ss":43,"used":true},{"PRN":23,"el":10,"az":207,"ss":42,"used":true},{"PRN":4,"el":30,"az":309,"ss":46,"used":true},{"PRN":31,"el":15,"az":115,"ss":45,"used":true},{"PRN":28,"el":6,"az":293,"ss":35,"used":true},{"PRN":19,"el":42,"az":188,"ss":48,"used":true},{"PRN":20,"el":31,"az":270,"ss":43,"used":true}]}
$GPZDA,165307.00,14,09,2014,00,00*6B
$GPGGA,165307,3755.3232,N,02301.0145,E,1,12,0.73,7.98,M,35.000,M,,*47
$GPRMC,165307,A,3755.3232,N,02301.0145,E,0.0778,0.000,140914,,*2E
$GPGSA,A,3,11,32,14,22,1,27,23,4,31,28,19,20,1.3,0.7,1.1*30
{"class":"TPV","device":"nmea2000://vcan0","mode":3,"time":"2014-09-14T16:53:07.000Z","ept":0.005,"lat":37.922053451,"lon":23.016909028,"alt":7.977,"epx":7.286,"epy":8.304,"epv":24.150,"track":0.0000,"speed":0.040,"climb":0.000,"eps":16.61,"epc":48.30}
$GPGGA,165307,3755.3232,N,02301.0145,E,1,12,0.73,7.98,M,35.000,M,,*47
$GPRMC,165307,A,3755.3232,N,02301.0145,E,0.0778,0.000,140914,,*2E
$GPGSA,A,3,11,32,14,22,1,27,23,4,31,28,19,20,1.3,0.7,1.1*30
$GPGBS,165307,7.29,M,8.30,M,24.15,M*0D
{"class":"TPV","device":"nmea2000://vcan0","mode":3,"time":"2014-09-14T16:53:07.000Z","ept":0.005,"lat":37.922053400,"lon":23.016909000,"alt":7.977,"epx":7.286,"epy":8.304,"epv":24.150,"track":0.0000,"speed":0.040,"climb":0.000,"eps":16.61,"epc":48.30}
$GPGSA,A,3,11,32,14,22,1,27,23,4,31,28,19,20,1.3,0.7,1.1*30
{"class":"TPV","device":"nmea2000://vcan0","mode":3,"time":"2014-09-14T16:53:07.000Z","ept":0.005,"lat":37.922053400,"lon":23.016909000,"alt":7.977,"epx":7.286,"epy":8.304,"epv":24.150,"track":0.0000,"speed":0.010,"climb":0.000,"eps":16.61,"epc":48.30}
$GPGGA,165307,3755.3232,N,02301.0145,E,1,12,0.73,7.98,M,35.000,M,,*47
$GPRMC,165307,A,3755.3232,N,02301.0145,E,0.0194,0.000,140914,,*2A
$GPGSA,A,3,11,32,14,22,1,27,23,4,31,28,19,20,1.3,0.7,1.1*30
$GPGBS,165307,7.29,M,8.30,M,24.15,M*0D
{"class":"TPV","device":"nmea2000://vcan0","mode":3,"time":"2014-09-14T16:53:07.000Z","ept":0.005,"lat":37.922053400,"lon":23.016909000,"alt":7.977,"epx":7.286,"epy":8.304,"epv":24.150,"track":0.0000,"speed":0.010,"climb":0.000,"eps":16.61,"epc":48.30}
$GPGGA,165307,3755.3232,N,02301.0145,E,1,12,0.73,7.98,M,35.000,M,,*47
$GPRMC,165307,A,3755.3232,N,02301.0145,E,0.0194,0.000,140914,,*2A
$GPGSA,A,3,11,32,14,22,1,27,23,4,31,28,19,20,1.3,0.7,1.1*30
{"class":"TPV","device":"nmea2000://vcan0","mode":3,"time":"2014-09-14T16:53:07.000Z","ept":0.005,"lat":37.922053400,"lon":23.016909000,"alt":7.977,"epx":7.286,"epy":8.304,"epv":24.150,"track":0.0000,"speed":0.010,"climb":0.000,"eps":16.61,"epc":48.30}
$GPGGA,165307,3755.3232,N,02301.0145,E,1,12,0.73,7.98,M,35.000,M,,*47
$GPRMC,165307,A,3755.3232,N,02301.0145,E,0.0194,0.000,140914,,*2A
$GPGSA,A,3,11,32,14,22,1,27,23,4,31,28,19,20,1.3,0.7,1.1*30
$GPGBS,165307,7.29,M,8.30,M,24.15,M*0D
{"class":"TPV","device":"nmea2000://vcan0","mode":3,"time":"2014-09-14T16:53:07.000Z","ept":0.005,"lat":37.922053400,"lon":23.016909000,"alt":7.977,"epx":7.286,"epy":8.304,"epv":24.150,"track":0.0000,"speed":0.010,"climb":0.000,"eps":16.61,"epc":48.30}
$GPGSA,A,3,11,32,14,22,1,27,23,4,31,28,19,20,1.3,0.7,1.1*30
{"class":"TPV","device":"nmea2000://vcan0","mode":3,"time":"2014-09-14T16:53:07.000Z","ept":0.005,"lat":37.922053400,"lon":23.016909000,"alt":7.977,"epx":7.286,"epy":8.304,"epv":24.150,"track":0.0000,"speed":0.010,"climb":0.000,"eps":16.61,"epc":48.30}
$GPGGA,165307,3755.3232,N,02301.0145,E,1,12,0.73,7.98,M,35.000,M,,*47
$GPRMC,165307,A,3755.3232,N,02301.0145,E,0.0194,0.000,140914,,*2A
$GPGSA,A,3,11,32,14,22,1,27,23,4,31,28,19,20,1.3,0.7,1.1*30
$GPGBS,165307,7.29,M,8.30,M,24.15,M*0D
{"class":"TPV","device":"nmea2000://vcan0","mode":3,"time":"2014-09-14T16:53:07.000Z","ept":0.005,"lat":37.922053400,"lon":23.016909000,"alt":7.977,"epx":7.286,"epy":8.304,"epv":24.150,"track":0.0000,"speed":0.010,"climb":0.000,"eps":16.61,"epc":48.30}
$GPGGA,165307,3755.3232,N,02301.0145,E,1,12,0.73,7.98,M,35.000,M,,*47
$GPRMC,165307,A,3755.3232,N,02301.0145,E,0.0194,0.000,140914,,*2A
$GPGSA,A,3,11,32,14,22,1,27,23,4,31,28,19,20,1.3,0.7,1.1*30
{"class":"TPV","device":"nmea2000://vcan0","mode":3,"time":"2014-09-14T16:53:07.000Z","ept":0.005,"lat":37.922053400,"lon":23.016909000,"alt":7.977,"epx":7.286,"epy":8.304,"epv":24.150,"track":0.0000,"speed":0.010,"climb":0.000,"eps":16.61,"epc":48.30}
$GPGSA,A,3,11,32,14,22,1,27,23,4,31,28,19,20,1.3,0.7,1.1*30
$GPGBS,165307,7.29,M,8.30,M,24.15,M*0D
{"class":"TPV","device":"nmea2000://vcan0","mode":3,"time":"2014-09-14T16:53:07.000Z","ept":0.005,"lat":37.922053400,"lon":23.016909000,"alt":7.977,"epx":7.286,"epy":8.304,"epv":24.150,"track":0.0000,"speed":0.010,"climb":0.000,"eps":16.61,"epc":48.30}
{"class":"ATT","device":"nmea2000://vcan0:17","depth":9.170}
$GPGGA,165307,3755.3232,N,02301.0145,E,1,12,0.73,7.98,M,35.000,M,,*47
$GPRMC,165307,A,3755.3232,N,02301.0145,E,0.0194,0.000,140914,,*2A
$GPGSA,A,3,11,32,14,22,1,27,23,4,31,28,19,20,1.3,0.7,1.1*30
{"class":"TPV","device":"nmea2000://vcan0","mode":3,"time":"2014-09-14T16:53:07.000Z","ept":0.005,"lat":37.922053400,"lon":23.016909000,"alt":7.977,"epx":7.286,"epy":8.304,"epv":24.150,"track":0.0000,"speed":0.010,"climb":0.000,"eps":16.61,"epc":48.30}
$GPGGA,165307,3755.3232,N,02301.0145,E,1,12,0.73,7.98,M,35.000,M,,*47
$GPRMC,165307,A,3755.3232,N,02301.0145,E,0.0194,0.000,140914,,*2A
$GPGSA,A,3,11,32,14,22,1,27,23,4,31,28,19,20,1.3,0.7,1.1*30
$GPGBS,165307,7.29,M,8.30,M,24.15,M*0D
{"class":"TPV","device":"nmea2000://vcan0","mode":3,"time":"2014-09-14T16:53:07.000Z","ept":0.005,"lat":37.922053400,"lon":23.016909000,"alt":7.977,"epx":7.286,"epy":8.304,"epv":24.150,"track":0.0000,"speed":0.010,"climb":0.000,"eps":16.61,"epc":48.30}
$GPGGA,165307,3755.3232,N,02301.0145,E,1,12,0.73,7.98,M,35.000,M,,*47
$GPRMC,165307,A,3755.3232,N,02301.0145,E,0.0194,0.000,140914,,*2A
$GPGSA,A,3,11,32,14,22,1,27,23,4,31,28,19,20,1.3,0.7,1.1*30
{"class":"TPV","device":"nmea2000://vcan0","mode":3,"time":"2014-09-14T16:53:07.000Z","ept":0.005,"lat":37.922053400,"lon":23.016909000,"alt":7.977,"epx":7.286,"epy":8.304,"epv":24.150,"track":0.0000,"speed":0.010,"climb":0.000,"eps":16.61,"epc":48.30}
$GPGSA,A,3,11,32,14,22,1,27,23,4,31,28,19,20,1.3,0.7,1.1*30
$GPGBS,165307,7.29,M,8.30,M,24.15,M*0D
{"class":"TPV","device":"nmea2000://vcan0","mode":3,"time":"2014-09-14T16:53:07.000Z","ept":0.005,"lat":37.922053400,"lon":23.016909000,"alt":7.977,"epx":7.286,"epy":8.304,"epv":24.150,"track":0.0000,"speed":0.010,"climb":0.000,"eps":16.61,"epc":48.30}
$GPGGA,165307,3755.3232,N,02301.0145,E,1,12,0.73,7.98,M,35.000,M,,*47
$GPRMC,165307,A,3755.3232,N,02301.0145,E,0.0194,0.000,140914,,*2A
$GPGSA,A,3,11,32,14,22,1,27,23,4,31,28,19,20,1.3,0.7,1.1*30
{"class":"TPV","device":"nmea2000://vcan0","mode":3,"time":"2014-09-14T16:53:07.000Z","ept":0.005,"lat":37.922053400,"lon":23.016909000,"alt":7.977,"epx":7.286,"epy":8.304,"epv":24.150,"track":0.0000,"speed":0.010,"climb":0.000,"eps":16.61,"epc":48.30}
$GPZDA,165308.00,14,09,2014,00,00*64
$GPGSA,A,3,11,32,14,22,1,27,23,4,31,28,19,20,1.3,0.7,1.1*30
$GPGBS,165308,7.29,M,8.30,M,24.15,M*02
{"class":"TPV","device":"nmea2000://vcan0","mode":3,"time":"2014-09-14T16:53:08.000Z","ept":0.005,"lat":37.922053400,"lon":23.016909000,"alt":7.977,"epx":7.286,"epy":8.304,"epv":24.150,"track":0.0000,"speed":0.010,"climb":0.000,"eps":16.61,"epc":48.30}
$GPGSA,A,3,11,32,14,22,1,27,23,4,31,28,19,20,1.3,0.7,1.1*30
{"class":"TPV","device":"nmea2000://vcan0","mode":3,"time":"2014-09-14T16:53:08.000Z","ept":0.005,"lat":37.922053400,"lon":23.016909000,"alt":7.977,"epx":7.286,"epy":8.304,"epv":24.150,"track":0.0000,"speed":0.010,"climb":0.000,"eps":16.61,"epc":48.30}
$GPGSV,3,1,12,11,77,292,45,32,71,311,47,14,33,048,46,22,14,066,46*7B
$GPGSV,3,2,12,01,53,319,51,27,16,171,43,23,10,207,42,04,30,309,45*7E
$GPGSV,3,3,12,31,15,115,45,28,06,293,35,19,42,188,49,20,31,270,44*7D
{"class":"SKY","device":"nmea2000://vcan0","time":"1970-01-01T00:00:00.000Z","xdop":0.49,"ydop":0.55,"vdop":1.05,"tdop":1.00,"hdop":0.73,"gdop":1.42,"pdop":1.28,"satellites":[{"PRN":11,"el":77,"az":292,"ss":45,"used":true},{"PRN":32,"el":71,"az":311,"ss":47,"used":true},{"PRN":14,"el":33,"az":48,"ss":46,"used":true},{"PRN":22,"el":14,"az":66,"ss":46,"used":true},{"PRN":1,"el":53,"az":319,"ss":51,"used":true},{"PRN":27,"el":16,"az":171,"ss":43,"used":true},{"PRN":23,"el":10,"az":207,"ss":42,"used":true},{"PRN":4,"el":30,"az":309,"ss":45,"used":true},{"PRN":31,"el":15,"az":115,"ss":45,"used":true},{"PRN":28,"el":6,"az":293,"ss":35,"used":true},{"PRN":19,"el":42,"az":188,"ss":49,"used":true},{"PRN":20,"el":31,"az":270,"ss":44,"used":true}]}
$GPZDA,165308.00,14,09,2014,00,00*64
$GPGGA,165308,3755.3232,N,02301.0145,E,1,12,0.73,7.98,M,35.000,M,,*48
$GPRMC,165308,A,3755.3232,N,02301.0145,E,0.0194,0.000,140914,,*25
$GPGSA,A,3,11,32,14,22,1,27,23,4,31,28,19,20,1.3,0.7,1.1*30
{"class":"TPV","device":"nmea2000://vcan0","mode":3,"time":"2014-09-14T16:53:08.000Z","ept":0.005,"lat":37.922053451,"lon":23.016909028,"alt":7.977,"epx":7.286,"epy":8.304,"epv":24.150,"track":0.0000,"speed":0.010,"climb":0.000,"eps":16.61,"epc":48.30}
$GPGGA,165308,3755.3232,N,02301.0145,E,1,12,0.73,7.98,M,35.000,M,,*48
$GPRMC,165308,A,3755.3232,N,02301.0145,E,0.0194,0.000,140914,,*25
$GPGSA,A,3,11,32,14,22,1,27,23,4,31,28,19,20,1.3,0.7,1.1*30
$GPGBS,165308,7.29,M,8.30,M,24.15,M*02
{"class":"TPV","device":"nmea2000://vcan0","mode":3,"time":"2014-09-14T16:53:08.000Z","ept":0.005,"lat":37.922053400,"lon":23.016909000,"alt":7.977,"epx":7.286,"epy":8.304,"epv":24.150,"track":0.0000,"speed":0.010,"climb":0.000,"eps":16.61,"epc":48.30}
$GPGSA,A,3,11,32,14,22,1,27,23,4,31,28,19,20,1.3,0.7,1.1*30
{"class":"TPV","device":"nmea2000://vcan0","mode":3,"time":"2014-09-14T16:53:08.000Z","ept":0.005,"lat":37.922053400,"lon":23.016909000,"alt":7.977,"epx":7.286,"epy":8.304,"epv":24.150,"track":0.0000,"speed":0.060,"climb":0.000,"eps":16.61,"epc":48.30}
$GPGGA,165308,3755.3232,N,02301.0145,E,1,12,0.73,7.98,M,35.000,M,,*48
$GPRMC,165308,A,3755.3232,N,02301.0145,E,0.1166,0.000,140914,,*29
$GPGSA,A,3,11,32,14,22,1,27,23,4,31,28,19,20,1.3,0.7,1.1*30
$GPGBS,165308,7.29,M,8.30,M,24.15,M*02
{"class":"TPV","device":"nmea2000://vcan0","mode":3,"time":"2014-09-14T16:53:08.000Z","ept":0.005,"lat":37.922053400,"lon":23.016909000,"alt":7.977,"epx":7.286,"epy":8.304,"epv":24.150,"track":0.0000,"speed":0.060,"climb":0.000,"eps":16.61,"epc":48.30}
$GPGGA,165308,3755.3232,N,02301.0145,E,1,12,0.73,7.98,M,35.000,M,,*48
$GPRMC,165308,A,3755.3232,N,02301.0145,E,0.1166,0.000,140914,,*29
$GPGSA,A,3,11,32,14,22,1,27,23,4,31,28,19,20,1.3,0.7,1.1*30
{"class":"TPV","device":"nmea2000://vcan0","mode":3,"time":"2014-09-14T16:53:08.000Z","ept":0.005,"lat":37.922053400,"lon":23.016909000,"alt":7.977,"epx":7.286,"epy":8.304,"epv":24.150,"track":0.0000,"speed":0.060,"climb":0.000,"eps":16.61,"epc":48.30}
$GPGGA,165308,3755.3232,N,02301.0145,E,1,12,0.73,7.98,M,35.000,M,,*48
$GPRMC,165308,A,3755.3232,N,02301.0145,E,0.1166,0.000,140914,,*29
$GPGSA,A,3,11,32,14,22,1,27,23,4,31,28,19,20,1.3,0.7,1.1*30
$GPGBS,165308,7.29,M,8.30,M,24.15,M*02
{"class":"TPV","device":"nmea2000://vcan0","mode":3,"time":"2014-09-14T16:53:08.000Z","ept":0.005,"lat":37.922053400,"lon":23.016909000,"alt":7.977,"epx":7.286,"epy":8.304,"epv":24.150,"track":0.0000,"speed":0.060,"climb":0.000,"eps":16.61,"epc":48.30}
$GPGSA,A,3,11,32,14,22,1,27,23,4,31,28,19,20,1.3,0.7,1.1*30
{"class":"TPV","device":"nmea2000://vcan0","mode":3,"time":"2014-09-14T16:53:08.000Z","ept":0.005,"lat":37.922053400,"lon":23.016909000,"alt":7.977,"epx":7.286,"epy":8.304,"epv":24.150,"track":0.0000,"speed":0.060,"climb":0.000,"eps":16.61,"epc":48.30}
$GPGGA,165308,3755.3232,N,02301.0145,E,1,12,0.73,7.98,M,35.000,M,,*48
$GPRMC,165308,A,3755.3232,N,02301.0145,E,0.1166,0.000,140914,,*29
$GPGSA,A,3,11,32,14,22,1,27,23,4,31,28,19,20,1.3,0.7,1.1*30
$GPGBS,165308,7.29,M,8.30,M,24.15,M*02
{"class":"TPV","device":"nmea2000://vcan0","mode":3,"time":"2014-09-14T16:53:08.000Z","ept":0.005,"lat":37.922053400,"lon":23.016909000,"alt":7.977,"epx":7.286,"epy":8.304,"epv":24.150,"track":0.0000,"speed":0.060,"climb":0.000,"eps":16.61,"epc":48.30}
$GPGGA,165308,3755.3232,N,02301.0145,E,1,12,0.73,7.98,M,35.000,M,,*48
$GPRMC,165308,A,3755.3232,N,02301.0145,E,0.1166,0.000,140914,,*29
$GPGSA,A,3,11,32,14,22,1,27,23,4,31,28,19,20,1.3,0.7,1.1*30
{"class":"TPV","device":"nmea2000://vcan0","mode":3,"time":"2014-09-14T16:53:08.000Z","ept":0.005,"lat":37.922053400,"lon":23.016909000,"alt":7.977,"epx":7.286,"epy":8.304,"epv":24.150,"track":0.0000,"speed":0.060,"climb":0.000,"eps":16.61,"epc":48.30}
{"class":"ATT","device":"nmea2000://vcan0:17","depth":9.170}
$GPGSA,A,3,11,32,14,22,1,27,23,4,31,28,19,20,1.3,0.7,1.1*30
$GPGBS,165308,7.29,M,8.30,M,24.15,M*02
{"class":"TPV","device":"nmea2000://vcan0","mode":3,"time":"2014-09-14T16:53:08.000Z","ept":0.005,"lat":37.922053400,"lon":23.016909000,"alt":7.977,"epx":7.286,"epy":8.304,"epv":24.150,"track":0.0000,"speed":0.060,"climb":0.000,"eps":16.61,"epc":48.30}
$GPGGA,165308,3755.3232,N,02301.0145,E,1,12,0.73,7.98,M,35.000,M,,*48
$GPRMC,165308,A,3755.3232,N,02301.0145,E,0.1166,0.000,140914,,*29
$GPGSA,A,3,11,32,14,22,1,27,23,4,31,28,19,20,1.3,0.7,1.1*30
{"class":"TPV","device":"nmea2000://vcan0","mode":3,"time":"2014-09-14T16:53:08.000Z","ept":0.005,"lat":37.922053400,"lon":23.016909000,"alt":7.977,"epx":7.286,"epy":8.304,"epv":24.150,"track":0.0000,"speed":0.060,"climb":0.000,"eps":16.61,"epc":48.30}
$GPGGA,165308,3755.3232,N,02301.0145,E,1,12,0.73,7.98,M,35.000,M,,*48
$GPRMC,165308,A,3755.3232,N,02301.0145,E,0.1166,0.000,140914,,*29
$GPGSA,A,3,11,32,14,22,1,27,23,4,31,28,19,20,1.3,0.7,1.1*30
$GPGBS,165308,7.29,M,8.30,M,24.15,M*02
{"class":"TPV","device":"nmea2000://vcan0","mode":3,"time":"2014-09-14T16:53:08.000Z","ept":0.005,"lat":37.922053400,"lon":23.016909000,"alt":7.977,"epx":7.286,"epy":8.304,"epv":24.150,"track":0.0000,"speed":0.060,"climb":0.000,"eps":16.61,"epc":48.30}
$GPGGA,165308,3755.3232,N,02301.0145,E,1,12,0.73,7.98,M,35.000,M,,*48
$GPRMC,165308,A,3755.3232,N,02301.0145,E,0.1166,0.000,140914,,*29
$GPGSA,A,3,11,32,14,22,1,27,23,4,31,28,19,20,1.3,0.7,1.1*30
{"class":"TPV","device":"nmea2000://vcan0","mode":3,"time":"2014-09-14T16:53:08.000Z","ept":0.005,"lat":37.922053400,"lon":23.016909000,"alt":7.977,"epx":7.286,"epy":8.304,"epv":24.150,"track":0.0000,"speed":0.060,"climb":0.000,"eps":16.61,"epc":48.30}
$GPGSA,A,3,11,32,14,22,1,27,23,4,31,28,19,20,1.3,0.7,1.1*30
$GPGBS,165308,7.29,M,8.30,M,24.15,M*02
{"class":"TPV","device":"nmea2000://vcan0","mode":3,"time":"2014-09-14T16:53:08.000Z","ept":0.005,"lat":37.922053400,"lon":23.016909000,"alt":7.977,"epx":7.286,"epy":8.304,"epv":24.150,"track":0.0000,"speed":0.060,"climb":0.000,"eps":16.61,"epc":48.30}
!AIVDM,1,1,,A,33RjbB0uRB1c;TLEVP4e7wv:0iiQ,0*65
{"class":"AIS","device":"nmea2000://vcan0:1","type":3,"repeat":0,"mmsi":237808200,"scaled":true,"status":0,"status_text":"Under way using engine","turn":11250,"speed":14.6,"accuracy":false,"lon":23.4140,"lat":37.7515,"course":335.9,"heading":511,"second":5,"maneuver":0,"raim":false,"radio":203873}
$GPGGA,165308,3755.3232,N,02301.0145,E,1,12,0.73,7.98,M,35.000,M,,*48
$GPRMC,165308,A,3755.3232,N,02301.0145,E,0.1166,0.000,140914,,*29
$GPGSA,A,3,11,32,14,22,1,27,23,4,31,28,19,20,1.3,0.7,1.1*30
{"class":"TPV","device":"nmea2000://vcan0","mode":3,"time":"2014-09-14T16:53:08.000Z","ept":0.005,"lat":37.922053400,"lon":23.016909000,"alt":7.977,"epx":7.286,"epy":8.304,"epv":24.150,"track":0.0000,"speed":0.060,"climb":0.000,"eps":16.61,"epc":48.30}
$GPZDA,165309.00,14,09,2014,00,00*65
$GPGSA,A,3,11,32,14,22,1,27,23,4,31,28,19,20,1.3,0.7,1.1*30
$GPGBS,165309,7.29,M,8.30,M,24.15,M*03
{"class":"TPV","device":"nmea2000://vcan0","mode":3,"time":"2014-09-14T16:53:09.000Z","ept":0.005,"lat":37.922053400,"lon":23.016909000,"alt":7.977,"epx":7.286,"epy":8.304,"epv":24.150,"track":0.0000,"speed":0.060,"climb":0.000,"eps":16.61,"epc":48.30}
$GPGSA,A,3,11,32,14,22,1,27,23,4,31,28,19,20,1.3,0.7,1.1*30
{"class":"TPV","device":"nmea2000://vcan0","mode":3,"time":"2014-09-14T16:53:09.000Z","ept":0.005,"lat":37.922053400,"lon":23.016909000,"alt":7.977,"epx":7.286,"epy":8.304,"epv":24.150,"track":0.0000,"speed":0.060,"climb":0.000,"eps":16.61,"epc":48.30}
$GPGSV,3,1,12,11,77,292,45,32,71,311,48,14,33,048,46,22,14,066,44*76
$GPGSV,3,2,12,01,53,319,50,27,16,171,42,23,10,207,43,04,30,309,46*7C
$GPGSV,3,3,12,31,15,115,45,28,06,293,34,19,42,188,47,20,31,270,46*70
{"class":"SKY","device":"nmea2000://vcan0","time":"1970-01-01T00:00:00.000Z","xdop":0.49,"ydop":0.55,"vdop":1.05,"tdop":1.00,"hdop":0.73,"gdop":1.42,"pdop":1.28,"satellites":[{"PRN":11,"el":77,"az":292,"ss":45,"used":true},{"PRN":32,"el":71,"az":311,"ss":48,"used":true},{"PRN":14,"el":33,"az":48,"ss":46,"used":true},{"PRN":22,"el":14,"az":66,"ss":44,"used":true},{"PRN":1,"el":53,"az":319,"ss":50,"used":true},{"PRN":27,"el":16,"az":171,"ss":42,"used":true},{"PRN":23,"el":10,"az":207,"ss":43,"used":true},{"PRN":4,"el":30,"az":309,"ss":46,"used":true},{"PRN":31,"el":15,"az":115,"ss":45,"used":true},{"PRN":28,"el":6,"az":293,"ss":34,"used":true},{"PRN":19,"el":42,"az":188,"ss":47,"used":true},{"PRN":20,"el":31,"az":270,"ss":46,"used":true}]}
$GPZDA,165309.00,14,09,2014,00,00*65
$GPGGA,165309,3755.3232,N,02301.0145,E,1,12,0.73,7.98,M,35.000,M,,*49
$GPRMC,165309,A,3755.3232,N,02301.0145,E,0.1166,0.000,140914,,*28
$GPGSA,A,3,11,32,14,22,1,27,23,4,31,28,19,20,1.3,0.7,1.1*30
{"class":"TPV","device":"nmea2000://vcan0","mode":3,"time":"2014-09-14T16:53:09.000Z","ept":0.005,"lat":37.922053451,"lon":23.016909028,"alt":7.977,"epx":7.286,"epy":8.304,"epv":24.150,"track":0.0000,"speed":0.060,"climb":0.000,"eps":16.61,"epc":48.30}
$GPGGA,165309,3755.3232,N,02301.0145,E,1,12,0.73,7.98,M,35.000,M,,*49
$GPRMC,165309,A,3755.3232,N,02301.0145,E,0.1166,0.000,140914,,*28
$GPGSA,A,3,11,32,14,22,1,27,23,4,31,28,19,20,1.3,0.7,1.1*30
$GPGBS,165309,7.29,M,8.30,M,24.15,M*03
{"class":"TPV","device":"nmea2000://vcan0","mode":3,"time":"2014-09-14T16:53:09.000Z","ept":0.005,"lat":37.922053400,"lon":23.016909000,"alt":7.977,"epx":7.286,"epy":8.304,"epv":24.150,"track":0.0000,"speed":0.060,"climb":0.000,"eps":16.61,"epc":48.30}
$GPGSA,A,3,11,32,14,22,1,27,23,4,31,28,19,20,1.3,0.7,1.1*30
{"class":"TPV","device":"nmea2000://vcan0","mode":3,"time":"2014-09-14T16:53:09.000Z","ept":0.005,"lat":37.922053400,"lon":23.016909000,"alt":7.977,"epx":7.286,"epy":8.304,"epv":24.150,"track":0.0000,"speed":0.000,"climb":0.000,"eps":16.61,"epc":48.30}
$GPGGA,165309,3755.3232,N,02301.0145,E,1,12,0.73,7.98,M,35.000,M,,*49
$GPRMC,165309,A,3755.3232,N,02301.0145,E,0.0000,0.000,140914,,*28
$GPGSA,A,3,11,32,14,22,1,27,23,4,31,28,19,20,1.3,0.7,1.1*30
$GPGBS,165309,7.29,M,8.30,M,24.15,M*03
{"class":"TPV","device":"nmea2000://vcan0","mode":3,"time":"2014-09-14T16:53:09.000Z","ept":0.005,"lat":37.922053400,"lon":23.016909000,"alt":7.977,"epx":7.286,"epy":8.304,"epv":24.150,"track":0.0000,"speed":0.000,"climb":0.000,"eps":16.61,"epc":48.30}
!AIVDM,1,1,,A,13V9KV0uP01acfFEdTeaKgvD041:,0*00
{"class":"AIS","device":"nmea2000://vcan0:1","type":1,"repeat":0,"mmsi":241327000,"scaled":true,"status":0,"status_text":"Under way using engine","turn":11250,"speed":0.0,"accuracy":false,"lon":23.0868,"lat":37.9173,"course":241.4,"heading":511,"second":10,"maneuver":0,"raim":false,"radio":16458}
$GPGGA,165309,3755.3232,N,02301.0145,E,1,12,0.73,7.98,M,35.000,M,,*49
$GPRMC,165309,A,3755.3232,N,02301.0145,E,0.0000,0.000,140914,,*28
$GPGSA,A,3,11,32,14,22,1,27,23,4,31,28,19,20,1.3,0.7,1.1*30
{"class":"TPV","device":"nmea2000://vcan0","mode":3,"time":"2014-09-14T16:53:09.000Z","ept":0.005,"lat":37.922053400,"lon":23.016909000,"alt":7.977,"epx":7.286,"epy":8.304,"epv":24.150,"track":0.0000,"speed":0.000,"climb":0.000,"eps":16.61,"epc":48.30}
$GPGGA,165309,3755.3232,N,02301.0145,E,1,12,0.73,7.98,M,35.000,M,,*49
$GPRMC,165309,A,3755.3232,N,02301.0145,E,0.0000,0.000,140914,,*28
$GPGSA,A,3,11,32,14,22,1,27,23,4,31,28,19,20,1.3,0.7,1.1*30
$GPGBS,165309,7.29,M,8.30,M,24.15,M*03
{"class":"TPV","device":"nmea2000://vcan0","mode":3,"time":"2014-09-14T16:53:09.000Z","ept":0.005,"lat":37.922053400,"lon":23.016909000,"alt":7.977,"epx":7.286,"epy":8.304,"epv":24.150,"track":0.0000,"speed":0.000,"climb":0.000,"eps":16.61,"epc":48.30}
$GPGSA,A,3,11,32,14,22,1,27,23,4,31,28,19,20,1.3,0.7,1.1*30
{"class":"TPV","device":"nmea2000://vcan0","mode":3,"time":"2014-09-14T16:53:09.000Z","ept":0.005,"lat":37.922053400,"lon":23.016909000,"alt":7.977,"epx":7.286,"epy":8.304,"epv":24.150,"track":0.0000,"speed":0.000,"climb":0.000,"eps":16.61,"epc":48.30}
$GPGGA,165309,3755.3232,N,02301.0145,E,1,12,0.73,7.98,M,35.000,M,,*49
$GPRMC,165309,A,3755.3232,N,02301.0145,E,0.0000,0.000,140914,,*28
$GPGSA,A,3,11,32,14,22,1,27,23,4,31,28,19,20,1.3,0.7,1.1*30
$GPGBS,165309,7.29,M,8.30,M,24.15,M*03
{"class":"TPV","device":"nmea2000://vcan0","mode":3,"time":"2014-09-14T16:53:09.000Z","ept":0.005,"lat":37.922053400,"lon":23.016909000,"alt":7.977,"epx":7.286,"epy":8.304,"epv":24.150,"track":0.0000,"speed":0.000,"climb":0.000,"eps":16.61,"epc":48.30}
$GPGGA,165309,3755.3232,N,02301.0145,E,1,12,0.73,7.98,M,35.000,M,,*49
$GPRMC,165309,A,3755.3232,N,02301.0145,E,0.0000,0.000,140914,,*28
$GPGSA,A,3,11,32,14,22,1,27,23,4,31,28,19,20,1.3,0.7,1.1*30
{"class":"TPV","device":"nmea2000://vcan0","mode":3,"time":"2014-09-14T16:53:09.000Z","ept":0.005,"lat":37.922053400,"lon":23.016909000,"alt":7.977,"epx":7.286,"epy":8.304,"epv":24.150,"track":0.0000,"speed":0.000,"climb":0.000,"eps":16.61,"epc":48.30}
{"class":"ATT","device":"nmea2000://vcan0:17","depth":9.170}
$GPGSA,A,3,11,32,14,22,1,27,23,4,31,28,19,20,1.3,0.7,1.1*30
$GPGBS,165309,7.29,M,8.30,M,24.15,M*03
{"class":"TPV","device":"nmea2000://vcan0","mode":3,"time":"2014-09-14T16:53:09.000Z","ept":0.005,"lat":37.922053400,"lon":23.016909000,"alt":7.977,"epx":7.286,"epy":8.304,"epv":24.150,"track":0.0000,"speed":0.000,"climb":0.000,"eps":16.61,"epc":48.30}
$GPGGA,165309,3755.3232,N,02301.0145,E,1,12,0.73,7.98,M,35.000,M,,*49
$GPRMC,165309,A,3755.3232,N,02301.0145,E,0.0000,0.000,140914,,*28
$GPGSA,A,3,11,32,14,22,1,27,23,4,31,28,19,20,1.3,0.7,1.1*30
{"class":"TPV","device":"nmea2000://vcan0","mode":3,"time":"2014-09-14T16:53:09.000Z","ept":0.005,"lat":37.922053400,"lon":23.016909000,"alt":7.977,"epx":7.286,"epy":8.304,"epv":24.150,"track":0.0000,"speed":0.000,"climb":0.000,"eps":16.61,"epc":48.30}
$GPGGA,165309,3755.3232,N,02301.0145,E,1,12,0.73,7.98,M,35.000,M,,*49
$GPRMC,165309,A,3755.3232,N,02301.0145,E,0.0000,0.000,140914,,*28
$GPGSA,A,3,11,32,14,22,1,27,23,4,31,28,19,20,1.3,0.7,1.1*30
$GPGBS,165309,7.29,M,8.30,M,24.15,M*03
{"class":"TPV","device":"nmea2000://vcan0","mode":3,"time":"2014-09-14T16:53:09.000Z","ept":0.005,"lat":37.922053400,"lon":23.016909000,"alt":7.977,"epx":7.286,"epy":8.304,"epv":24.150,"track":0.0000,"speed":0.000,"climb":0.000,"eps":16.61,"epc":48.30}
$GPGGA,165309,3755.3232,N,02301.0145,E,1,12,0.73,7.98,M,35.000,M,,*49
$GPRMC,165309,A,3755.3232,N,02301.0145,E,0.0000,0.000,140914,,*28
$GPGSA,A,3,11,32,14,22,1,27,23,4,31,28,19,20,1.3,0.7,1.1*30
{"class":"TPV","device":"nmea2000://vcan0","mode":3,"time":"2014-09-14T16:53:09.000Z","ept":0.005,"lat":37.922053400,"lon":23.016909000,"alt":7.977,"epx":7.286,"epy":8.304,"epv":24.150,"track":0.0000,"speed":0.000,"climb":0.000,"eps":16.61,"epc":48.30}
$GPGSA,A,3,11,32,14,22,1,27,23,4,31,28,19,20,1.3,0.7,1.1*30
$GPGBS,165309,7.29,M,8.30,M,24.15,M*03
{"class":"TPV","device":"nmea2000://vcan0","mode":3,"time":"2014-09-14T16:53:09.000Z","ept":0.005,"lat":37.922053400,"lon":23.016909000,"alt":7.977,"epx":7.286,"epy":8.304,"epv":24.150,"track":0.0000,"speed":0.000,"climb":0.000,"eps":16.61,"epc":48.30}
$GPGGA,165309,3755.3232,N,02301.0145,E,1,12,0.73,7.98,M,35.000,M,,*49
$GPRMC,165309,A,3755.3232,N,02301.0145,E,0.0000,0.000,140914,,*28
$GPGSA,A,3,11,32,14,22,1,27,23,4,31,28,19,20,1.3,0.7,1.1*30
{"class":"TPV","device":"nmea2000://vcan0","mode":3,"time":"2014-09-14T16:53:09.000Z","ept":0.005,"lat":37.922053400,"lon":23.016909000,"alt":7.977,"epx":7.286,"epy":8.304,"epv":24.150,"track":0.0000,"speed":0.000,"climb":0.000,"eps":16.61,"epc":48.30}
$GPZDA,165310.00,14,09,2014,00,00*6D
$GPGSA,A,3,11,32,14,22,1,27,23,4,31,28,19,20,1.3,0.7,1.1*30
$GPGBS,165310,7.29,M,8.30,M,24.15,M*0B
{"class":"TPV","device":"nmea2000://vcan0","mode":3,"time":"2014-09-14T16:53:10.000Z","ept":0.005,"lat":37.922053400,"lon":23.016909000,"alt":7.977,"epx":7.286,"epy":8.304,"epv":24.150,"track":0.0000,"speed":0.000,"climb":0.000,"eps":16.61,"epc":48.30}
$GPGSA,A,3,11,32,14,22,1,27,23,4,31,28,19,20,1.3,0.7,1.1*30
{"class":"TPV","device":"nmea2000://vcan0","mode":3,"time":"2014-09-14T16:53:10.000Z","ept":0.005,"lat":37.922053400,"lon":23.016909000,"alt":7.977,"epx":7.286,"epy":8.304,"epv":24.150,"track":0.0000,"speed":0.000,"climb":0.000,"eps":16.61,"epc":48.30}
$GPGSV,3,1,12,11,77,292,44,32,71,311,48,14,33,048,45,22,14,066,45*75
$GPGSV,3,2,12,01,53,319,50,27,16,171,42,23,10,207,43,04,30,309,46*7C
$GPGSV,3,3,12,31,15,115,46,28,06,293,35,19,42,188,47,20,31,270,45*71
{"class":"SKY","device":"nmea2000://vcan0","time":"1970-01-01T00:00:00.000Z","xdop":0.49,"ydop":0.55,"vdop":1.05,"tdop":1.00,"hdop":0.73,"gdop":1.42,"pdop":1.28,"satellites":[{"PRN":11,"el":77,"az":292,"ss":44,"used":true},{"PRN":32,"el":71,"az":311,"ss":48,"used":true},{"PRN":14,"el":33,"az":48,"ss":45,"used":true},{"PRN":22,"el":14,"az":66,"ss":45,"used":true},{"PRN":1,"el":53,"az":319,"ss":50,"used":true},{"PRN":27,"el":16,"az":171,"ss":42,"used":true},{"PRN":23,"el":10,"az":207,"ss":43,"used":true},{"PRN":4,"el":30,"az":309,"ss":46,"used":true},{"PRN":31,"el":15,"az":115,"ss":46,"used":true},{"PRN":28,"el":6,"az":293,"ss":35,"used":true},{"PRN":19,"el":42,"az":188,"ss":47,"used":true},{"PRN":20,"el":31,"az":270,"ss":45,"used":true}]}
$GPZDA,165310.00,14,09,2014,00,00*6D
$GPGGA,165310,3755.3232,N,02301.0145,E,1,12,0.73,7.98,M,35.000,M,,*41
$GPRMC,165310,A,3755.3232,N,02301.0145,E,0.0000,0.000,140914,,*20
$GPGSA,A,3,11,32,14,22,1,27,23,4,31,28,19,20,1.3,0.7,1.1*30
{"class":"TPV","device":"nmea2000://vcan0","mode":3,"time":"2014-09-14T16:53:10.000Z","ept":0.005,"lat":37.922053451,"lon":23.016909028,"alt":7.977,"epx":7.286,"epy":8.304,"epv":24.150,"track":0.0000,"speed":0.000,"climb":0.000,"eps":16.61,"epc":48.30}
$GPGGA,165310,3755.3232,N,02301.0145,E,1,12,0.73,7.98,M,35.000,M,,*41
$GPRMC,165310,A,3755.3232,N,02301.0145,E,0.0000,0.000,140914,,*20
$GPGSA,A,3,11,32,14,22,1,27,23,4,31,28,19,20,1.3,0.7,1.1*30
$GPGBS,165310,7.29,M,8.30,M,24.15,M*0B
{"class":"TPV","device":"nmea2000://vcan0","mode":3,"time":"2014-09-14T16:53:10.000Z","ept":0.005,"lat":37.922053400,"lon":23.016909000,"alt":7.977,"epx":7.286,"epy":8.304,"epv":24.150,"track":0.0000,"speed":0.000,"climb":0.000,"eps":16.61,"epc":48.30}
$GPGSA,A,3,11,32,14,22,1,27,23,4,31,28,19,20,1.3,0.7,1.1*30
{"class":"TPV","device":"nmea2000://vcan0","mode":3,"time":"2014-09-14T16:53:10.000Z","ept":0.005,"lat":37.922053400,"lon":23.016909000,"alt":7.977,"epx":7.286,"epy":8.304,"epv":24.150,"track":0.0000,"speed":0.050,"climb":0.000,"eps":16.61,"epc":48.30}
$GPGGA,165310,3755.3232,N,02301.0145,E,1,12,0.73,7.98,M,35.000,M,,*41
$GPRMC,165310,A,3755.3232,N,02301.0145,E,0.0972,0.000,140914,,*2C
$GPGSA,A,3,11,32,14,22,1,27,23,4,31,28,19,20,1.3,0.7,1.1*30
$GPGBS,165310,7.29,M,8.30,M,24.15,M*0B
{"class":"TPV","device":"nmea2000://vcan0","mode":3,"time":"2014-09-14T16:53:10.000Z","ept":0.005,"lat":37.922053400,"lon":23.016909000,"alt":7.977,"epx":7.286,"epy":8.304,"epv":24.150,"track":0.0000,"speed":0.050,"climb":0.000,"eps":16.61,"epc":48.30}
$GPGGA,165310,3755.3232,N,02301.0145,E,1,12,0.73,7.98,M,35.000,M,,*41
$GPRMC,165310,A,3755.3232,N,02301.0145,E,0.0972,0.000,140914,,*2C
$GPGSA,A,3,11,32,14,22,1,27,23,4,31,28,19,20,1.3,0.7,1.1*30
{"class":"TPV","device":"nmea2000://vcan0","mode":3,"time":"2014-09-14T16:53:10.000Z","ept":0.005,"lat":37.922053400,"lon":23.016909000,"alt":7.977,"epx":7.286,"epy":8.304,"epv":24.150,"track":0.0000,"speed":0.050,"climb":0.000,"eps":16.61,"epc":48.30}
$GPGGA,165310,3755.3232,N,02301.0145,E,1,12,0.73,7.98,M,35.000,M,,*41
$GPRMC,165310,A,3755.3232,N,02301.0145,E,0.0972,0.000,140914,,*2C
$GPGSA,A,3,11,32,14,22,1,27,23,4,31,28,19,20,1.3,0.7,1.1*30
$GPGBS,165310,7.29,M,8.30,M,24.15,M*0B
{"class":"TPV","device":"nmea2000://vcan0","mode":3,"time":"2014-09-14T16:53:10.000Z","ept":0.005,"lat":37.922053400,"lon":23.016909000,"alt":7.977,"epx":7.286,"epy":8.304,"epv":24.150,"track":0.0000,"speed":0.050,"climb":0.000,"eps":16.61,"epc":48.30}
$GPGSA,A,3,11,32,14,22,1,27,23,4,31,28,19,20,1.3,0.7,1.1*30
{"class":"TPV","device":"nmea2000://vcan0","mode":3,"time":"2014-09-14T16:53:10.000Z","ept":0.005,"lat":37.922053400,"lon":23.016909000,"alt":7.977,"epx":7.286,"epy":8.304,"epv":24.150,"track":0.0000,"speed":0.050,"climb":0.000,"eps":16.61,"epc":48.30}
$GPGGA,165310,3755.3232,N,02301.0145,E,1,12,0.73,7.98,M,35.000,M,,*41
$GPRMC,165310,A,3755.3232,N,02301.0145,E,0.0972,0.000,140914,,*2C
$GPGSA,A,3,11,32,14,22,1,27,23,4,31,28,19,20,1.3,0.7,1.1*30
$GPGBS,165310,7.29,M,8.30,M,24.15,M*0B
{"class":"TPV","device":"nmea2000://vcan0","mode":3,"time":"2014-09-14T16:53:10.000Z","ept":0.005,"lat":37.922053400,"lon":23.016909000,"alt":7.977,"epx":7.286,"epy":8.304,"epv":24.150,"track":0.0000,"speed":0.050,"climb":0.000,"eps":16.61,"epc":48.30}
$GPGGA,165310,3755.3232,N,02301.0145,E,1,12,0.73,7.98,M,35.000,M,,*41
$GPRMC,165310,A,3755.3232,N,02301.0145,E,0.0972,0.000,140914,,*2C
$GPGSA,A,3,11,32,14,22,1,27,23,4,31,28,19,20,1.3,0.7,1.1*30
{"class":"TPV","device":"nmea2000://vcan0","mode":3,"time":"2014-09-14T16:53:10.000Z","ept":0.005,"lat":37.922053400,"lon":23.016909000,"alt":7.977,"epx":7.286,"epy":8.304,"epv":24.150,"track":0.0000,"speed":0.050,"climb":0.000,"eps":16.61,"epc":48.30}
{"class":"ATT","device":"nmea2000://vcan0:17","depth":9.170}
$GPGSA,A,3,11,32,14,22,1,27,23,4,31,28,19,20,1.3,0.7,1.1*30
$GPGBS,165310,7.29,M,8.30,M,24.15,M*0B
{"class":"TPV","device":"nmea2000://vcan0","mode":3,"time":"2014-09-14T16:53:10.000Z","ept":0.005,"lat":37.922053400,"lon":23.016909000,"alt":7.977,"epx":7.286,"epy":8.304,"epv":24.150,"track":0.0000,"speed":0.050,"climb":0.000,"eps":16.61,"epc":48.30}
$GPGGA,165310,3755.3232,N,02301.0145,E,1,12,0.73,7.98,M,35.000,M,,*41
$GPRMC,165310,A,3755.3232,N,02301.0145,E,0.0972,0.000,140914,,*2C
$GPGSA,A,3,11,32,14,22,1,27,23,4,31,28,19,20,1.3,0.7,1.1*30
{"class":"TPV","device":"nmea2000://vcan0","mode":3,"time":"2014-09-14T16:53:10.000Z","ept":0.005,"lat":37.922053400,"lon":23.016909000,"alt":7.977,"epx":7.286,"epy":8.304,"epv":24.150,"track":0.0000,"speed":0.050,"climb":0.000,"eps":16.61,"epc":48.30}
$GPGGA,165310,3755.3232,N,02301.0145,E,1,12,0.73,7.98,M,35.000,M,,*41
$GPRMC,165310,A,3755.3232,N,02301.0145,E,0.0972,0.000,140914,,*2C
$GPGSA,A,3,11,32,14,22,1,27,23,4,31,28,19,20,1.3,0.7,1.1*30
$GPGBS,165310,7.29,M,8.30,M,24.15,M*0B
{"class":"TPV","device":"nmea2000://vcan0","mode":3,"time":"2014-09-14T16:53:10.000Z","ept":0.005,"lat":37.922053400,"lon":23.016909000,"alt":7.977,"epx":7.286,"epy":8.304,"epv":24.150,"track":0.0000,"speed":0.050,"climb":0.000,"eps":16.61,"epc":48.30}
$GPGGA,165310,3755.3232,N,02301.0145,E,1,12,0.73,7.98,M,35.000,M,,*41
$GPRMC,165310,A,3755.3232,N,02301.0145,E,0.0972,0.000,140914,,*2C
$GPGSA,A,3,11,32,14,22,1,27,23,4,31,28,19,20,1.3,0.7,1.1*30
{"class":"TPV","device":"nmea2000://vcan0","mode":3,"time":"2014-09-14T16:53:10.000Z","ept":0.005,"lat":37.922053400,"lon":23.016909000,"alt":7.977,"epx":7.286,"epy":8.304,"epv":24.150,"track":0.0000,"speed":0.050,"climb":0.000,"eps":16.61,"epc":48.30}
$GPGSA,A,3,11,32,14,22,1,27,23,4,31,28,19,20,1.3,0.7,1.1*30
$GPGBS,165310,7.29,M,8.30,M,24.15,M*0B
{"class":"TPV","device":"nmea2000://vcan0","mode":3,"time":"2014-09-14T16:53:10.000Z","ept":0.005,"lat":37.922053400,"lon":23.016909000,"alt":7.977,"epx":7.286,"epy":8.304,"epv":24.150,"track":0.0000,"speed":0.050,"climb":0.000,"eps":16.61,"epc":48.30}
$GPGGA,165310,3755.3232,N,02301.0145,E,1,12,0.73,7.98,M,35.000,M,,*41
$GPRMC,165310,A,3755.3232,N,02301.0145,E,0.0972,0.000,140914,,*2C
$GPGSA,A,3,11,32,14,22,1,27,23,4,31,28,19,20,1.3,0.7,1.1*30
