$GPGGA,193221.00,2037.72792,N,08704.08478,W,1,04,1.7,-30.40,M,-13.9,M,,*7D
{"class":"TPV","mode":3,"lat":20.628798667,"lon":-87.068079667,"altHAE":-44.300,"altMSL":-30.400,"magvar":-2.0,"geoidSep":-13.900,"eph":32.300}
$GPGSA,A,3,10,28,09,13,,,,,,,,,03.4,01.7,03.0*00
{"class":"TPV","mode":3,"lat":20.628798667,"lon":-87.068079667,"altHAE":-44.300,"altMSL":-30.400,"epv":69.000,"magvar":-2.0,"geoidSep":-13.900,"eph":32.300,"sep":64.600}
$GPGSV,3,1,12,28,14,150,41,09,15,254,41,10,43,192,47,13,06,081,36*7A
$GPGSV,3,2,12,02,56,323,,04,41,024,,12,31,317,,17,31,085,*72
$GPGSV,3,3,12,05,15,318,,24,02,246,,33,08,096,,35,45,118,*7D
{"class":"SKY","xdop":0.76,"ydop":1.60,"vdop":3.00,"tdop":0.99,"hdop":1.70,"gdop":3.70,"pdop":3.40,"satellites":[{"PRN":28,"el":14.0,"az":150.0,"ss":41.0,"used":true,"gnssid":0,"svid":28},{"PRN":9,"el":15.0,"az":254.0,"ss":41.0,"used":true,"gnssid":0,"svid":9},{"PRN":10,"el":43.0,"az":192.0,"ss":47.0,"used":true,"gnssid":0,"svid":10},{"PRN":13,"el":6.0,"az":81.0,"ss":36.0,"used":true,"gnssid":0,"svid":13},{"PRN":2,"el":56.0,"az":323.0,"ss":0.0,"used":false,"gnssid":0,"svid":2},{"PRN":4,"el":41.0,"az":24.0,"ss":0.0,"used":false,"gnssid":0,"svid":4},{"PRN":12,"el":31.0,"az":317.0,"ss":0.0,"used":false,"gnssid":0,"svid":12},{"PRN":17,"el":31.0,"az":85.0,"ss":0.0,"used":false,"gnssid":0,"svid":17},{"PRN":5,"el":15.0,"az":318.0,"ss":0.0,"used":false,"gnssid":0,"svid":5},{"PRN":24,"el":2.0,"az":246.0,"ss":0.0,"used":false,"gnssid":0,"svid":24},{"PRN":33,"el":8.0,"az":96.0,"ss":0.0,"used":false,"gnssid":1,"svid":120},{"PRN":35,"el":45.0,"az":118.0,"ss":0.0,"used":false,"gnssid":1,"svid":122}]}
$GPRMC,193221.00,A,2037.7279,N,08704.0848,W,00.1,201.8,231207,01,W,A*2D
{"class":"TPV","mode":3,"time":"2007-12-23T19:32:21.000Z","ept":0.005,"lat":20.628798333,"lon":-87.068080000,"altHAE":-44.300,"altMSL":-30.400,"epx":11.444,"epy":24.060,"epv":69.000,"track":201.8000,"magtrack":200.8000,"magvar":-1.0,"speed":0.051,"geoidSep":-13.900,"eph":32.300,"sep":64.600}
$GPZDA,193223.00,23,12,2007,00,00*69
$GPGGA,193222.00,2037.72832,N,08704.08469,W,1,04,1.7,-30.00,M,-13.9,M,,*7F
$GPGSA,A,3,10,09,28,13,,,,,,,,,03.4,01.7,03.0*00
$GPGSV,3,1,12,28,14,150,40,09,15,254,41,10,43,192,47,13,06,081,36*7B
$GPGSV,3,2,12,02,56,323,,04,41,024,,12,31,317,,17,31,085,*72
$GPGSV,3,3,12,05,15,318,,24,02,246,,33,08,096,39,35,45,118,*77
{"class":"SKY","xdop":0.76,"ydop":1.60,"vdop":3.00,"tdop":0.99,"hdop":1.70,"gdop":3.70,"pdop":3.40,"satellites":[{"PRN":28,"el":14.0,"az":150.0,"ss":40.0,"used":true,"gnssid":0,"svid":28},{"PRN":9,"el":15.0,"az":254.0,"ss":41.0,"used":true,"gnssid":0,"svid":9},{"PRN":10,"el":43.0,"az":192.0,"ss":47.0,"used":true,"gnssid":0,"svid":10},{"PRN":13,"el":6.0,"az":81.0,"ss":36.0,"used":true,"gnssid":0,"svid":13},{"PRN":2,"el":56.0,"az":323.0,"ss":0.0,"used":false,"gnssid":0,"svid":2},{"PRN":4,"el":41.0,"az":24.0,"ss":0.0,"used":false,"gnssid":0,"svid":4},{"PRN":12,"el":31.0,"az":317.0,"ss":0.0,"used":false,"gnssid":0,"svid":12},{"PRN":17,"el":31.0,"az":85.0,"ss":0.0,"used":false,"gnssid":0,"svid":17},{"PRN":5,"el":15.0,"az":318.0,"ss":0.0,"used":false,"gnssid":0,"svid":5},{"PRN":24,"el":2.0,"az":246.0,"ss":0.0,"used":false,"gnssid":0,"svid":24},{"PRN":33,"el":8.0,"az":96.0,"ss":39.0,"used":false,"gnssid":1,"svid":120},{"PRN":35,"el":45.0,"az":118.0,"ss":0.0,"used":false,"gnssid":1,"svid":122}]}
$GPRMC,193222.00,A,2037.7283,N,08704.0847,W,00.0,201.8,231207,01,W,A*25
{"class":"TPV","mode":3,"time":"2007-12-23T19:32:22.000Z","ept":0.005,"lat":20.628805000,"lon":-87.068078333,"altHAE":-43.900,"altMSL":-30.000,"epx":11.444,"epy":24.060,"epv":69.000,"track":201.8000,"magtrack":200.8000,"magvar":-1.0,"speed":0.000,"geoidSep":-13.900,"eph":32.300,"sep":64.600}
$GPZDA,193224.00,23,12,2007,00,00*6E
$GPGGA,193223.00,2037.72880,N,08704.08455,W,1,04,1.7,-29.55,M,-13.9,M,,*70
$GPGSA,A,3,10,09,28,13,,,,,,,,,03.4,01.7,03.0*00
$GPGSV,3,1,12,28,14,150,39,09,15,254,41,10,43,192,47,13,06,081,36*75
$GPGSV,3,2,12,02,56,323,,04,41,024,,12,31,317,,17,31,085,*72
$GPGSV,3,3,12,05,15,318,,24,02,246,,33,08,096,,35,45,118,*7D
{"class":"SKY","xdop":0.76,"ydop":1.60,"vdop":3.00,"tdop":0.99,"hdop":1.70,"gdop":3.70,"pdop":3.40,"satellites":[{"PRN":28,"el":14.0,"az":150.0,"ss":39.0,"used":true,"gnssid":0,"svid":28},{"PRN":9,"el":15.0,"az":254.0,"ss":41.0,"used":true,"gnssid":0,"svid":9},{"PRN":10,"el":43.0,"az":192.0,"ss":47.0,"used":true,"gnssid":0,"svid":10},{"PRN":13,"el":6.0,"az":81.0,"ss":36.0,"used":true,"gnssid":0,"svid":13},{"PRN":2,"el":56.0,"az":323.0,"ss":0.0,"used":false,"gnssid":0,"svid":2},{"PRN":4,"el":41.0,"az":24.0,"ss":0.0,"used":false,"gnssid":0,"svid":4},{"PRN":12,"el":31.0,"az":317.0,"ss":0.0,"used":false,"gnssid":0,"svid":12},{"PRN":17,"el":31.0,"az":85.0,"ss":0.0,"used":false,"gnssid":0,"svid":17},{"PRN":5,"el":15.0,"az":318.0,"ss":0.0,"used":false,"gnssid":0,"svid":5},{"PRN":24,"el":2.0,"az":246.0,"ss":0.0,"used":false,"gnssid":0,"svid":24},{"PRN":33,"el":8.0,"az":96.0,"ss":0.0,"used":false,"gnssid":1,"svid":120},{"PRN":35,"el":45.0,"az":118.0,"ss":0.0,"used":false,"gnssid":1,"svid":122}]}
$GPRMC,193223.00,A,2037.7288,N,08704.0846,W,00.1,201.8,231207,01,W,A*2F
{"class":"TPV","mode":3,"time":"2007-12-23T19:32:23.000Z","ept":0.005,"lat":20.628813333,"lon":-87.068076667,"altHAE":-43.450,"altMSL":-29.550,"epx":11.444,"epy":24.060,"epv":69.000,"track":201.8000,"magtrack":200.8000,"magvar":-1.0,"speed":0.051,"geoidSep":-13.900,"eph":32.300,"sep":64.600}
$GPZDA,193225.00,23,12,2007,00,00*6F
$GPGGA,193224.00,2037.72912,N,08704.08451,W,1,04,1.7,-29.53,M,-13.9,M,,*7F
$GPGSA,A,3,10,09,28,13,,,,,,,,,03.4,01.7,03.0*00
$GPGSV,3,1,12,28,14,150,39,09,15,254,41,10,43,192,47,13,06,081,36*75
$GPGSV,3,2,12,02,56,323,,04,41,024,,12,31,317,,17,31,085,*72
$GPGSV,3,3,12,05,15,318,,24,02,246,,33,08,096,,35,45,118,*7D
{"class":"SKY","xdop":0.76,"ydop":1.60,"vdop":3.00,"tdop":0.99,"hdop":1.70,"gdop":3.70,"pdop":3.40,"satellites":[{"PRN":28,"el":14.0,"az":150.0,"ss":39.0,"used":true,"gnssid":0,"svid":28},{"PRN":9,"el":15.0,"az":254.0,"ss":41.0,"used":true,"gnssid":0,"svid":9},{"PRN":10,"el":43.0,"az":192.0,"ss":47.0,"used":true,"gnssid":0,"svid":10},{"PRN":13,"el":6.0,"az":81.0,"ss":36.0,"used":true,"gnssid":0,"svid":13},{"PRN":2,"el":56.0,"az":323.0,"ss":0.0,"used":false,"gnssid":0,"svid":2},{"PRN":4,"el":41.0,"az":24.0,"ss":0.0,"used":false,"gnssid":0,"svid":4},{"PRN":12,"el":31.0,"az":317.0,"ss":0.0,"used":false,"gnssid":0,"svid":12},{"PRN":17,"el":31.0,"az":85.0,"ss":0.0,"used":false,"gnssid":0,"svid":17},{"PRN":5,"el":15.0,"az":318.0,"ss":0.0,"used":false,"gnssid":0,"svid":5},{"PRN":24,"el":2.0,"az":246.0,"ss":0.0,"used":false,"gnssid":0,"svid":24},{"PRN":33,"el":8.0,"az":96.0,"ss":0.0,"used":false,"gnssid":1,"svid":120},{"PRN":35,"el":45.0,"az":118.0,"ss":0.0,"used":false,"gnssid":1,"svid":122}]}
$GPRMC,193224.00,A,2037.7291,N,08704.0845,W,00.0,201.8,231207,01,W,A*22
{"class":"TPV","mode":3,"time":"2007-12-23T19:32:24.000Z","ept":0.005,"lat":20.628818333,"lon":-87.068075000,"altHAE":-43.430,"altMSL":-29.530,"epx":11.444,"epy":24.060,"epv":69.000,"track":201.8000,"magtrack":200.8000,"magvar":-1.0,"speed":0.000,"geoidSep":-13.900,"eph":32.300,"sep":64.600}
$GPZDA,193226.00,23,12,2007,00,00*6C
$GPGGA,193225.00,2037.72949,N,08704.08443,W,1,04,1.7,-29.21,M,-13.9,M,,*76
$GPGSA,A,3,10,09,28,13,,,,,,,,,03.4,01.7,03.0*00
$GPGSV,4,1,13,28,13,151,39,09,15,253,42,10,43,192,48,13,06,081,36*7E
$GPGSV,4,2,13,02,56,325,,04,41,024,,12,32,317,,17,30,086,*73
$GPGSV,4,3,13,05,16,318,,24,03,247,,30,00,323,,33,08,096,*76
$GPGSV,4,4,13,35,45,118,*44
{"class":"SKY","xdop":0.77,"ydop":1.55,"vdop":3.00,"tdop":0.98,"hdop":1.70,"gdop":3.58,"pdop":3.40,"satellites":[{"PRN":28,"el":13.0,"az":151.0,"ss":39.0,"used":true,"gnssid":0,"svid":28},{"PRN":9,"el":15.0,"az":253.0,"ss":42.0,"used":true,"gnssid":0,"svid":9},{"PRN":10,"el":43.0,"az":192.0,"ss":48.0,"used":true,"gnssid":0,"svid":10},{"PRN":13,"el":6.0,"az":81.0,"ss":36.0,"used":true,"gnssid":0,"svid":13},{"PRN":2,"el":56.0,"az":325.0,"ss":0.0,"used":false,"gnssid":0,"svid":2},{"PRN":4,"el":41.0,"az":24.0,"ss":0.0,"used":false,"gnssid":0,"svid":4},{"PRN":12,"el":32.0,"az":317.0,"ss":0.0,"used":false,"gnssid":0,"svid":12},{"PRN":17,"el":30.0,"az":86.0,"ss":0.0,"used":false,"gnssid":0,"svid":17},{"PRN":5,"el":16.0,"az":318.0,"ss":0.0,"used":false,"gnssid":0,"svid":5},{"PRN":24,"el":3.0,"az":247.0,"ss":0.0,"used":false,"gnssid":0,"svid":24},{"PRN":30,"el":0.0,"az":323.0,"ss":0.0,"used":false,"gnssid":0,"svid":30},{"PRN":33,"el":8.0,"az":96.0,"ss":0.0,"used":false,"gnssid":1,"svid":120},{"PRN":35,"el":45.0,"az":118.0,"ss":0.0,"used":false,"gnssid":1,"svid":122}]}
$GPRMC,193225.00,A,2037.7295,N,08704.0844,W,00.1,201.8,231207,01,W,A*27
{"class":"TPV","mode":3,"time":"2007-12-23T19:32:25.000Z","ept":0.005,"lat":20.628825000,"lon":-87.068073333,"altHAE":-43.110,"altMSL":-29.210,"epx":11.444,"epy":24.060,"epv":69.000,"track":201.8000,"magtrack":200.8000,"magvar":-1.0,"speed":0.051,"geoidSep":-13.900,"eph":32.300,"sep":64.600}
$GPZDA,193227.00,23,12,2007,00,00*6D
$GPGGA,193226.00,2037.72992,N,08704.08433,W,1,04,1.7,-28.69,M,-13.9,M,,*79
$GPGSA,A,3,10,09,28,13,,,,,,,,,03.4,01.7,03.0*00
$GPGSV,4,1,13,28,13,151,41,09,15,253,41,10,43,192,48,13,06,081,36*72
$GPGSV,4,2,13,02,56,325,,04,41,024,,12,32,317,,17,30,086,*73
$GPGSV,4,3,13,05,16,318,,24,03,247,,30,00,323,,33,08,096,*76
$GPGSV,4,4,13,35,45,118,*44
{"class":"SKY","xdop":0.77,"ydop":1.55,"vdop":3.00,"tdop":0.98,"hdop":1.70,"gdop":3.58,"pdop":3.40,"satellites":[{"PRN":28,"el":13.0,"az":151.0,"ss":41.0,"used":true,"gnssid":0,"svid":28},{"PRN":9,"el":15.0,"az":253.0,"ss":41.0,"used":true,"gnssid":0,"svid":9},{"PRN":10,"el":43.0,"az":192.0,"ss":48.0,"used":true,"gnssid":0,"svid":10},{"PRN":13,"el":6.0,"az":81.0,"ss":36.0,"used":true,"gnssid":0,"svid":13},{"PRN":2,"el":56.0,"az":325.0,"ss":0.0,"used":false,"gnssid":0,"svid":2},{"PRN":4,"el":41.0,"az":24.0,"ss":0.0,"used":false,"gnssid":0,"svid":4},{"PRN":12,"el":32.0,"az":317.0,"ss":0.0,"used":false,"gnssid":0,"svid":12},{"PRN":17,"el":30.0,"az":86.0,"ss":0.0,"used":false,"gnssid":0,"svid":17},{"PRN":5,"el":16.0,"az":318.0,"ss":0.0,"used":false,"gnssid":0,"svid":5},{"PRN":24,"el":3.0,"az":247.0,"ss":0.0,"used":false,"gnssid":0,"svid":24},{"PRN":30,"el":0.0,"az":323.0,"ss":0.0,"used":false,"gnssid":0,"svid":30},{"PRN":33,"el":8.0,"az":96.0,"ss":0.0,"used":false,"gnssid":1,"svid":120},{"PRN":35,"el":45.0,"az":118.0,"ss":0.0,"used":false,"gnssid":1,"svid":122}]}
$GPRMC,193226.00,A,2037.7299,N,08704.0843,W,00.1,201.8,231207,01,W,A*2F
{"class":"TPV","mode":3,"time":"2007-12-23T19:32:26.000Z","ept":0.005,"lat":20.628831667,"lon":-87.068071667,"altHAE":-42.590,"altMSL":-28.690,"epx":11.544,"epy":23.220,"epv":69.000,"track":201.8000,"magtrack":200.8000,"magvar":-1.0,"speed":0.051,"geoidSep":-13.900,"eph":32.300,"sep":64.600}
$GPZDA,193228.00,23,12,2007,00,00*62
$GPGGA,193227.00,2037.73032,N,08704.08423,W,1,04,1.7,-28.28,M,-13.9,M,,*7E
$GPGSA,A,3,10,28,09,13,,,,,,,,,03.4,01.7,03.0*00
$GPGSV,4,1,13,28,13,151,41,09,15,253,41,10,43,192,48,13,06,081,36*72
$GPGSV,4,2,13,02,56,325,,04,41,024,,12,32,317,,17,30,086,*73
$GPGSV,4,3,13,05,16,318,,24,03,247,,30,00,323,,33,08,096,*76
$GPGSV,4,4,13,35,45,118,*44
{"class":"SKY","xdop":0.77,"ydop":1.55,"vdop":3.00,"tdop":0.98,"hdop":1.70,"gdop":3.58,"pdop":3.40,"satellites":[{"PRN":28,"el":13.0,"az":151.0,"ss":41.0,"used":true,"gnssid":0,"svid":28},{"PRN":9,"el":15.0,"az":253.0,"ss":41.0,"used":true,"gnssid":0,"svid":9},{"PRN":10,"el":43.0,"az":192.0,"ss":48.0,"used":true,"gnssid":0,"svid":10},{"PRN":13,"el":6.0,"az":81.0,"ss":36.0,"used":true,"gnssid":0,"svid":13},{"PRN":2,"el":56.0,"az":325.0,"ss":0.0,"used":false,"gnssid":0,"svid":2},{"PRN":4,"el":41.0,"az":24.0,"ss":0.0,"used":false,"gnssid":0,"svid":4},{"PRN":12,"el":32.0,"az":317.0,"ss":0.0,"used":false,"gnssid":0,"svid":12},{"PRN":17,"el":30.0,"az":86.0,"ss":0.0,"used":false,"gnssid":0,"svid":17},{"PRN":5,"el":16.0,"az":318.0,"ss":0.0,"used":false,"gnssid":0,"svid":5},{"PRN":24,"el":3.0,"az":247.0,"ss":0.0,"used":false,"gnssid":0,"svid":24},{"PRN":30,"el":0.0,"az":323.0,"ss":0.0,"used":false,"gnssid":0,"svid":30},{"PRN":33,"el":8.0,"az":96.0,"ss":0.0,"used":false,"gnssid":1,"svid":120},{"PRN":35,"el":45.0,"az":118.0,"ss":0.0,"used":false,"gnssid":1,"svid":122}]}
$GPRMC,193227.00,A,2037.7303,N,08704.0842,W,00.0,201.8,231207,01,W,A*2C
{"class":"TPV","mode":3,"time":"2007-12-23T19:32:27.000Z","ept":0.005,"lat":20.628838333,"lon":-87.068070000,"altHAE":-42.180,"altMSL":-28.280,"epx":11.544,"epy":23.220,"epv":69.000,"track":201.8000,"magtrack":200.8000,"magvar":-1.0,"speed":0.000,"geoidSep":-13.900,"eph":32.300,"sep":64.600}
