$PSRFEPE,074150.799,V,,,,,*23
$GNGGA,074150.799,,,,,0,00,,,M,0.0,M,,0000,*64
$GNGNS,074150.799,,,,,NNNN,00,,,0.0,,0000*63
$GPGSA,A,1,,,,,,,,,,,,,,,,*32
{"class":"TPV","mode":1}
$BDGSA,A,1,,,,,,,,,,,,,,,,*23
{"class":"TPV","mode":1}
$GPGSV,7,1,25,01,30,046,22,05,00,000,27,07,00,000,24,08,00,000,27*74
$GPGSV,7,2,25,09,27,171,25,11,00,000,29,12,00,000,42,14,31,261,49*76
$GPGSV,7,3,25,18,00,000,25,21,00,000,24,25,52,244,51,26,00,000,21*70
$GPGSV,7,4,25,28,00,000,27,29,49,174,42,32,14,319,46,31,55,220,*7F
$GPGSV,7,5,25,27,43,190,,15,30,319,,17,27,064,,10,24,021,*7F
$GPGSV,7,6,25,23,21,343,,02,19,139,,20,15,059,,24,14,014,*74
$GPGSV,7,7,25,04,08,012,*41
{"class":"SKY","satellites":[{"PRN":1,"el":30,"az":46,"ss":22,"used":false,"gnssid":0,"svid":1},{"PRN":5,"el":0,"az":0,"ss":27,"used":false,"gnssid":0,"svid":5},{"PRN":7,"el":0,"az":0,"ss":24,"used":false,"gnssid":0,"svid":7},{"PRN":8,"el":0,"az":0,"ss":27,"used":false,"gnssid":0,"svid":8},{"PRN":9,"el":27,"az":171,"ss":25,"used":false,"gnssid":0,"svid":9},{"PRN":11,"el":0,"az":0,"ss":29,"used":false,"gnssid":0,"svid":11},{"PRN":12,"el":0,"az":0,"ss":42,"used":false,"gnssid":0,"svid":12},{"PRN":14,"el":31,"az":261,"ss":49,"used":false,"gnssid":0,"svid":14},{"PRN":18,"el":0,"az":0,"ss":25,"used":false,"gnssid":0,"svid":18},{"PRN":21,"el":0,"az":0,"ss":24,"used":false,"gnssid":0,"svid":21},{"PRN":25,"el":52,"az":244,"ss":51,"used":false,"gnssid":0,"svid":25},{"PRN":26,"el":0,"az":0,"ss":21,"used":false,"gnssid":0,"svid":26},{"PRN":28,"el":0,"az":0,"ss":27,"used":false,"gnssid":0,"svid":28},{"PRN":29,"el":49,"az":174,"ss":42,"used":false,"gnssid":0,"svid":29},{"PRN":32,"el":14,"az":319,"ss":46,"used":false,"gnssid":0,"svid":32},{"PRN":31,"el":55,"az":220,"ss":0,"used":false,"gnssid":0,"svid":31},{"PRN":27,"el":43,"az":190,"ss":0,"used":false,"gnssid":0,"svid":27},{"PRN":15,"el":30,"az":319,"ss":0,"used":false,"gnssid":0,"svid":15},{"PRN":17,"el":27,"az":64,"ss":0,"used":false,"gnssid":0,"svid":17},{"PRN":10,"el":24,"az":21,"ss":0,"used":false,"gnssid":0,"svid":10},{"PRN":23,"el":21,"az":343,"ss":0,"used":false,"gnssid":0,"svid":23},{"PRN":2,"el":19,"az":139,"ss":0,"used":false,"gnssid":0,"svid":2},{"PRN":20,"el":15,"az":59,"ss":0,"used":false,"gnssid":0,"svid":20},{"PRN":24,"el":14,"az":14,"ss":0,"used":false,"gnssid":0,"svid":24},{"PRN":4,"el":8,"az":12,"ss":0,"used":false,"gnssid":0,"svid":4}]}
$BDGSV,2,1,07,01,00,000,45,02,01,090,35,03,00,000,38,04,00,000,42*6A
$BDGSV,2,2,07,05,27,090,,13,19,016,,11,07,147,*5E
{"class":"SKY","satellites":[{"PRN":1,"el":30,"az":46,"ss":22,"used":false,"gnssid":0,"svid":1},{"PRN":5,"el":0,"az":0,"ss":27,"used":false,"gnssid":0,"svid":5},{"PRN":7,"el":0,"az":0,"ss":24,"used":false,"gnssid":0,"svid":7},{"PRN":8,"el":0,"az":0,"ss":27,"used":false,"gnssid":0,"svid":8},{"PRN":9,"el":27,"az":171,"ss":25,"used":false,"gnssid":0,"svid":9},{"PRN":11,"el":0,"az":0,"ss":29,"used":false,"gnssid":0,"svid":11},{"PRN":12,"el":0,"az":0,"ss":42,"used":false,"gnssid":0,"svid":12},{"PRN":14,"el":31,"az":261,"ss":49,"used":false,"gnssid":0,"svid":14},{"PRN":18,"el":0,"az":0,"ss":25,"used":false,"gnssid":0,"svid":18},{"PRN":21,"el":0,"az":0,"ss":24,"used":false,"gnssid":0,"svid":21},{"PRN":25,"el":52,"az":244,"ss":51,"used":false,"gnssid":0,"svid":25},{"PRN":26,"el":0,"az":0,"ss":21,"used":false,"gnssid":0,"svid":26},{"PRN":28,"el":0,"az":0,"ss":27,"used":false,"gnssid":0,"svid":28},{"PRN":29,"el":49,"az":174,"ss":42,"used":false,"gnssid":0,"svid":29},{"PRN":32,"el":14,"az":319,"ss":46,"used":false,"gnssid":0,"svid":32},{"PRN":31,"el":55,"az":220,"ss":0,"used":false,"gnssid":0,"svid":31},{"PRN":27,"el":43,"az":190,"ss":0,"used":false,"gnssid":0,"svid":27},{"PRN":15,"el":30,"az":319,"ss":0,"used":false,"gnssid":0,"svid":15},{"PRN":17,"el":27,"az":64,"ss":0,"used":false,"gnssid":0,"svid":17},{"PRN":10,"el":24,"az":21,"ss":0,"used":false,"gnssid":0,"svid":10},{"PRN":23,"el":21,"az":343,"ss":0,"used":false,"gnssid":0,"svid":23},{"PRN":2,"el":19,"az":139,"ss":0,"used":false,"gnssid":0,"svid":2},{"PRN":20,"el":15,"az":59,"ss":0,"used":false,"gnssid":0,"svid":20},{"PRN":24,"el":14,"az":14,"ss":0,"used":false,"gnssid":0,"svid":24},{"PRN":4,"el":8,"az":12,"ss":0,"used":false,"gnssid":0,"svid":4},{"PRN":201,"el":0,"az":0,"ss":45,"used":false,"gnssid":3,"svid":1},{"PRN":202,"el":1,"az":90,"ss":35,"used":false,"gnssid":3,"svid":2},{"PRN":203,"el":0,"az":0,"ss":38,"used":false,"gnssid":3,"svid":3},{"PRN":204,"el":0,"az":0,"ss":42,"used":false,"gnssid":3,"svid":4},{"PRN":205,"el":27,"az":90,"ss":0,"used":false,"gnssid":3,"svid":5},{"PRN":213,"el":19,"az":16,"ss":0,"used":false,"gnssid":3,"svid":13},{"PRN":211,"el":7,"az":147,"ss":0,"used":false,"gnssid":3,"svid":11}]}
$GNRMC,074150.799,V,,,,,,,250215,,,N*52
$PSRFEPE,074151.799,V,,,,,*22
$GNGGA,074151.799,,,,,0,00,,,M,0.0,M,,0000,*65
$GNGNS,074151.799,,,,,NNNN,00,,,0.0,,0000*62
$GPGSA,A,1,,,,,,,,,,,,,,,,*32
$BDGSA,A,1,,,,,,,,,,,,,,,,*23
{"class":"TPV","mode":1}
$GNRMC,074151.799,V,,,,,,,250215,,,N*53
$PSRFEPE,074152.799,V,,,,,*21
$GNGGA,074152.799,,,,,0,00,,,M,0.0,M,,0000,*66
$GNGNS,074152.799,,,,,NNNN,00,,,0.0,,0000*61
$GPGSA,A,1,,,,,,,,,,,,,,,,*32
$BDGSA,A,1,,,,,,,,,,,,,,,,*23
{"class":"TPV","mode":1}
$GNRMC,074152.799,V,,,,,,,250215,,,N*50
$PSRF151,3,1833,28692,0x7EFFFFFF*15
$PSRFEPE,074153.799,V,,,,,*20
$GNGGA,074153.799,,,,,0,00,,,M,0.0,M,,0000,*67
$GNGNS,074153.799,,,,,NNNN,00,,,0.0,,0000*60
$GPGSA,A,1,,,,,,,,,,,,,,,,*32
$BDGSA,A,1,,,,,,,,,,,,,,,,*23
{"class":"TPV","mode":1}
$GNRMC,074153.799,V,,,,,,,250215,,,N*51
$PSRFEPE,074154.799,V,,,,,*27
$GNGGA,074154.799,,,,,0,00,,,M,0.0,M,,0000,*60
$GNGNS,074154.799,,,,,NNNN,00,,,0.0,,0000*67
$GPGSA,A,1,,,,,,,,,,,,,,,,*32
$BDGSA,A,1,,,,,,,,,,,,,,,,*23
{"class":"TPV","mode":1}
$GNRMC,074154.799,V,,,,,,,250215,,,N*56
$PSRFEPE,074155.799,A,1.3,10.59,52.97,0.6,180.0*16
$GNGGA,074155.799,3114.8770,N,12135.2463,E,1,05,1.3,156.9,M,8.3,M,,0000,4.9*77
{"class":"TPV","mode":3,"lat":31.247950000,"lon":121.587438333,"alt":156.900}
$GNGNS,074155.799,3114.8770,N,12135.2463,E,ANNA,05,1.3,156.9,8.3,,0000*52
$GPGSA,A,3,25,32,,,,,,,,,,,5.1,1.3,4.9,3.3*3D
$BDGSA,A,3,02,03,04,,,,,,,,,,5.1,1.3,4.9,3.3*2F
{"class":"TPV","mode":3,"lat":31.247950000,"lon":121.587438333,"alt":156.900,"epv":112.700}
$GPGSV,5,1,20,25,76,102,50,32,29,284,47,01,02,001,24,07,00,000,23*7A
$GPGSV,5,2,20,08,00,000,46,09,19,094,,12,00,000,44,14,68,202,49*7F
$GPGSV,5,3,20,18,13,225,27,20,00,000,29,22,16,229,37,26,00,000,24*77
$GPGSV,5,4,20,28,00,000,24,29,35,080,43,31,62,089,,15,42,298,*72
$GPGSV,5,5,20,27,40,094,,30,24,225,,23,22,310,,10,05,340,*77
$BDGSV,3,1,12,02,33,240,35,03,51,201,37,04,35,123,42,01,42,130,45*6B
$BDGSV,3,2,12,10,64,323,,07,64,320,,06,55,274,,14,50,284,*66
$BDGSV,3,3,12,09,44,299,,08,14,156,,05,11,258,,13,08,322,*6C
{"class":"SKY","xdop":0.91,"ydop":1.62,"vdop":4.90,"tdop":1.64,"hdop":1.30,"gdop":3.29,"pdop":5.10,"satellites":[{"PRN":25,"el":76,"az":102,"ss":50,"used":true,"gnssid":0,"svid":25},{"PRN":32,"el":29,"az":284,"ss":47,"used":true,"gnssid":0,"svid":32},{"PRN":1,"el":2,"az":1,"ss":24,"used":false,"gnssid":0,"svid":1},{"PRN":7,"el":0,"az":0,"ss":23,"used":false,"gnssid":0,"svid":7},{"PRN":8,"el":0,"az":0,"ss":46,"used":false,"gnssid":0,"svid":8},{"PRN":9,"el":19,"az":94,"ss":0,"used":false,"gnssid":0,"svid":9},{"PRN":12,"el":0,"az":0,"ss":44,"used":false,"gnssid":0,"svid":12},{"PRN":14,"el":68,"az":202,"ss":49,"used":false,"gnssid":0,"svid":14},{"PRN":18,"el":13,"az":225,"ss":27,"used":false,"gnssid":0,"svid":18},{"PRN":20,"el":0,"az":0,"ss":29,"used":false,"gnssid":0,"svid":20},{"PRN":22,"el":16,"az":229,"ss":37,"used":false,"gnssid":0,"svid":22},{"PRN":26,"el":0,"az":0,"ss":24,"used":false,"gnssid":0,"svid":26},{"PRN":28,"el":0,"az":0,"ss":24,"used":false,"gnssid":0,"svid":28},{"PRN":29,"el":35,"az":80,"ss":43,"used":false,"gnssid":0,"svid":29},{"PRN":31,"el":62,"az":89,"ss":0,"used":false,"gnssid":0,"svid":31},{"PRN":15,"el":42,"az":298,"ss":0,"used":false,"gnssid":0,"svid":15},{"PRN":27,"el":40,"az":94,"ss":0,"used":false,"gnssid":0,"svid":27},{"PRN":30,"el":24,"az":225,"ss":0,"used":false,"gnssid":0,"svid":30},{"PRN":23,"el":22,"az":310,"ss":0,"used":false,"gnssid":0,"svid":23},{"PRN":10,"el":5,"az":340,"ss":0,"used":false,"gnssid":0,"svid":10},{"PRN":202,"el":33,"az":240,"ss":35,"used":true,"gnssid":3,"svid":2},{"PRN":203,"el":51,"az":201,"ss":37,"used":true,"gnssid":3,"svid":3},{"PRN":204,"el":35,"az":123,"ss":42,"used":true,"gnssid":3,"svid":4},{"PRN":201,"el":42,"az":130,"ss":45,"used":false,"gnssid":3,"svid":1},{"PRN":210,"el":64,"az":323,"ss":0,"used":false,"gnssid":3,"svid":10},{"PRN":207,"el":64,"az":320,"ss":0,"used":false,"gnssid":3,"svid":7},{"PRN":206,"el":55,"az":274,"ss":0,"used":false,"gnssid":3,"svid":6},{"PRN":214,"el":50,"az":284,"ss":0,"used":false,"gnssid":3,"svid":14},{"PRN":209,"el":44,"az":299,"ss":0,"used":false,"gnssid":3,"svid":9},{"PRN":208,"el":14,"az":156,"ss":0,"used":false,"gnssid":3,"svid":8},{"PRN":205,"el":11,"az":258,"ss":0,"used":true,"gnssid":3,"svid":5},{"PRN":213,"el":8,"az":322,"ss":0,"used":false,"gnssid":3,"svid":13}]}
$GNRMC,074155.799,A,3114.8770,N,12135.2463,E,0.30,4.94,250215,,,A*76
{"class":"TPV","mode":3,"time":"2015-02-25T07:41:55.799Z","ept":0.005,"lat":31.247950000,"lon":121.587438333,"alt":156.900,"epx":13.701,"epy":24.264,"epv":112.700,"track":4.9400,"speed":0.154}
$PSRFEPE,074156.799,A,1.1,64.94,58.97,0.2,180.0*1B
$GNGGA,074156.799,3114.8950,N,12135.2442,E,1,07,1.1,190.7,M,8.3,M,,0000,1.8*7B
$GNGNS,074156.799,3114.8950,N,12135.2442,E,ANNA,07,1.1,190.7,8.3,,0000*5A
$GPGSA,A,3,25,32,14,12,,,,,,,,,2.1,1.1,1.8,1.2*39
$BDGSA,A,3,02,03,04,,,,,,,,,,2.1,1.1,1.8,1.2*2D
$GNRMC,074156.799,A,3114.8950,N,12135.2442,E,0.26,4.94,250215,,,A*7D
{"class":"TPV","mode":3,"time":"2015-02-25T07:41:56.799Z","ept":0.005,"lat":31.248250000,"lon":121.587403333,"alt":190.700,"epx":13.701,"epy":24.264,"epv":112.700,"track":4.9400,"speed":0.134,"climb":33.800,"epd":71.9479,"eps":48.53,"epc":225.40}
$PSRFEPE,074157.799,A,1.1,24.65,25.14,0.1,61.5*29
$GNGGA,074157.799,3114.8902,N,12135.2443,E,1,07,1.1,192.9,M,8.3,M,,0000,1.8*70
$GNGNS,074157.799,3114.8902,N,12135.2443,E,ANNA,07,1.1,192.9,8.3,,0000*51
$GPGSA,A,3,25,32,12,14,,,,,,,,,2.1,1.1,1.8,1.2*39
$BDGSA,A,3,02,03,04,,,,,,,,,,2.1,1.1,1.8,1.2*2D
$GNRMC,074157.799,A,3114.8902,N,12135.2443,E,0.32,4.94,250215,,,A*7F
{"class":"TPV","mode":3,"time":"2015-02-25T07:41:57.799Z","ept":0.005,"lat":31.248170000,"lon":121.587405000,"alt":192.900,"epx":13.701,"epy":24.264,"epv":41.400,"track":4.9400,"speed":0.165,"climb":2.200,"eps":48.53,"epc":154.10}
$PSRFEPE,074158.799,A,1.1,19.32,19.35,0.1,180.0*1D
$GNGGA,074158.799,3114.8953,N,12135.2439,E,1,07,1.1,198.5,M,8.3,M,,0000,1.8*70
$GNGNS,074158.799,3114.8953,N,12135.2439,E,ANNA,07,1.1,198.5,8.3,,0000*51
$GPGSA,A,3,25,32,12,14,,,,,,,,,2.1,1.1,1.8,1.2*39
$BDGSA,A,3,02,03,04,,,,,,,,,,2.1,1.1,1.8,1.2*2D
$GNRMC,074158.799,A,3114.8953,N,12135.2439,E,0.25,4.94,250215,,,A*7F
{"class":"TPV","mode":3,"time":"2015-02-25T07:41:58.799Z","ept":0.005,"lat":31.248255000,"lon":121.587398333,"alt":198.500,"epx":13.701,"epy":24.264,"epv":41.400,"track":4.9400,"speed":0.129,"climb":5.600,"eps":48.53,"epc":82.80}
$PSRFEPE,074159.799,A,1.1,14.86,15.59,0.2,180.0*1B
$GNGGA,074159.799,3114.8943,N,12135.2444,E,1,07,1.1,196.4,M,8.3,M,,0000,1.8*75
$GNGNS,074159.799,3114.8943,N,12135.2444,E,ANNA,07,1.1,196.4,8.3,,0000*54
$GPGSA,A,3,25,32,12,14,,,,,,,,,2.1,1.1,1.8,1.2*39
$BDGSA,A,3,02,03,04,,,,,,,,,,2.1,1.1,1.8,1.2*2D
$GNRMC,074159.799,A,3114.8943,N,12135.2444,E,0.23,4.94,250215,,,A*73
{"class":"TPV","mode":3,"time":"2015-02-25T07:41:59.799Z","ept":0.005,"lat":31.248238333,"lon":121.587406667,"alt":196.400,"epx":13.701,"epy":24.264,"epv":41.400,"track":4.9400,"speed":0.118,"climb":-2.100,"eps":48.53,"epc":82.80}
$PSRF151,3,1833,28693,0x7EFFD7FF*67
