# Name: Bluenext BN-9015
# Chipset: Skytraq Venus 6
# Submitter: Andrew Gray <andy_r_gray@hotmail.com>
# Date: 2010-06-12
# Location: Delft, NL, 52.01N  4.36E
# 
#     The sample was taken with the unit stationary on windowsill.
#     The log starts before the unit was powered on. The log ends
#     when I walked it about 3 meters from the bluetooth hub is was paired	
#     with.
#
#     (Duplicative leading and trailing sections were later removed 
#     to speed up testiing.)
$GPGGA,170951.999,5200.8499,N,00421.7860,E,0,00,0.0,48.8,M,0.0,M,,0000*5E
$GPGSA,A,1,,,,,,,,,,,,,0.0,0.0,0.0*30
$GPGSV,3,1,11,12,74,066,,30,67,271,40,14,44,268,,09,28,136,*77
$GPGSV,3,2,11,29,27,200,,02,25,101,,27,23,137,,04,21,055,*77
$GPGSV,3,3,11,31,18,305,,32,06,331,,20,02,354,*40
$GPRMC,170951.999,V,5200.8499,N,00421.7860,E,000.0,000.0,120610,,,N*75
$GPVTG,000.0,T,,M,000.0,N,000.0,K,N*02
$GPGGA,170952.972,5200.8499,N,00421.7860,E,0,00,0.0,48.8,M,0.0,M,,0000*58
$GPGSA,A,1,,,,,,,,,,,,,0.0,0.0,0.0*30
$GPGSV,3,1,11,12,73,067,,30,67,271,40,14,44,268,,09,28,136,*71
$GPGSV,3,2,11,29,27,200,,02,25,101,,27,23,137,,04,21,055,*77
$GPGSV,3,3,11,31,18,305,,32,06,331,,20,02,354,*40
$GPRMC,170952.972,V,5200.8499,N,00421.7860,E,000.0,000.0,120610,,,N*73
$GPVTG,000.0,T,,M,000.0,N,000.0,K,N*02
$GPGGA,170953.972,5200.8499,N,00421.7860,E,0,00,0.0,48.8,M,0.0,M,,0000*59
$GPGSA,A,1,,,,,,,,,,,,,0.0,0.0,0.0*30
$GPGSV,3,1,11,12,73,067,,30,67,271,39,14,44,268,,09,28,136,*7F
$GPGSV,3,2,11,29,27,200,,02,25,101,,27,23,137,,04,21,055,*77
$GPGSV,3,3,11,31,18,305,,32,06,331,,20,02,354,*40
$GPRMC,170953.972,V,5200.8499,N,00421.7860,E,000.0,000.0,120610,,,N*72
$GPVTG,000.0,T,,M,000.0,N,000.0,K,N*02
$GPGGA,170954.972,5200.8499,N,00421.7860,E,0,00,0.0,48.8,M,0.0,M,,0000*5E
$GPGSA,A,1,,,,,,,,,,,,,0.0,0.0,0.0*30
$GPGSV,3,1,11,12,73,067,32,30,67,271,38,14,44,267,,09,28,136,*70
$GPGSV,3,2,11,29,27,200,,02,25,101,,27,23,137,,04,21,055,*77
$GPGSV,3,3,11,31,18,305,,32,06,331,,20,02,354,*40
$GPRMC,170954.972,V,5200.8499,N,00421.7860,E,000.0,000.0,120610,,,N*75
$GPVTG,000.0,T,,M,000.0,N,000.0,K,N*02
$GPGGA,170955.972,5200.8499,N,00421.7860,E,0,00,0.0,48.8,M,0.0,M,,0000*5F
$GPGSA,A,1,,,,,,,,,,,,,0.0,0.0,0.0*30
$GPGSV,3,1,11,12,73,067,,30,67,271,39,14,44,267,,09,28,136,*70
$GPGSV,3,2,11,29,27,200,,02,25,101,,27,23,137,,04,21,055,*77
$GPGSV,3,3,11,31,18,305,,32,06,331,,20,02,354,*40
$GPRMC,170955.972,V,5200.8499,N,00421.7860,E,000.0,000.0,120610,,,N*74
$GPVTG,000.0,T,,M,000.0,N,000.0,K,N*02
$GPGGA,170956.972,5200.8499,N,00421.7860,E,0,00,0.0,48.8,M,0.0,M,,0000*5C
$GPGSA,A,1,,,,,,,,,,,,,0.0,0.0,0.0*30
$GPGSV,3,1,11,12,73,067,,30,67,271,39,14,44,267,,09,28,136,*70
$GPGSV,3,2,11,29,27,200,,02,25,101,,27,23,137,,04,21,055,*77
$GPGSV,3,3,11,31,18,305,,32,06,331,,20,02,354,*40
$GPRMC,170956.972,V,5200.8499,N,00421.7860,E,000.0,000.0,120610,,,N*77
$GPVTG,000.0,T,,M,000.0,N,000.0,K,N*02
$GPGGA,170957.972,5200.8499,N,00421.7860,E,0,00,0.0,48.8,M,0.0,M,,0000*5D
$GPGSA,A,1,,,,,,,,,,,,,0.0,0.0,0.0*30
$GPGSV,3,1,11,12,73,067,,30,67,271,39,14,44,267,,09,28,136,*70
$GPGSV,3,2,11,29,27,200,,02,25,101,,27,23,137,,04,21,055,*77
$GPGSV,3,3,11,31,18,305,,32,06,331,,20,02,354,*40
$GPRMC,170957.972,V,5200.8499,N,00421.7860,E,000.0,000.0,120610,,,N*76
$GPVTG,000.0,T,,M,000.0,N,000.0,K,N*02
$GPGGA,170958.972,5200.8499,N,00421.7860,E,0,00,0.0,48.8,M,0.0,M,,0000*52
$GPGSA,A,1,,,,,,,,,,,,,0.0,0.0,0.0*30
$GPGSV,3,1,11,12,73,067,,30,67,271,39,14,44,267,,09,28,136,*70
$GPGSV,3,2,11,29,27,200,,02,25,101,,27,23,137,,04,21,055,*77
$GPGSV,3,3,11,31,18,305,,32,06,331,,20,02,354,*40
$GPRMC,170958.972,V,5200.8499,N,00421.7860,E,000.0,000.0,120610,,,N*79
$GPVTG,000.0,T,,M,000.0,N,000.0,K,N*02
$GPGGA,170959.972,5200.8499,N,00421.7860,E,0,00,0.0,48.8,M,0.0,M,,0000*53
$GPGSA,A,1,,,,,,,,,,,,,0.0,0.0,0.0*30
$GPGSV,3,1,11,12,73,067,,30,67,271,38,14,44,267,,09,28,136,*71
$GPGSV,3,2,11,29,27,200,,02,25,101,,27,23,137,,04,21,055,*77
$GPGSV,3,3,11,31,18,305,,32,06,331,,20,02,354,*40
$GPRMC,170959.972,V,5200.8499,N,00421.7860,E,000.0,000.0,120610,,,N*78
$GPVTG,000.0,T,,M,000.0,N,000.0,K,N*02
$GPGGA,171000.972,5200.8499,N,00421.7860,E,0,00,0.0,48.8,M,0.0,M,,0000*57
$GPGSA,A,1,,,,,,,,,,,,,0.0,0.0,0.0*30
$GPGSV,3,1,11,12,73,067,,30,67,271,39,14,44,267,34,09,28,136,*77
$GPGSV,3,2,11,29,27,200,,02,25,101,,27,23,137,,04,21,055,*77
$GPGSV,3,3,11,31,18,305,,32,06,331,,20,02,354,*40
$GPRMC,171000.972,V,5200.8499,N,00421.7860,E,000.0,000.0,120610,,,N*7C
$GPVTG,000.0,T,,M,000.0,N,000.0,K,N*02
$GPGGA,171001.972,5200.8499,N,00421.7860,E,0,00,0.0,48.8,M,0.0,M,,0000*56
$GPGSA,A,1,,,,,,,,,,,,,0.0,0.0,0.0*30
$GPGSV,3,1,11,12,73,067,,30,67,271,39,14,44,267,34,09,28,136,*77
$GPGSV,3,2,11,29,27,200,,02,25,101,,27,23,137,,04,21,055,*77
$GPGSV,3,3,11,31,18,305,,32,06,331,,20,02,354,*40
$GPRMC,171001.972,V,5200.8499,N,00421.7860,E,000.0,000.0,120610,,,N*7D
$GPVTG,000.0,T,,M,000.0,N,000.0,K,N*02
$GPGGA,171002.972,5200.8519,N,00421.7812,E,1,08,1.0,8.8,M,44.8,M,,0000*5D
$GPGSA,A,3,14,30,09,29,02,27,04,31,,,,,2.3,1.0,2.0*35
$GPGSV,3,1,11,12,73,067,,30,67,271,39,14,44,267,33,09,28,136,26*74
$GPGSV,3,2,11,29,27,200,25,02,25,101,28,27,23,137,28,04,21,055,38*7B
$GPGSV,3,3,11,31,18,305,31,32,06,331,,20,02,354,*42
$GPRMC,171002.972,A,5200.8519,N,00421.7812,E,000.0,000.0,120610,,,A*6A
$GPVTG,000.0,T,,M,000.0,N,000.0,K,A*0D
$GPGGA,171003.972,5200.8519,N,00421.7819,E,1,08,1.0,8.8,M,44.8,M,,0000*57
$GPGSA,A,3,14,30,09,29,02,27,04,31,,,,,2.3,1.0,2.0*35
$GPGSV,3,1,11,12,73,067,,30,67,271,39,14,44,267,34,09,28,136,27*72
$GPGSV,3,2,11,29,27,200,27,02,25,101,28,27,23,137,26,04,21,055,38*77
$GPGSV,3,3,11,31,18,305,30,32,06,331,,20,02,354,*43
$GPRMC,171003.972,A,5200.8519,N,00421.7819,E,000.9,022.1,120610,,,A*68
$GPVTG,022.1,T,,M,000.9,N,001.8,K,A*0C
$GPGGA,171004.972,5200.8519,N,00421.7830,E,1,09,0.9,8.8,M,44.8,M,,0000*52
$GPGSA,A,3,14,30,12,09,29,02,27,04,31,,,,1.8,0.9,1.5*30
$GPGSV,3,1,11,12,73,067,32,30,67,271,39,14,44,267,34,09,28,136,26*72
$GPGSV,3,2,11,29,27,200,26,02,25,101,27,27,23,137,27,04,21,055,38*78
$GPGSV,3,3,11,31,18,305,31,32,06,331,,20,02,354,*42
$GPRMC,171004.972,A,5200.8519,N,00421.7830,E,000.0,000.0,120610,,,A*6C
$GPVTG,000.0,T,,M,000.0,N,000.0,K,A*0D
$GPGGA,171005.972,5200.8520,N,00421.7842,E,1,09,0.9,8.3,M,44.8,M,,0000*57
$GPGSA,A,3,14,30,12,09,29,02,27,04,31,,,,1.8,0.9,1.5*30
$GPGSV,3,1,11,12,73,067,32,30,67,271,39,14,44,267,34,09,28,136,26*72
$GPGSV,3,2,11,29,27,200,27,02,25,101,28,27,23,137,27,04,21,055,38*76
$GPGSV,3,3,11,31,18,305,30,32,06,331,,20,02,354,*43
$GPRMC,171005.972,A,5200.8520,N,00421.7842,E,000.0,000.0,120610,,,A*62
$GPVTG,000.0,T,,M,000.0,N,000.0,K,A*0D
$GPGGA,171006.972,5200.8513,N,00421.7856,E,1,09,0.9,7.6,M,44.8,M,,0000*5B
$GPGSA,A,3,14,30,12,09,29,02,27,04,31,,,,1.8,0.9,1.5*30
$GPGSV,3,1,11,12,73,067,33,30,67,271,38,14,44,267,33,09,28,136,26*75
$GPGSV,3,2,11,29,27,200,26,02,25,101,27,27,23,137,28,04,21,055,37*78
$GPGSV,3,3,11,31,18,305,30,32,06,331,,20,02,354,*43
$GPRMC,171006.972,A,5200.8513,N,00421.7856,E,000.0,000.0,120610,,,A*64
$GPVTG,000.0,T,,M,000.0,N,000.0,K,A*0D
$GPGGA,171007.972,5200.8514,N,00421.7851,E,1,09,0.9,7.7,M,44.8,M,,0000*5B
$GPGSA,A,3,14,30,12,09,29,02,27,04,31,,,,1.8,0.9,1.5*30
$GPGSV,3,1,11,12,73,067,33,30,67,271,38,14,44,267,33,09,28,136,26*75
$GPGSV,3,2,11,29,27,200,26,02,25,101,27,27,23,137,28,04,21,055,37*78
$GPGSV,3,3,11,31,18,305,30,32,06,331,,20,02,354,*43
$GPRMC,171007.972,A,5200.8514,N,00421.7851,E,000.0,000.0,120610,,,A*65
$GPVTG,000.0,T,,M,000.0,N,000.0,K,A*0D
$GPGGA,171008.972,5200.8516,N,00421.7844,E,1,09,0.9,6.4,M,44.8,M,,0000*50
$GPGSA,A,3,14,30,12,09,29,02,27,04,31,,,,1.8,0.9,1.5*30
$GPGSV,3,1,11,12,73,067,33,30,67,271,38,14,44,267,33,09,28,136,26*75
$GPGSV,3,2,11,29,27,200,26,02,25,101,28,27,23,137,28,04,21,055,38*78
$GPGSV,3,3,11,31,18,305,29,32,06,331,,20,02,354,*4B
$GPRMC,171008.972,A,5200.8516,N,00421.7844,E,000.0,000.0,120610,,,A*6C
$GPVTG,000.0,T,,M,000.0,N,000.0,K,A*0D
$GPGGA,171009.972,5200.8518,N,00421.7840,E,1,09,0.9,5.4,M,44.8,M,,0000*58
$GPGSA,A,3,14,30,12,09,29,02,27,04,31,,,,1.8,0.9,1.5*30
$GPGSV,3,1,11,12,73,067,33,30,67,271,38,14,44,267,33,09,28,136,27*74
$GPGSV,3,2,11,29,28,200,26,02,25,101,28,27,23,137,28,04,21,055,37*78
$GPGSV,3,3,11,31,18,305,29,32,06,331,,20,02,354,*4B
$GPRMC,171009.972,A,5200.8518,N,00421.7840,E,000.0,000.0,120610,,,A*67
$GPVTG,000.0,T,,M,000.0,N,000.0,K,A*0D
$GPGGA,171010.972,5200.8515,N,00421.7842,E,1,09,0.9,4.1,M,44.8,M,,0000*5B
$GPGSA,A,3,14,30,12,09,29,02,27,04,31,,,,1.8,0.9,1.5*30
$GPGSV,3,1,11,12,73,067,32,30,67,271,39,14,44,267,33,09,28,136,27*74
$GPGSV,3,2,11,29,28,200,26,02,25,101,28,27,23,137,27,04,21,055,38*78
$GPGSV,3,3,11,31,18,305,30,32,06,331,,20,02,354,*43
$GPRMC,171010.972,A,5200.8515,N,00421.7842,E,000.0,000.0,120610,,,A*60
$GPVTG,000.0,T,,M,000.0,N,000.0,K,A*0D
$GPGGA,171011.972,5200.8513,N,00421.7841,E,1,09,0.9,4.7,M,44.8,M,,0000*59
$GPGSA,A,3,14,30,12,09,29,02,27,04,31,,,,1.8,0.9,1.5*30
$GPGSV,3,1,11,12,73,067,31,30,67,271,39,14,44,267,34,09,28,136,28*7F
$GPGSV,3,2,11,29,28,200,27,02,25,101,29,27,23,137,26,04,21,055,39*78
$GPGSV,3,3,11,31,18,305,31,32,06,331,,20,02,354,*42
$GPRMC,171011.972,A,5200.8513,N,00421.7841,E,000.0,000.0,120610,,,A*64
$GPVTG,000.0,T,,M,000.0,N,000.0,K,A*0D
$GPGGA,171012.972,5200.8515,N,00421.7846,E,1,09,0.9,4.3,M,44.8,M,,0000*5F
$GPGSA,A,3,14,30,12,09,29,02,27,04,31,,,,1.8,0.9,1.5*30
$GPGSV,3,1,11,12,73,067,27,30,67,271,40,14,44,267,35,09,28,136,29*76
$GPGSV,3,2,11,29,28,200,28,02,25,101,31,27,23,137,25,04,21,055,39*7D
$GPGSV,3,3,11,31,18,305,32,32,06,331,,20,02,354,*41
$GPRMC,171012.972,A,5200.8515,N,00421.7846,E,000.0,000.0,120610,,,A*66
$GPVTG,000.0,T,,M,000.0,N,000.0,K,A*0D
$GPGGA,171013.972,5200.8513,N,00421.7842,E,1,09,0.9,3.8,M,44.8,M,,0000*50
$GPGSA,A,3,14,30,12,09,29,02,27,04,31,,,,1.8,0.9,1.5*30
$GPGSV,3,1,11,12,73,067,29,30,67,271,40,14,44,267,35,09,28,136,28*79
$GPGSV,3,2,11,29,28,200,27,02,25,101,29,27,23,137,25,04,21,055,39*7B
$GPGSV,3,3,11,31,18,305,32,32,06,331,,20,02,354,*41
$GPRMC,171013.972,A,5200.8513,N,00421.7842,E,000.0,000.0,120610,,,A*65
$GPVTG,000.0,T,,M,000.0,N,000.0,K,A*0D
$GPGGA,171014.972,5200.8514,N,00421.7845,E,1,09,0.9,3.6,M,44.8,M,,0000*59
$GPGSA,A,3,14,30,12,09,29,02,27,04,31,,,,1.8,0.9,1.5*30
$GPGSV,3,1,11,12,73,067,28,30,67,271,40,14,44,267,34,09,28,136,28*79
$GPGSV,3,2,11,29,28,200,29,02,25,101,26,27,23,137,25,04,21,055,39*7A
$GPGSV,3,3,11,31,18,305,31,32,06,331,,20,02,354,*42
$GPRMC,171014.972,A,5200.8514,N,00421.7845,E,000.0,000.0,120610,,,A*62
$GPVTG,000.0,T,,M,000.0,N,000.0,K,A*0D
$GPGGA,171015.972,5200.8510,N,00421.7850,E,1,09,0.9,4.0,M,44.8,M,,0000*59
$GPGSA,A,3,14,30,12,09,29,02,27,04,31,,,,1.8,0.9,1.5*30
$GPGSV,3,1,11,12,73,067,35,30,67,271,28,14,44,267,24,09,28,136,25*77
$GPGSV,3,2,11,29,28,200,24,02,25,101,25,27,23,137,26,04,21,055,30*7E
$GPGSV,3,3,11,31,18,305,32,32,06,331,,20,02,354,*41
$GPRMC,171015.972,A,5200.8510,N,00421.7850,E,000.0,000.0,120610,,,A*63
$GPVTG,000.0,T,,M,000.0,N,000.0,K,A*0D
$GPGGA,171016.972,5200.8492,N,00421.7842,E,1,09,0.9,3.5,M,44.8,M,,0000*50
$GPGSA,A,3,14,30,12,09,29,02,27,04,31,,,,1.8,0.9,1.5*30
$GPGSV,3,1,11,12,73,067,33,30,67,271,26,14,44,267,28,09,28,136,24*72
$GPGSV,3,2,11,29,28,200,29,02,25,101,24,27,23,137,27,04,21,055,25*77
$GPGSV,3,3,11,31,18,305,25,32,06,331,,20,02,354,*47
$GPRMC,171016.972,A,5200.8492,N,00421.7842,E,000.0,000.0,120610,,,A*68
$GPVTG,000.0,T,,M,000.0,N,000.0,K,A*0D
$GPGGA,171017.972,5200.8498,N,00421.7845,E,1,09,0.9,4.8,M,44.8,M,,0000*56
$GPGSA,A,3,14,30,12,09,29,02,27,04,31,,,,1.8,0.9,1.5*30
$GPGSV,3,1,11,12,73,067,36,30,67,271,27,14,44,267,25,09,28,136,25*7A
$GPGSV,3,2,11,29,28,200,25,02,25,101,26,27,23,137,28,04,21,055,24*77
$GPGSV,3,3,11,31,18,305,25,32,06,331,,20,02,354,*47
$GPRMC,171017.972,A,5200.8498,N,00421.7845,E,001.0,000.6,120610,,,A*63
$GPVTG,000.6,T,,M,001.0,N,001.8,K,A*03
