$GPGGA,145243.000,3401.9764,N,11744.8274,W,2,10,0.87,234.7,M,-33.2,M,0000,0000*5F
{"class":"TPV","status":2,"mode":3,"lat":34.032940000,"lon":-117.747123333,"altHAE":201.500,"altMSL":234.700,"magvar":11.7,"geoidSep":-33.200,"eph":4.133}
$GPGSA,A,3,14,09,22,18,19,24,06,21,03,31,,,1.58,0.87,1.31*0D
{"class":"TPV","status":2,"mode":3,"lat":34.032940000,"lon":-117.747123333,"altHAE":201.500,"altMSL":234.700,"epv":7.533,"magvar":11.7,"geoidSep":-33.200,"eph":4.133,"sep":7.505}
$GPGSV,3,1,11,14,86,335,41,22,54,049,36,24,54,134,38,51,48,161,31*7F
$GPGSV,3,2,11,19,36,273,30,06,28,224,27,03,27,237,25,18,25,076,36*70
$GPGSV,3,3,11,31,19,169,29,21,16,136,28,09,11,039,34*48
{"class":"SKY","xdop":0.58,"ydop":0.66,"vdop":1.31,"tdop":0.82,"hdop":0.87,"gdop":1.78,"pdop":1.58,"satellites":[{"PRN":14,"el":86.0,"az":335.0,"ss":41.0,"used":true,"gnssid":0,"svid":14},{"PRN":22,"el":54.0,"az":49.0,"ss":36.0,"used":true,"gnssid":0,"svid":22},{"PRN":24,"el":54.0,"az":134.0,"ss":38.0,"used":true,"gnssid":0,"svid":24},{"PRN":51,"el":48.0,"az":161.0,"ss":31.0,"used":false,"gnssid":1,"svid":138},{"PRN":19,"el":36.0,"az":273.0,"ss":30.0,"used":true,"gnssid":0,"svid":19},{"PRN":6,"el":28.0,"az":224.0,"ss":27.0,"used":true,"gnssid":0,"svid":6},{"PRN":3,"el":27.0,"az":237.0,"ss":25.0,"used":true,"gnssid":0,"svid":3},{"PRN":18,"el":25.0,"az":76.0,"ss":36.0,"used":true,"gnssid":0,"svid":18},{"PRN":31,"el":19.0,"az":169.0,"ss":29.0,"used":true,"gnssid":0,"svid":31},{"PRN":21,"el":16.0,"az":136.0,"ss":28.0,"used":true,"gnssid":0,"svid":21},{"PRN":9,"el":11.0,"az":39.0,"ss":34.0,"used":true,"gnssid":0,"svid":9}]}
$GPRMC,145243.000,A,3401.9764,N,11744.8274,W,0.00,119.27,030610,,,D*70
{"class":"TPV","status":2,"mode":3,"time":"2010-06-03T14:52:43.000Z","ept":0.005,"lat":34.032940000,"lon":-117.747123333,"altHAE":201.500,"altMSL":234.700,"epx":2.158,"epy":2.473,"epv":7.533,"track":119.2700,"magtrack":130.9332,"magvar":11.7,"speed":0.000,"geoidSep":-33.200,"eph":4.133,"sep":7.505}
$GPGGA,145244.000,3401.9764,N,11744.8274,W,2,10,0.87,234.7,M,-33.2,M,0000,0000*58
$GPGSA,A,3,14,09,22,18,19,24,06,21,03,31,,,1.58,0.87,1.31*0D
$GPGSV,3,1,11,14,86,335,41,22,54,050,36,24,54,134,38,51,48,161,31*77
$GPGSV,3,2,11,19,36,273,30,06,28,224,27,03,27,237,25,18,25,076,36*70
$GPGSV,3,3,11,31,19,169,28,21,16,136,28,09,11,039,34*49
{"class":"SKY","xdop":0.57,"ydop":0.66,"vdop":1.31,"tdop":0.82,"hdop":0.87,"gdop":1.78,"pdop":1.58,"satellites":[{"PRN":14,"el":86.0,"az":335.0,"ss":41.0,"used":true,"gnssid":0,"svid":14},{"PRN":22,"el":54.0,"az":50.0,"ss":36.0,"used":true,"gnssid":0,"svid":22},{"PRN":24,"el":54.0,"az":134.0,"ss":38.0,"used":true,"gnssid":0,"svid":24},{"PRN":51,"el":48.0,"az":161.0,"ss":31.0,"used":false,"gnssid":1,"svid":138},{"PRN":19,"el":36.0,"az":273.0,"ss":30.0,"used":true,"gnssid":0,"svid":19},{"PRN":6,"el":28.0,"az":224.0,"ss":27.0,"used":true,"gnssid":0,"svid":6},{"PRN":3,"el":27.0,"az":237.0,"ss":25.0,"used":true,"gnssid":0,"svid":3},{"PRN":18,"el":25.0,"az":76.0,"ss":36.0,"used":true,"gnssid":0,"svid":18},{"PRN":31,"el":19.0,"az":169.0,"ss":28.0,"used":true,"gnssid":0,"svid":31},{"PRN":21,"el":16.0,"az":136.0,"ss":28.0,"used":true,"gnssid":0,"svid":21},{"PRN":9,"el":11.0,"az":39.0,"ss":34.0,"used":true,"gnssid":0,"svid":9}]}
$GPRMC,145244.000,A,3401.9764,N,11744.8274,W,0.00,119.27,030610,,,D*77
{"class":"TPV","status":2,"mode":3,"time":"2010-06-03T14:52:44.000Z","ept":0.005,"lat":34.032940000,"lon":-117.747123333,"altHAE":201.500,"altMSL":234.700,"epx":2.158,"epy":2.473,"epv":7.533,"track":119.2700,"magtrack":130.9332,"magvar":11.7,"speed":0.000,"climb":0.000,"eps":4.95,"epc":15.07,"geoidSep":-33.200,"eph":4.133,"sep":7.505}
$GPGGA,145245.000,3401.9764,N,11744.8274,W,2,10,0.87,234.7,M,-33.2,M,0000,0000*59
$GPGSA,A,3,14,09,22,18,19,24,06,21,03,31,,,1.58,0.87,1.31*0D
$GPGSV,3,1,11,14,86,335,41,22,54,050,36,24,54,134,38,51,48,161,31*77
$GPGSV,3,2,11,19,36,273,30,06,28,224,27,03,27,237,25,18,25,076,35*73
$GPGSV,3,3,11,31,19,169,28,21,16,136,27,09,11,039,34*46
{"class":"SKY","xdop":0.57,"ydop":0.66,"vdop":1.31,"tdop":0.82,"hdop":0.87,"gdop":1.78,"pdop":1.58,"satellites":[{"PRN":14,"el":86.0,"az":335.0,"ss":41.0,"used":true,"gnssid":0,"svid":14},{"PRN":22,"el":54.0,"az":50.0,"ss":36.0,"used":true,"gnssid":0,"svid":22},{"PRN":24,"el":54.0,"az":134.0,"ss":38.0,"used":true,"gnssid":0,"svid":24},{"PRN":51,"el":48.0,"az":161.0,"ss":31.0,"used":false,"gnssid":1,"svid":138},{"PRN":19,"el":36.0,"az":273.0,"ss":30.0,"used":true,"gnssid":0,"svid":19},{"PRN":6,"el":28.0,"az":224.0,"ss":27.0,"used":true,"gnssid":0,"svid":6},{"PRN":3,"el":27.0,"az":237.0,"ss":25.0,"used":true,"gnssid":0,"svid":3},{"PRN":18,"el":25.0,"az":76.0,"ss":35.0,"used":true,"gnssid":0,"svid":18},{"PRN":31,"el":19.0,"az":169.0,"ss":28.0,"used":true,"gnssid":0,"svid":31},{"PRN":21,"el":16.0,"az":136.0,"ss":27.0,"used":true,"gnssid":0,"svid":21},{"PRN":9,"el":11.0,"az":39.0,"ss":34.0,"used":true,"gnssid":0,"svid":9}]}
$GPRMC,145245.000,A,3401.9764,N,11744.8274,W,0.00,119.27,030610,,,D*76
{"class":"TPV","status":2,"mode":3,"time":"2010-06-03T14:52:45.000Z","ept":0.005,"lat":34.032940000,"lon":-117.747123333,"altHAE":201.500,"altMSL":234.700,"epx":2.156,"epy":2.476,"epv":7.533,"track":119.2700,"magtrack":130.9332,"magvar":11.7,"speed":0.000,"climb":0.000,"eps":4.95,"epc":15.07,"geoidSep":-33.200,"eph":4.133,"sep":7.505}
$GPGGA,145246.000,3401.9765,N,11744.8274,W,2,10,0.87,234.7,M,-33.2,M,0000,0000*5B
$GPGSA,A,3,14,09,22,18,19,24,06,21,03,31,,,1.58,0.87,1.31*0D
$GPGSV,3,1,11,14,86,335,41,22,54,050,36,24,53,134,38,51,48,161,31*70
$GPGSV,3,2,11,19,36,273,30,06,28,224,27,03,27,237,25,18,25,076,35*73
$GPGSV,3,3,11,31,19,169,28,21,16,136,27,09,11,039,34*46
{"class":"SKY","xdop":0.57,"ydop":0.66,"vdop":1.31,"tdop":0.82,"hdop":0.87,"gdop":1.78,"pdop":1.58,"satellites":[{"PRN":14,"el":86.0,"az":335.0,"ss":41.0,"used":true,"gnssid":0,"svid":14},{"PRN":22,"el":54.0,"az":50.0,"ss":36.0,"used":true,"gnssid":0,"svid":22},{"PRN":24,"el":53.0,"az":134.0,"ss":38.0,"used":true,"gnssid":0,"svid":24},{"PRN":51,"el":48.0,"az":161.0,"ss":31.0,"used":false,"gnssid":1,"svid":138},{"PRN":19,"el":36.0,"az":273.0,"ss":30.0,"used":true,"gnssid":0,"svid":19},{"PRN":6,"el":28.0,"az":224.0,"ss":27.0,"used":true,"gnssid":0,"svid":6},{"PRN":3,"el":27.0,"az":237.0,"ss":25.0,"used":true,"gnssid":0,"svid":3},{"PRN":18,"el":25.0,"az":76.0,"ss":35.0,"used":true,"gnssid":0,"svid":18},{"PRN":31,"el":19.0,"az":169.0,"ss":28.0,"used":true,"gnssid":0,"svid":31},{"PRN":21,"el":16.0,"az":136.0,"ss":27.0,"used":true,"gnssid":0,"svid":21},{"PRN":9,"el":11.0,"az":39.0,"ss":34.0,"used":true,"gnssid":0,"svid":9}]}
$GPRMC,145246.000,A,3401.9765,N,11744.8274,W,0.01,119.27,030610,,,D*75
{"class":"TPV","status":2,"mode":3,"time":"2010-06-03T14:52:46.000Z","ept":0.005,"lat":34.032941667,"lon":-117.747123333,"altHAE":201.500,"altMSL":234.700,"epx":2.156,"epy":2.476,"epv":7.533,"track":119.2700,"magtrack":130.9332,"magvar":11.7,"speed":0.005,"climb":0.000,"eps":4.95,"epc":15.07,"geoidSep":-33.200,"eph":4.133,"sep":7.505}
$GPGGA,145247.000,3401.9765,N,11744.8274,W,2,10,0.87,234.8,M,-33.2,M,0000,0000*55
$GPGSA,A,3,14,09,22,18,19,24,06,21,03,31,,,1.58,0.87,1.31*0D
$GPGSV,3,1,11,14,86,335,40,22,54,050,35,24,53,134,38,51,48,161,30*73
$GPGSV,3,2,11,19,36,273,29,06,28,224,25,03,27,237,25,18,25,076,34*78
$GPGSV,3,3,11,31,19,169,27,21,16,136,26,09,11,039,33*4F
{"class":"SKY","xdop":0.57,"ydop":0.66,"vdop":1.31,"tdop":0.82,"hdop":0.87,"gdop":1.78,"pdop":1.58,"satellites":[{"PRN":14,"el":86.0,"az":335.0,"ss":40.0,"used":true,"gnssid":0,"svid":14},{"PRN":22,"el":54.0,"az":50.0,"ss":35.0,"used":true,"gnssid":0,"svid":22},{"PRN":24,"el":53.0,"az":134.0,"ss":38.0,"used":true,"gnssid":0,"svid":24},{"PRN":51,"el":48.0,"az":161.0,"ss":30.0,"used":false,"gnssid":1,"svid":138},{"PRN":19,"el":36.0,"az":273.0,"ss":29.0,"used":true,"gnssid":0,"svid":19},{"PRN":6,"el":28.0,"az":224.0,"ss":25.0,"used":true,"gnssid":0,"svid":6},{"PRN":3,"el":27.0,"az":237.0,"ss":25.0,"used":true,"gnssid":0,"svid":3},{"PRN":18,"el":25.0,"az":76.0,"ss":34.0,"used":true,"gnssid":0,"svid":18},{"PRN":31,"el":19.0,"az":169.0,"ss":27.0,"used":true,"gnssid":0,"svid":31},{"PRN":21,"el":16.0,"az":136.0,"ss":26.0,"used":true,"gnssid":0,"svid":21},{"PRN":9,"el":11.0,"az":39.0,"ss":33.0,"used":true,"gnssid":0,"svid":9}]}
$GPRMC,145247.000,A,3401.9765,N,11744.8274,W,0.00,119.27,030610,,,D*75
{"class":"TPV","status":2,"mode":3,"time":"2010-06-03T14:52:47.000Z","ept":0.005,"lat":34.032941667,"lon":-117.747123333,"altHAE":201.600,"altMSL":234.800,"epx":2.152,"epy":2.472,"epv":7.533,"track":119.2700,"magtrack":130.9332,"magvar":11.7,"speed":0.000,"climb":0.100,"eps":4.95,"epc":15.07,"geoidSep":-33.200,"eph":4.133,"sep":7.505}
$GPGGA,145248.000,3401.9765,N,11744.8274,W,2,10,0.87,234.8,M,-33.2,M,0000,0000*5A
$GPGSA,A,3,14,09,22,18,19,24,06,21,03,31,,,1.58,0.87,1.31*0D
$GPGSV,3,1,11,14,86,335,41,22,54,050,36,24,53,134,38,51,48,161,30*71
$GPGSV,3,2,11,19,36,273,29,06,28,224,26,03,27,237,26,18,25,076,34*78
$GPGSV,3,3,11,31,19,169,27,21,16,136,27,09,11,039,34*49
{"class":"SKY","xdop":0.57,"ydop":0.66,"vdop":1.31,"tdop":0.82,"hdop":0.87,"gdop":1.78,"pdop":1.58,"satellites":[{"PRN":14,"el":86.0,"az":335.0,"ss":41.0,"used":true,"gnssid":0,"svid":14},{"PRN":22,"el":54.0,"az":50.0,"ss":36.0,"used":true,"gnssid":0,"svid":22},{"PRN":24,"el":53.0,"az":134.0,"ss":38.0,"used":true,"gnssid":0,"svid":24},{"PRN":51,"el":48.0,"az":161.0,"ss":30.0,"used":false,"gnssid":1,"svid":138},{"PRN":19,"el":36.0,"az":273.0,"ss":29.0,"used":true,"gnssid":0,"svid":19},{"PRN":6,"el":28.0,"az":224.0,"ss":26.0,"used":true,"gnssid":0,"svid":6},{"PRN":3,"el":27.0,"az":237.0,"ss":26.0,"used":true,"gnssid":0,"svid":3},{"PRN":18,"el":25.0,"az":76.0,"ss":34.0,"used":true,"gnssid":0,"svid":18},{"PRN":31,"el":19.0,"az":169.0,"ss":27.0,"used":true,"gnssid":0,"svid":31},{"PRN":21,"el":16.0,"az":136.0,"ss":27.0,"used":true,"gnssid":0,"svid":21},{"PRN":9,"el":11.0,"az":39.0,"ss":34.0,"used":true,"gnssid":0,"svid":9}]}
$GPRMC,145248.000,A,3401.9765,N,11744.8274,W,0.00,119.27,030610,,,D*7A
{"class":"TPV","status":2,"mode":3,"time":"2010-06-03T14:52:48.000Z","ept":0.005,"lat":34.032941667,"lon":-117.747123333,"altHAE":201.600,"altMSL":234.800,"epx":2.152,"epy":2.472,"epv":7.533,"track":119.2700,"magtrack":130.9332,"magvar":11.7,"speed":0.000,"climb":0.000,"eps":4.94,"epc":15.07,"geoidSep":-33.200,"eph":4.133,"sep":7.505}
$GPGGA,145249.000,3401.9765,N,11744.8274,W,2,10,0.87,234.8,M,-33.2,M,0000,0000*5B
$GPGSA,A,3,14,09,22,18,19,24,06,21,03,31,,,1.58,0.87,1.31*0D
$GPGSV,3,1,11,14,86,335,42,22,54,050,36,24,53,134,38,51,48,161,30*72
$GPGSV,3,2,11,19,36,273,29,06,28,224,27,03,27,237,27,18,25,076,34*78
$GPGSV,3,3,11,31,19,169,27,21,16,136,28,09,11,039,34*46
{"class":"SKY","xdop":0.57,"ydop":0.66,"vdop":1.31,"tdop":0.82,"hdop":0.87,"gdop":1.78,"pdop":1.58,"satellites":[{"PRN":14,"el":86.0,"az":335.0,"ss":42.0,"used":true,"gnssid":0,"svid":14},{"PRN":22,"el":54.0,"az":50.0,"ss":36.0,"used":true,"gnssid":0,"svid":22},{"PRN":24,"el":53.0,"az":134.0,"ss":38.0,"used":true,"gnssid":0,"svid":24},{"PRN":51,"el":48.0,"az":161.0,"ss":30.0,"used":false,"gnssid":1,"svid":138},{"PRN":19,"el":36.0,"az":273.0,"ss":29.0,"used":true,"gnssid":0,"svid":19},{"PRN":6,"el":28.0,"az":224.0,"ss":27.0,"used":true,"gnssid":0,"svid":6},{"PRN":3,"el":27.0,"az":237.0,"ss":27.0,"used":true,"gnssid":0,"svid":3},{"PRN":18,"el":25.0,"az":76.0,"ss":34.0,"used":true,"gnssid":0,"svid":18},{"PRN":31,"el":19.0,"az":169.0,"ss":27.0,"used":true,"gnssid":0,"svid":31},{"PRN":21,"el":16.0,"az":136.0,"ss":28.0,"used":true,"gnssid":0,"svid":21},{"PRN":9,"el":11.0,"az":39.0,"ss":34.0,"used":true,"gnssid":0,"svid":9}]}
$GPRMC,145249.000,A,3401.9765,N,11744.8274,W,0.00,119.27,030610,,,D*7B
{"class":"TPV","status":2,"mode":3,"time":"2010-06-03T14:52:49.000Z","ept":0.005,"lat":34.032941667,"lon":-117.747123333,"altHAE":201.600,"altMSL":234.800,"epx":2.152,"epy":2.472,"epv":7.533,"track":119.2700,"magtrack":130.9332,"magvar":11.7,"speed":0.000,"climb":0.000,"eps":4.94,"epc":15.07,"geoidSep":-33.200,"eph":4.133,"sep":7.505}
$GPGGA,145250.000,3401.9765,N,11744.8274,W,2,10,0.87,234.8,M,-33.2,M,0000,0000*53
$GPGSA,A,3,14,09,22,18,19,24,06,21,03,31,,,1.58,0.87,1.31*0D
$GPGSV,3,1,11,14,86,335,42,22,54,050,36,24,53,134,38,51,48,161,30*72
$GPGSV,3,2,11,19,36,273,29,06,28,224,27,03,27,237,27,18,25,076,34*78
$GPGSV,3,3,11,31,19,169,27,21,16,136,28,09,11,039,34*46
{"class":"SKY","xdop":0.57,"ydop":0.66,"vdop":1.31,"tdop":0.82,"hdop":0.87,"gdop":1.78,"pdop":1.58,"satellites":[{"PRN":14,"el":86.0,"az":335.0,"ss":42.0,"used":true,"gnssid":0,"svid":14},{"PRN":22,"el":54.0,"az":50.0,"ss":36.0,"used":true,"gnssid":0,"svid":22},{"PRN":24,"el":53.0,"az":134.0,"ss":38.0,"used":true,"gnssid":0,"svid":24},{"PRN":51,"el":48.0,"az":161.0,"ss":30.0,"used":false,"gnssid":1,"svid":138},{"PRN":19,"el":36.0,"az":273.0,"ss":29.0,"used":true,"gnssid":0,"svid":19},{"PRN":6,"el":28.0,"az":224.0,"ss":27.0,"used":true,"gnssid":0,"svid":6},{"PRN":3,"el":27.0,"az":237.0,"ss":27.0,"used":true,"gnssid":0,"svid":3},{"PRN":18,"el":25.0,"az":76.0,"ss":34.0,"used":true,"gnssid":0,"svid":18},{"PRN":31,"el":19.0,"az":169.0,"ss":27.0,"used":true,"gnssid":0,"svid":31},{"PRN":21,"el":16.0,"az":136.0,"ss":28.0,"used":true,"gnssid":0,"svid":21},{"PRN":9,"el":11.0,"az":39.0,"ss":34.0,"used":true,"gnssid":0,"svid":9}]}
$GPRMC,145250.000,A,3401.9765,N,11744.8274,W,0.00,119.27,030610,,,D*73
{"class":"TPV","status":2,"mode":3,"time":"2010-06-03T14:52:50.000Z","ept":0.005,"lat":34.032941667,"lon":-117.747123333,"altHAE":201.600,"altMSL":234.800,"epx":2.152,"epy":2.472,"epv":7.533,"track":119.2700,"magtrack":130.9332,"magvar":11.7,"speed":0.000,"climb":0.000,"eps":4.94,"epc":15.07,"geoidSep":-33.200,"eph":4.133,"sep":7.505}
$GPGGA,145251.000,3401.9765,N,11744.8274,W,2,10,0.87,234.8,M,-33.2,M,0000,0000*52
$GPGSA,A,3,14,09,22,18,19,24,06,21,03,31,,,1.58,0.87,1.31*0D
$GPGSV,3,1,11,14,86,335,42,22,54,050,36,24,53,134,38,51,48,161,30*72
$GPGSV,3,2,11,19,36,273,29,06,28,224,27,03,27,237,27,18,25,076,34*78
$GPGSV,3,3,11,31,19,169,26,21,16,136,28,09,11,039,34*47
{"class":"SKY","xdop":0.57,"ydop":0.66,"vdop":1.31,"tdop":0.82,"hdop":0.87,"gdop":1.78,"pdop":1.58,"satellites":[{"PRN":14,"el":86.0,"az":335.0,"ss":42.0,"used":true,"gnssid":0,"svid":14},{"PRN":22,"el":54.0,"az":50.0,"ss":36.0,"used":true,"gnssid":0,"svid":22},{"PRN":24,"el":53.0,"az":134.0,"ss":38.0,"used":true,"gnssid":0,"svid":24},{"PRN":51,"el":48.0,"az":161.0,"ss":30.0,"used":false,"gnssid":1,"svid":138},{"PRN":19,"el":36.0,"az":273.0,"ss":29.0,"used":true,"gnssid":0,"svid":19},{"PRN":6,"el":28.0,"az":224.0,"ss":27.0,"used":true,"gnssid":0,"svid":6},{"PRN":3,"el":27.0,"az":237.0,"ss":27.0,"used":true,"gnssid":0,"svid":3},{"PRN":18,"el":25.0,"az":76.0,"ss":34.0,"used":true,"gnssid":0,"svid":18},{"PRN":31,"el":19.0,"az":169.0,"ss":26.0,"used":true,"gnssid":0,"svid":31},{"PRN":21,"el":16.0,"az":136.0,"ss":28.0,"used":true,"gnssid":0,"svid":21},{"PRN":9,"el":11.0,"az":39.0,"ss":34.0,"used":true,"gnssid":0,"svid":9}]}
$GPRMC,145251.000,A,3401.9765,N,11744.8274,W,0.00,119.27,030610,,,D*72
{"class":"TPV","status":2,"mode":3,"time":"2010-06-03T14:52:51.000Z","ept":0.005,"lat":34.032941667,"lon":-117.747123333,"altHAE":201.600,"altMSL":234.800,"epx":2.152,"epy":2.472,"epv":7.533,"track":119.2700,"magtrack":130.9332,"magvar":11.7,"speed":0.000,"climb":0.000,"eps":4.94,"epc":15.07,"geoidSep":-33.200,"eph":4.133,"sep":7.505}
$GPGGA,145252.000,3401.9765,N,11744.8274,W,2,10,0.87,234.8,M,-33.2,M,0000,0000*51
$GPGSA,A,3,14,09,22,18,19,24,06,21,03,31,,,1.58,0.87,1.31*0D
$GPGSV,3,1,11,14,86,335,41,22,54,050,35,24,53,134,39,51,48,161,29*7B
$GPGSV,3,2,11,19,36,273,28,06,28,224,27,03,27,237,26,18,25,076,34*78
$GPGSV,3,3,11,31,19,169,25,21,16,136,28,09,11,039,33*43
{"class":"SKY","xdop":0.57,"ydop":0.66,"vdop":1.31,"tdop":0.82,"hdop":0.87,"gdop":1.78,"pdop":1.58,"satellites":[{"PRN":14,"el":86.0,"az":335.0,"ss":41.0,"used":true,"gnssid":0,"svid":14},{"PRN":22,"el":54.0,"az":50.0,"ss":35.0,"used":true,"gnssid":0,"svid":22},{"PRN":24,"el":53.0,"az":134.0,"ss":39.0,"used":true,"gnssid":0,"svid":24},{"PRN":51,"el":48.0,"az":161.0,"ss":29.0,"used":false,"gnssid":1,"svid":138},{"PRN":19,"el":36.0,"az":273.0,"ss":28.0,"used":true,"gnssid":0,"svid":19},{"PRN":6,"el":28.0,"az":224.0,"ss":27.0,"used":true,"gnssid":0,"svid":6},{"PRN":3,"el":27.0,"az":237.0,"ss":26.0,"used":true,"gnssid":0,"svid":3},{"PRN":18,"el":25.0,"az":76.0,"ss":34.0,"used":true,"gnssid":0,"svid":18},{"PRN":31,"el":19.0,"az":169.0,"ss":25.0,"used":true,"gnssid":0,"svid":31},{"PRN":21,"el":16.0,"az":136.0,"ss":28.0,"used":true,"gnssid":0,"svid":21},{"PRN":9,"el":11.0,"az":39.0,"ss":33.0,"used":true,"gnssid":0,"svid":9}]}
$GPRMC,145252.000,A,3401.9765,N,11744.8274,W,0.01,119.27,030610,,,D*70
{"class":"TPV","status":2,"mode":3,"time":"2010-06-03T14:52:52.000Z","ept":0.005,"lat":34.032941667,"lon":-117.747123333,"altHAE":201.600,"altMSL":234.800,"epx":2.152,"epy":2.472,"epv":7.533,"track":119.2700,"magtrack":130.9332,"magvar":11.7,"speed":0.005,"climb":0.000,"eps":4.94,"epc":15.07,"geoidSep":-33.200,"eph":4.133,"sep":7.505}
