$GPZDA,143443.28,23,01,2025,00,00*6C
$GPGGA,143443.28,4629.8972,N,00734.0447,E,1,00,2.40,1344.99,M,45.590,M,,*50
$GPRMC,143443.28,A,4629.8972,N,00734.0447,E,0.1776,10.379,230125,2.3,E*50
$GPGSA,A,3,,,,,,,,,,,,,,2.4,*34
{"class":"TPV","mode":3,"time":"2025-01-23T14:34:43.280Z","ept":0.005,"lat":46.498287177,"lon":7.567411672,"altHAE":1390.584,"altMSL":1344.995,"track":10.3788,"magtrack":12.7005,"magvar":2.3,"speed":0.091,"climb":-0.085,"ecefx":4360953.00,"ecefy":579351.00,"ecefz":4604558.00,"ecefvx":-0.12,"ecefvy":0.00,"ecefvz":0.00,"velN":0.090,"velE":0.016,"velD":0.085,"geoidSep":45.590,"eph":45.600}
$GPGSV,2,1,08,23,06,084,00,28,08,160,00,08,66,189,44,29,14,273,00*7C
$GPGSV,2,2,08,10,51,304,29,04,16,200,36,02,34,242,43,27,72,076,43*7C
{"class":"SKY","time":"2025-01-23T14:34:44.280Z","xdop":1.70,"ydop":1.69,"vdop":3.49,"tdop":3.12,"hdop":2.40,"gdop":5.26,"pdop":4.23,"satellites":[{"PRN":23,"el":6.5,"az":84.0,"ss":0.0,"used":false,"gnssid":0,"svid":23},{"PRN":28,"el":7.5,"az":160.5,"ss":0.0,"used":false,"gnssid":0,"svid":28},{"PRN":8,"el":66.0,"az":189.0,"ss":44.2,"used":true,"gnssid":0,"svid":8},{"PRN":29,"el":13.5,"az":273.0,"ss":0.0,"used":false,"gnssid":0,"svid":29},{"PRN":10,"el":51.0,"az":304.5,"ss":29.2,"used":true,"gnssid":0,"svid":10},{"PRN":4,"el":15.5,"az":199.5,"ss":36.4,"used":true,"gnssid":0,"svid":4},{"PRN":2,"el":34.0,"az":241.5,"ss":43.2,"used":true,"gnssid":0,"svid":2},{"PRN":27,"el":71.5,"az":76.5,"ss":43.0,"used":true,"gnssid":0,"svid":27}]}
$GPZDA,143444.28,23,01,2025,00,00*6B
$GPGGA,143444.28,4629.8976,N,00734.0447,E,1,05,2.40,1345.72,M,45.590,M,,*52
$GPRMC,143444.28,A,4629.8976,N,00734.0447,E,0.1776,10.379,230125,2.3,E*53
$GPGSA,A,3,8,10,4,2,27,,,,,,,,4.2,2.4,3.5*0E
$GPGBS,143444.28,25.475,25.404,80.249,,,,*78
{"class":"TPV","mode":3,"time":"2025-01-23T14:34:44.280Z","ept":0.005,"lat":46.498293369,"lon":7.567411672,"altHAE":1391.310,"altMSL":1345.720,"epx":25.475,"epy":25.404,"epv":80.249,"track":10.3788,"magtrack":12.7005,"magvar":2.3,"speed":0.091,"climb":-0.085,"eps":50.95,"epc":160.50,"ecefx":4360953.00,"ecefy":579351.00,"ecefz":4604559.00,"ecefvx":-0.12,"ecefvy":0.00,"ecefvz":0.00,"velN":0.090,"velE":0.016,"velD":0.085,"geoidSep":45.590,"eph":45.600,"sep":80.445}
$GPGSV,2,1,08,23,06,084,00,28,08,160,00,08,66,189,44,29,14,273,00*7C
$GPGSV,2,2,08,10,51,304,28,04,16,200,37,02,34,242,43,27,72,076,43*7C
{"class":"SKY","time":"2025-01-23T14:34:45.280Z","xdop":1.70,"ydop":1.69,"vdop":3.49,"tdop":3.12,"hdop":2.40,"gdop":5.26,"pdop":4.23,"satellites":[{"PRN":23,"el":6.5,"az":84.0,"ss":0.0,"used":false,"gnssid":0,"svid":23},{"PRN":28,"el":7.5,"az":160.5,"ss":0.0,"used":false,"gnssid":0,"svid":28},{"PRN":8,"el":66.0,"az":189.0,"ss":44.5,"used":true,"gnssid":0,"svid":8},{"PRN":29,"el":13.5,"az":273.0,"ss":0.0,"used":false,"gnssid":0,"svid":29},{"PRN":10,"el":51.0,"az":304.5,"ss":28.0,"used":true,"gnssid":0,"svid":10},{"PRN":4,"el":15.5,"az":199.5,"ss":37.0,"used":true,"gnssid":0,"svid":4},{"PRN":2,"el":34.0,"az":241.5,"ss":42.8,"used":true,"gnssid":0,"svid":2},{"PRN":27,"el":71.5,"az":76.5,"ss":42.6,"used":true,"gnssid":0,"svid":27}]}
$GPZDA,143445.28,23,01,2025,00,00*6A
$GPGGA,143445.28,4629.8980,N,00734.0440,E,1,05,2.40,1344.95,M,45.590,M,,*55
$GPRMC,143445.28,A,4629.8980,N,00734.0440,E,0.1776,10.379,230125,2.3,E*5C
$GPGSA,A,3,8,10,4,2,27,,,,,,,,4.2,2.4,3.5*0E
$GPGBS,143445.28,25.475,25.404,80.249,,,,*79
{"class":"TPV","mode":3,"time":"2025-01-23T14:34:45.280Z","ept":0.005,"lat":46.498300695,"lon":7.567400477,"altHAE":1390.537,"altMSL":1344.947,"epx":25.475,"epy":25.404,"epv":80.249,"track":10.3788,"magtrack":12.7005,"magvar":2.3,"speed":0.091,"climb":-0.085,"eps":50.95,"epc":160.50,"ecefx":4360952.00,"ecefy":579350.00,"ecefz":4604559.00,"ecefvx":-0.12,"ecefvy":0.00,"ecefvz":0.00,"velN":0.090,"velE":0.016,"velD":0.085,"geoidSep":45.590,"eph":45.600,"sep":80.445}
$GPGSV,2,1,08,23,06,084,00,28,08,160,00,08,66,189,44,29,14,273,00*7C
$GPGSV,2,2,08,10,51,304,27,04,16,200,35,02,34,242,42,27,72,076,42*71
{"class":"SKY","time":"2025-01-23T14:34:46.280Z","xdop":1.70,"ydop":1.69,"vdop":3.49,"tdop":3.12,"hdop":2.40,"gdop":5.26,"pdop":4.23,"satellites":[{"PRN":23,"el":6.5,"az":84.0,"ss":0.0,"used":false,"gnssid":0,"svid":23},{"PRN":28,"el":7.5,"az":160.5,"ss":0.0,"used":false,"gnssid":0,"svid":28},{"PRN":8,"el":66.0,"az":189.0,"ss":43.8,"used":true,"gnssid":0,"svid":8},{"PRN":29,"el":13.5,"az":273.0,"ss":0.0,"used":false,"gnssid":0,"svid":29},{"PRN":10,"el":51.0,"az":304.5,"ss":26.8,"used":true,"gnssid":0,"svid":10},{"PRN":4,"el":15.5,"az":199.5,"ss":35.4,"used":true,"gnssid":0,"svid":4},{"PRN":2,"el":34.0,"az":241.5,"ss":41.9,"used":true,"gnssid":0,"svid":2},{"PRN":27,"el":71.5,"az":76.5,"ss":42.4,"used":true,"gnssid":0,"svid":27}]}
$GPZDA,143446.28,23,01,2025,00,00*69
$GPGGA,143446.28,4629.8984,N,00734.0440,E,1,05,3.20,1345.67,M,45.590,M,,*59
$GPRMC,143446.28,A,4629.8984,N,00734.0440,E,0.1776,10.379,230125,2.3,E*5B
$GPGSA,A,3,8,10,4,2,27,,,,,,,,4.2,3.2,3.5*09
$GPGBS,143446.28,25.475,25.404,80.249,,,,*7A
{"class":"TPV","mode":3,"time":"2025-01-23T14:34:46.280Z","ept":0.005,"lat":46.498306886,"lon":7.567400477,"altHAE":1391.262,"altMSL":1345.672,"epx":25.475,"epy":25.404,"epv":80.249,"track":10.3788,"magtrack":12.7005,"magvar":2.3,"speed":0.091,"climb":-0.085,"eps":50.95,"epc":160.50,"ecefx":4360952.00,"ecefy":579350.00,"ecefz":4604560.00,"ecefvx":-0.12,"ecefvy":0.00,"ecefvz":0.00,"velN":0.090,"velE":0.016,"velD":0.085,"geoidSep":45.590,"eph":60.800,"sep":80.445}
$GPGSV,2,1,08,23,06,084,00,28,08,160,00,08,66,189,44,29,14,273,00*7C
$GPGSV,2,2,08,10,51,304,28,04,16,200,36,02,34,242,42,27,72,076,42*7D
{"class":"SKY","time":"2025-01-23T14:34:47.280Z","xdop":1.70,"ydop":1.69,"vdop":3.49,"tdop":3.12,"hdop":3.20,"gdop":5.26,"pdop":4.23,"satellites":[{"PRN":23,"el":6.5,"az":84.0,"ss":0.0,"used":false,"gnssid":0,"svid":23},{"PRN":28,"el":7.5,"az":160.5,"ss":0.0,"used":false,"gnssid":0,"svid":28},{"PRN":8,"el":66.0,"az":189.0,"ss":44.1,"used":true,"gnssid":0,"svid":8},{"PRN":29,"el":13.5,"az":273.0,"ss":0.0,"used":false,"gnssid":0,"svid":29},{"PRN":10,"el":51.0,"az":304.5,"ss":28.4,"used":true,"gnssid":0,"svid":10},{"PRN":4,"el":15.5,"az":199.5,"ss":36.3,"used":true,"gnssid":0,"svid":4},{"PRN":2,"el":34.0,"az":241.5,"ss":42.3,"used":true,"gnssid":0,"svid":2},{"PRN":27,"el":71.5,"az":76.5,"ss":42.5,"used":true,"gnssid":0,"svid":27}]}
$GPZDA,143447.28,23,01,2025,00,00*68
$GPGGA,143447.28,4629.8984,N,00734.0440,E,1,05,2.40,1345.67,M,45.590,M,,*5F
$GPRMC,143447.28,A,4629.8984,N,00734.0440,E,0.1776,10.379,230125,2.3,E*5A
$GPGSA,A,3,8,10,4,2,27,,,,,,,,4.2,2.4,3.5*0E
$GPGBS,143447.28,25.475,25.404,80.249,,,,*7B
{"class":"TPV","mode":3,"time":"2025-01-23T14:34:47.280Z","ept":0.005,"lat":46.498306886,"lon":7.567400477,"altHAE":1391.262,"altMSL":1345.672,"epx":25.475,"epy":25.404,"epv":80.249,"track":10.3788,"magtrack":12.7005,"magvar":2.3,"speed":0.091,"climb":-0.085,"eps":50.95,"epc":160.50,"ecefx":4360952.00,"ecefy":579350.00,"ecefz":4604560.00,"ecefvx":-0.12,"ecefvy":0.00,"ecefvz":0.00,"velN":0.090,"velE":0.016,"velD":0.085,"geoidSep":45.590,"eph":45.600,"sep":80.445}
$GPGSV,2,1,08,23,06,084,00,28,08,160,00,08,66,189,45,29,14,273,00*7D
$GPGSV,2,2,08,10,51,304,28,04,16,200,38,02,34,242,43,27,72,076,42*72
{"class":"SKY","time":"2025-01-23T14:34:48.280Z","xdop":1.70,"ydop":1.69,"vdop":3.49,"tdop":3.12,"hdop":2.40,"gdop":5.26,"pdop":4.23,"satellites":[{"PRN":23,"el":6.5,"az":84.0,"ss":0.0,"used":false,"gnssid":0,"svid":23},{"PRN":28,"el":7.5,"az":160.5,"ss":0.0,"used":false,"gnssid":0,"svid":28},{"PRN":8,"el":66.0,"az":189.0,"ss":45.0,"used":true,"gnssid":0,"svid":8},{"PRN":29,"el":13.5,"az":273.0,"ss":0.0,"used":false,"gnssid":0,"svid":29},{"PRN":10,"el":51.0,"az":304.5,"ss":28.2,"used":true,"gnssid":0,"svid":10},{"PRN":4,"el":15.5,"az":199.5,"ss":38.0,"used":true,"gnssid":0,"svid":4},{"PRN":2,"el":34.0,"az":241.5,"ss":42.6,"used":true,"gnssid":0,"svid":2},{"PRN":27,"el":71.5,"az":76.5,"ss":42.3,"used":true,"gnssid":0,"svid":27}]}
$GPZDA,143448.28,23,01,2025,00,00*67
$GPGGA,143448.28,4629.8992,N,00734.0441,E,1,05,2.40,1345.72,M,45.590,M,,*52
$GPRMC,143448.28,A,4629.8992,N,00734.0441,E,0.1776,10.379,230125,2.3,E*53
$GPGSA,A,3,8,10,4,2,27,,,,,,,,4.2,2.4,3.5*0E
$GPGBS,143448.28,25.475,25.404,80.249,,,,*74
{"class":"TPV","mode":3,"time":"2025-01-23T14:34:48.280Z","ept":0.005,"lat":46.498319544,"lon":7.567402192,"altHAE":1391.305,"altMSL":1345.715,"epx":25.475,"epy":25.404,"epv":80.249,"track":10.3788,"magtrack":12.7005,"magvar":2.3,"speed":0.091,"climb":-0.085,"eps":50.95,"epc":160.50,"ecefx":4360951.00,"ecefy":579350.00,"ecefz":4604561.00,"ecefvx":-0.12,"ecefvy":0.00,"ecefvz":0.00,"velN":0.090,"velE":0.016,"velD":0.085,"geoidSep":45.590,"eph":45.600,"sep":80.445}
$GPGSV,2,1,08,23,06,084,00,28,08,160,00,08,66,189,45,29,14,273,00*7D
$GPGSV,2,2,08,10,51,304,29,04,16,200,37,02,34,242,42,27,72,076,42*7D
{"class":"SKY","time":"2025-01-23T14:34:49.280Z","xdop":1.70,"ydop":1.69,"vdop":3.49,"tdop":3.12,"hdop":2.40,"gdop":5.26,"pdop":4.23,"satellites":[{"PRN":23,"el":6.5,"az":84.0,"ss":0.0,"used":false,"gnssid":0,"svid":23},{"PRN":28,"el":7.5,"az":160.5,"ss":0.0,"used":false,"gnssid":0,"svid":28},{"PRN":8,"el":66.0,"az":189.0,"ss":44.7,"used":true,"gnssid":0,"svid":8},{"PRN":29,"el":13.5,"az":273.0,"ss":0.0,"used":false,"gnssid":0,"svid":29},{"PRN":10,"el":51.0,"az":304.5,"ss":29.0,"used":true,"gnssid":0,"svid":10},{"PRN":4,"el":15.5,"az":199.5,"ss":36.8,"used":true,"gnssid":0,"svid":4},{"PRN":2,"el":34.0,"az":241.5,"ss":42.0,"used":true,"gnssid":0,"svid":2},{"PRN":27,"el":71.5,"az":76.5,"ss":41.7,"used":true,"gnssid":0,"svid":27}]}
$GPZDA,143449.28,23,01,2025,00,00*66
$GPGGA,143449.28,4629.8992,N,00734.0441,E,1,05,2.40,1345.72,M,45.590,M,,*53
$GPRMC,143449.28,A,4629.8992,N,00734.0441,E,0.1776,10.379,230125,2.3,E*52
$GPGSA,A,3,8,10,4,2,27,,,,,,,,4.2,2.4,3.5*0E
$GPGBS,143449.28,25.475,25.404,80.249,,,,*75
{"class":"TPV","mode":3,"time":"2025-01-23T14:34:49.280Z","ept":0.005,"lat":46.498319544,"lon":7.567402192,"altHAE":1391.305,"altMSL":1345.715,"epx":25.475,"epy":25.404,"epv":80.249,"track":10.3788,"magtrack":12.7005,"magvar":2.3,"speed":0.091,"climb":-0.085,"eps":50.95,"epc":160.50,"ecefx":4360951.00,"ecefy":579350.00,"ecefz":4604561.00,"ecefvx":-0.12,"ecefvy":0.00,"ecefvz":0.00,"velN":0.090,"velE":0.016,"velD":0.085,"geoidSep":45.590,"eph":45.600,"sep":80.445}
$GPGSV,2,1,08,23,06,084,00,28,08,160,00,08,66,189,45,29,14,273,00*7D
$GPGSV,2,2,08,10,51,304,32,04,16,200,36,02,34,242,43,27,72,076,42*77
{"class":"SKY","time":"2025-01-23T14:34:50.280Z","xdop":1.70,"ydop":1.69,"vdop":3.49,"tdop":3.12,"hdop":2.40,"gdop":5.26,"pdop":4.23,"satellites":[{"PRN":23,"el":6.5,"az":84.0,"ss":0.0,"used":false,"gnssid":0,"svid":23},{"PRN":28,"el":7.5,"az":160.5,"ss":0.0,"used":false,"gnssid":0,"svid":28},{"PRN":8,"el":66.0,"az":189.0,"ss":44.9,"used":true,"gnssid":0,"svid":8},{"PRN":29,"el":13.5,"az":273.0,"ss":0.0,"used":false,"gnssid":0,"svid":29},{"PRN":10,"el":51.0,"az":304.5,"ss":31.9,"used":true,"gnssid":0,"svid":10},{"PRN":4,"el":15.5,"az":199.5,"ss":35.7,"used":true,"gnssid":0,"svid":4},{"PRN":2,"el":34.0,"az":241.5,"ss":42.9,"used":true,"gnssid":0,"svid":2},{"PRN":27,"el":71.5,"az":76.5,"ss":42.2,"used":true,"gnssid":0,"svid":27}]}
$GPZDA,143450.28,23,01,2025,00,00*6E
$GPGGA,143450.28,4629.8992,N,00734.0441,E,1,05,2.40,1345.72,M,45.590,M,,*5B
$GPRMC,143450.28,A,4629.8992,N,00734.0441,E,0.1776,10.379,230125,2.3,E*5A
$GPGSA,A,3,8,10,4,2,27,,,,,,,,4.2,2.4,3.5*0E
$GPGBS,143450.28,25.475,25.404,80.249,,,,*7D
{"class":"TPV","mode":3,"time":"2025-01-23T14:34:50.280Z","ept":0.005,"lat":46.498319544,"lon":7.567402192,"altHAE":1391.305,"altMSL":1345.715,"epx":25.475,"epy":25.404,"epv":80.249,"track":10.3788,"magtrack":12.7005,"magvar":2.3,"speed":0.091,"climb":-0.085,"eps":50.95,"epc":160.50,"ecefx":4360951.00,"ecefy":579350.00,"ecefz":4604561.00,"ecefvx":-0.12,"ecefvy":0.00,"ecefvz":0.00,"velN":0.090,"velE":0.016,"velD":0.085,"geoidSep":45.590,"eph":45.600,"sep":80.445}
$GPGSV,2,1,08,23,06,084,00,28,08,160,00,08,66,189,45,29,14,273,00*7D
$GPGSV,2,2,08,10,51,304,29,04,16,200,36,02,34,242,41,27,72,076,42*7F
{"class":"SKY","time":"2025-01-23T14:34:51.280Z","xdop":1.70,"ydop":1.69,"vdop":3.49,"tdop":3.12,"hdop":2.40,"gdop":5.26,"pdop":4.23,"satellites":[{"PRN":23,"el":6.5,"az":84.0,"ss":0.0,"used":false,"gnssid":0,"svid":23},{"PRN":28,"el":7.5,"az":160.5,"ss":0.0,"used":false,"gnssid":0,"svid":28},{"PRN":8,"el":66.0,"az":189.0,"ss":44.8,"used":true,"gnssid":0,"svid":8},{"PRN":29,"el":13.5,"az":273.0,"ss":0.0,"used":false,"gnssid":0,"svid":29},{"PRN":10,"el":51.0,"az":304.5,"ss":29.3,"used":true,"gnssid":0,"svid":10},{"PRN":4,"el":15.5,"az":199.5,"ss":35.7,"used":true,"gnssid":0,"svid":4},{"PRN":2,"el":34.0,"az":241.5,"ss":40.8,"used":true,"gnssid":0,"svid":2},{"PRN":27,"el":71.5,"az":76.5,"ss":42.1,"used":true,"gnssid":0,"svid":27}]}
$GPZDA,143451.28,23,01,2025,00,00*6F
$GPGGA,143451.28,4629.8999,N,00734.0442,E,1,05,2.40,1345.76,M,45.590,M,,*56
$GPRMC,143451.28,A,4629.8999,N,00734.0442,E,0.1776,10.379,230125,2.3,E*53
$GPGSA,A,3,8,10,4,2,27,,,,,,,,4.2,2.4,3.5*0E
$GPGBS,143451.28,25.475,25.404,80.249,,,,*7C
{"class":"TPV","mode":3,"time":"2025-01-23T14:34:51.280Z","ept":0.005,"lat":46.498332203,"lon":7.567403907,"altHAE":1391.348,"altMSL":1345.758,"epx":25.475,"epy":25.404,"epv":80.249,"track":10.3788,"magtrack":12.7005,"magvar":2.3,"speed":0.091,"climb":-0.085,"eps":50.95,"epc":160.50,"ecefx":4360950.00,"ecefy":579350.00,"ecefz":4604562.00,"ecefvx":-0.12,"ecefvy":0.00,"ecefvz":0.00,"velN":0.090,"velE":0.016,"velD":0.085,"geoidSep":45.590,"eph":45.600,"sep":80.445}
$GPGSV,2,1,08,23,06,084,00,28,08,160,00,08,66,189,45,29,14,273,00*7D
$GPGSV,2,2,08,10,51,304,25,04,16,200,36,02,34,242,42,27,72,076,42*70
{"class":"SKY","time":"2025-01-23T14:34:52.280Z","xdop":1.70,"ydop":1.69,"vdop":3.49,"tdop":3.12,"hdop":2.40,"gdop":5.26,"pdop":4.23,"satellites":[{"PRN":23,"el":6.5,"az":84.0,"ss":0.0,"used":false,"gnssid":0,"svid":23},{"PRN":28,"el":7.5,"az":160.5,"ss":0.0,"used":false,"gnssid":0,"svid":28},{"PRN":8,"el":66.0,"az":189.0,"ss":44.6,"used":true,"gnssid":0,"svid":8},{"PRN":29,"el":13.5,"az":273.0,"ss":0.0,"used":false,"gnssid":0,"svid":29},{"PRN":10,"el":51.0,"az":304.5,"ss":25.0,"used":true,"gnssid":0,"svid":10},{"PRN":4,"el":15.5,"az":199.5,"ss":36.1,"used":true,"gnssid":0,"svid":4},{"PRN":2,"el":34.0,"az":241.5,"ss":41.8,"used":true,"gnssid":0,"svid":2},{"PRN":27,"el":71.5,"az":76.5,"ss":42.2,"used":true,"gnssid":0,"svid":27}]}
$GPZDA,143452.28,23,01,2025,00,00*6C
$GPGGA,143452.28,4629.8999,N,00734.0442,E,1,05,3.20,1345.76,M,45.590,M,,*52
$GPRMC,143452.28,A,4629.8999,N,00734.0442,E,0.1776,10.379,230125,2.3,E*50
$GPGSA,A,3,8,10,4,2,27,,,,,,,,4.2,3.2,3.5*09
$GPGBS,143452.28,25.475,25.404,80.249,,,,*7F
{"class":"TPV","mode":3,"time":"2025-01-23T14:34:52.280Z","ept":0.005,"lat":46.498332203,"lon":7.567403907,"altHAE":1391.348,"altMSL":1345.758,"epx":25.475,"epy":25.404,"epv":80.249,"track":10.3788,"magtrack":12.7005,"magvar":2.3,"speed":0.091,"climb":-0.085,"eps":50.95,"epc":160.50,"ecefx":4360950.00,"ecefy":579350.00,"ecefz":4604562.00,"ecefvx":-0.12,"ecefvy":0.00,"ecefvz":0.00,"velN":0.090,"velE":0.016,"velD":0.085,"geoidSep":45.590,"eph":60.800,"sep":80.445}
$GPGSV,2,1,08,23,06,084,00,28,08,160,00,08,66,189,46,29,14,273,00*7E
$GPGSV,2,2,08,10,51,304,32,04,16,200,36,02,34,242,42,27,72,076,42*76
{"class":"SKY","time":"2025-01-23T14:34:53.280Z","xdop":1.70,"ydop":1.69,"vdop":3.49,"tdop":3.12,"hdop":3.20,"gdop":5.26,"pdop":4.23,"satellites":[{"PRN":23,"el":6.5,"az":84.0,"ss":0.0,"used":false,"gnssid":0,"svid":23},{"PRN":28,"el":7.5,"az":160.5,"ss":0.0,"used":false,"gnssid":0,"svid":28},{"PRN":8,"el":66.0,"az":189.0,"ss":45.9,"used":true,"gnssid":0,"svid":8},{"PRN":29,"el":13.5,"az":273.0,"ss":0.0,"used":false,"gnssid":0,"svid":29},{"PRN":10,"el":51.0,"az":304.5,"ss":32.0,"used":true,"gnssid":0,"svid":10},{"PRN":4,"el":15.5,"az":199.5,"ss":35.9,"used":true,"gnssid":0,"svid":4},{"PRN":2,"el":34.0,"az":241.5,"ss":42.4,"used":true,"gnssid":0,"svid":2},{"PRN":27,"el":71.5,"az":76.5,"ss":42.3,"used":true,"gnssid":0,"svid":27}]}
$GPZDA,143453.28,23,01,2025,00,00*6D
$GPGGA,143453.28,4629.9000,N,00734.0435,E,1,05,2.40,1345.67,M,45.590,M,,*5C
$GPRMC,143453.28,A,4629.9000,N,00734.0435,E,0.1776,10.379,230125,2.3,E*59
$GPGSA,A,3,8,10,4,2,27,,,,,,,,4.2,2.4,3.5*0E
$GPGBS,143453.28,25.475,25.404,80.249,,,,*7E
{"class":"TPV","mode":3,"time":"2025-01-23T14:34:53.280Z","ept":0.005,"lat":46.498333062,"lon":7.567390997,"altHAE":1391.257,"altMSL":1345.668,"epx":25.475,"epy":25.404,"epv":80.249,"track":10.3787,"magtrack":12.7005,"magvar":2.3,"speed":0.091,"climb":-0.085,"eps":50.95,"epc":160.50,"ecefx":4360950.00,"ecefy":579349.00,"ecefz":4604562.00,"ecefvx":-0.12,"ecefvy":0.00,"ecefvz":0.00,"velN":0.090,"velE":0.016,"velD":0.085,"geoidSep":45.590,"eph":45.600,"sep":80.445}
$GPGSV,2,1,08,23,06,084,00,28,08,160,00,08,66,189,46,29,14,273,00*7E
$GPGSV,2,2,08,10,51,304,31,04,16,200,37,02,34,242,42,27,72,076,43*75
{"class":"SKY","time":"2025-01-23T14:34:54.280Z","xdop":1.70,"ydop":1.69,"vdop":3.49,"tdop":3.12,"hdop":2.40,"gdop":5.26,"pdop":4.23,"satellites":[{"PRN":23,"el":6.5,"az":84.0,"ss":0.0,"used":false,"gnssid":0,"svid":23},{"PRN":28,"el":7.5,"az":160.5,"ss":0.0,"used":false,"gnssid":0,"svid":28},{"PRN":8,"el":66.0,"az":189.0,"ss":45.8,"used":true,"gnssid":0,"svid":8},{"PRN":29,"el":13.5,"az":273.0,"ss":0.0,"used":false,"gnssid":0,"svid":29},{"PRN":10,"el":51.0,"az":304.5,"ss":30.6,"used":true,"gnssid":0,"svid":10},{"PRN":4,"el":15.5,"az":199.5,"ss":36.9,"used":true,"gnssid":0,"svid":4},{"PRN":2,"el":34.0,"az":241.5,"ss":41.8,"used":true,"gnssid":0,"svid":2},{"PRN":27,"el":71.5,"az":76.5,"ss":43.1,"used":true,"gnssid":0,"svid":27}]}
$GPZDA,143454.28,23,01,2025,00,00*6A
$GPGGA,143454.28,4629.9004,N,00734.0436,E,1,05,2.40,1344.99,M,45.590,M,,*5C
$GPRMC,143454.28,A,4629.9004,N,00734.0436,E,0.1776,10.379,230125,2.3,E*59
$GPGSA,A,3,8,10,4,2,27,,,,,,,,4.2,2.4,3.5*0E
$GPGBS,143454.28,25.475,25.404,80.249,,,,*79
{"class":"TPV","mode":3,"time":"2025-01-23T14:34:54.280Z","ept":0.005,"lat":46.498339529,"lon":7.567392712,"altHAE":1390.575,"altMSL":1344.985,"epx":25.475,"epy":25.404,"epv":80.249,"track":10.3787,"magtrack":12.7005,"magvar":2.3,"speed":0.091,"climb":-0.085,"eps":50.95,"epc":160.50,"ecefx":4360949.00,"ecefy":579349.00,"ecefz":4604562.00,"ecefvx":-0.12,"ecefvy":0.00,"ecefvz":0.00,"velN":0.090,"velE":0.016,"velD":0.085,"geoidSep":45.590,"eph":45.600,"sep":80.445}
