$GPGSV,2,1,07,10,45,196,10,29,67,310,42,28,59,108,40,26,51,304,44*70
$GPGSV,2,2,07,08,44,058,43,27,16,066,37,21,10,301,00*4A
{"class":"SKY","time":"2025-02-02T16:12:22.890Z","xdop":1.02,"ydop":1.08,"vdop":2.56,"tdop":1.96,"hdop":1.48,"gdop":3.55,"pdop":2.96,"satellites":[{"PRN":10,"el":45,"az":196,"ss":10,"used":true,"gnssid":0,"svid":10},{"PRN":29,"el":67,"az":310,"ss":42,"used":true,"gnssid":0,"svid":29},{"PRN":28,"el":59,"az":108,"ss":40,"used":true,"gnssid":0,"svid":28},{"PRN":26,"el":51,"az":304,"ss":44,"used":true,"gnssid":0,"svid":26},{"PRN":8,"el":44,"az":58,"ss":43,"used":true,"gnssid":0,"svid":8},{"PRN":27,"el":16,"az":66,"ss":37,"used":true,"gnssid":0,"svid":27},{"PRN":21,"el":10,"az":301,"ss":0,"used":false,"gnssid":0,"svid":21}]}
$GPZDA,161222.89,02,02,2025,00,00*66
$GPGGA,161222.89,4629.8923,N,00734.0837,E,1,06,3.20,1327.69,M,48.183,M,,*55
$GPRMC,161222.89,A,4629.8923,N,00734.0837,E,0.1673,180.000,020225,,*0E
$GPGSA,A,3,10,29,28,26,8,27,,,,,,,3.0,3.2,2.6*0D
$GPGBS,161222.89,15.279,16.167,58.845,,,,*7F
{"class":"TPV","mode":3,"time":"2025-02-02T16:12:22.890Z","ept":0.005,"lat":46.498204497,"lon":7.568061439,"alt":1327.689,"epx":15.279,"epy":16.167,"epv":58.845,"track":180.0000,"speed":0.086,"climb":-0.091,"ecefx":4360943.00,"ecefy":579400.00,"ecefz":4604541.00,"ecefvx":0.00,"ecefvy":0.00,"ecefvz":-0.12,"eph":60.800,"sep":56.187}
$GPGSV,2,1,07,10,45,196,08,29,67,310,41,28,59,108,40,26,51,304,43*7D
$GPGSV,2,2,07,08,44,058,42,27,16,066,36,21,10,301,00*4A
{"class":"SKY","time":"2025-02-02T16:12:23.890Z","xdop":1.02,"ydop":1.08,"vdop":2.56,"tdop":1.96,"hdop":3.20,"gdop":3.55,"pdop":2.96,"satellites":[{"PRN":10,"el":45,"az":196,"ss":8,"used":true,"gnssid":0,"svid":10},{"PRN":29,"el":67,"az":310,"ss":41,"used":true,"gnssid":0,"svid":29},{"PRN":28,"el":59,"az":108,"ss":40,"used":true,"gnssid":0,"svid":28},{"PRN":26,"el":51,"az":304,"ss":43,"used":true,"gnssid":0,"svid":26},{"PRN":8,"el":44,"az":58,"ss":42,"used":true,"gnssid":0,"svid":8},{"PRN":27,"el":16,"az":66,"ss":36,"used":true,"gnssid":0,"svid":27},{"PRN":21,"el":10,"az":301,"ss":0,"used":false,"gnssid":0,"svid":21}]}
$GPZDA,161223.89,02,02,2025,00,00*67
$GPGGA,161223.89,4629.8923,N,00734.0837,E,1,06,3.20,1327.69,M,48.183,M,,*54
$GPRMC,161223.89,A,4629.8923,N,00734.0837,E,0.1776,10.380,020225,,*38
$GPGSA,A,3,10,29,28,26,8,27,,,,,,,3.0,3.2,2.6*0D
$GPGBS,161223.89,15.279,16.167,58.845,,,,*7E
{"class":"TPV","mode":3,"time":"2025-02-02T16:12:23.890Z","ept":0.005,"lat":46.498204497,"lon":7.568061439,"alt":1327.689,"epx":15.279,"epy":16.167,"epv":58.845,"track":10.3797,"speed":0.091,"climb":-0.085,"eps":32.33,"epc":117.69,"ecefx":4360943.00,"ecefy":579400.00,"ecefz":4604541.00,"ecefvx":-0.12,"ecefvy":0.00,"ecefvz":0.00,"eph":60.800,"sep":56.187}
$GPGSV,2,1,07,10,45,196,33,29,67,310,42,28,59,108,42,26,51,304,43*74
$GPGSV,2,2,07,08,44,058,44,27,16,066,36,21,10,301,00*4C
{"class":"SKY","time":"2025-02-02T16:12:24.890Z","xdop":1.02,"ydop":1.08,"vdop":2.56,"tdop":1.96,"hdop":3.20,"gdop":3.55,"pdop":2.96,"satellites":[{"PRN":10,"el":45,"az":196,"ss":33,"used":true,"gnssid":0,"svid":10},{"PRN":29,"el":67,"az":310,"ss":42,"used":true,"gnssid":0,"svid":29},{"PRN":28,"el":59,"az":108,"ss":42,"used":true,"gnssid":0,"svid":28},{"PRN":26,"el":51,"az":304,"ss":43,"used":true,"gnssid":0,"svid":26},{"PRN":8,"el":44,"az":58,"ss":44,"used":true,"gnssid":0,"svid":8},{"PRN":27,"el":16,"az":66,"ss":36,"used":true,"gnssid":0,"svid":27},{"PRN":21,"el":10,"az":301,"ss":0,"used":false,"gnssid":0,"svid":21}]}
$GPZDA,161224.89,02,02,2025,00,00*60
$GPGGA,161224.89,4629.8923,N,00734.0837,E,1,06,1.40,1327.69,M,48.183,M,,*57
$GPRMC,161224.89,A,4629.8923,N,00734.0837,E,0.1673,180.000,020225,,*08
$GPGSA,A,3,10,29,28,26,8,27,,,,,,,3.0,1.4,2.6*09
$GPGBS,161224.89,15.279,16.167,58.845,,,,*79
{"class":"TPV","mode":3,"time":"2025-02-02T16:12:24.890Z","ept":0.005,"lat":46.498204497,"lon":7.568061439,"alt":1327.689,"epx":15.279,"epy":16.167,"epv":58.845,"track":180.0000,"speed":0.086,"climb":-0.091,"eps":32.33,"epc":117.69,"ecefx":4360943.00,"ecefy":579400.00,"ecefz":4604541.00,"ecefvx":0.00,"ecefvy":0.00,"ecefvz":-0.12,"eph":26.600,"sep":56.187}
$GPGSV,2,1,07,10,45,196,31,29,67,310,43,28,59,108,42,26,51,304,45*71
$GPGSV,2,2,07,08,44,058,46,27,16,066,42,21,10,301,00*4D
{"class":"SKY","time":"2025-02-02T16:12:25.890Z","xdop":1.02,"ydop":1.08,"vdop":2.56,"tdop":1.96,"hdop":1.40,"gdop":3.55,"pdop":2.96,"satellites":[{"PRN":10,"el":45,"az":196,"ss":31,"used":true,"gnssid":0,"svid":10},{"PRN":29,"el":67,"az":310,"ss":43,"used":true,"gnssid":0,"svid":29},{"PRN":28,"el":59,"az":108,"ss":42,"used":true,"gnssid":0,"svid":28},{"PRN":26,"el":51,"az":304,"ss":45,"used":true,"gnssid":0,"svid":26},{"PRN":8,"el":44,"az":58,"ss":46,"used":true,"gnssid":0,"svid":8},{"PRN":27,"el":16,"az":66,"ss":42,"used":true,"gnssid":0,"svid":27},{"PRN":21,"el":10,"az":301,"ss":0,"used":false,"gnssid":0,"svid":21}]}
$GPZDA,161225.89,02,02,2025,00,00*61
$GPGGA,161225.89,4629.8923,N,00734.0837,E,1,06,1.40,1327.69,M,48.183,M,,*56
$GPRMC,161225.89,A,4629.8923,N,00734.0837,E,0.0000,0.000,020225,,*03
$GPGSA,A,3,10,29,28,26,8,27,,,,,,,3.0,1.4,2.6*09
$GPGBS,161225.89,15.279,16.167,58.845,,,,*78
{"class":"TPV","mode":3,"time":"2025-02-02T16:12:25.890Z","ept":0.005,"lat":46.498204497,"lon":7.568061439,"alt":1327.689,"epx":15.279,"epy":16.167,"epv":58.845,"track":0.0000,"speed":0.000,"climb":0.000,"eps":32.33,"epc":117.69,"ecefx":4360943.00,"ecefy":579400.00,"ecefz":4604541.00,"ecefvx":0.00,"ecefvy":0.00,"ecefvz":0.00,"eph":26.600,"sep":56.187}
$GPGSV,2,1,07,10,45,196,33,29,67,310,40,28,59,108,41,26,51,304,43*75
$GPGSV,2,2,07,08,44,058,44,27,16,066,40,21,10,301,00*4D
{"class":"SKY","time":"2025-02-02T16:12:26.890Z","xdop":1.02,"ydop":1.08,"vdop":2.56,"tdop":1.96,"hdop":1.40,"gdop":3.55,"pdop":2.96,"satellites":[{"PRN":10,"el":45,"az":196,"ss":33,"used":true,"gnssid":0,"svid":10},{"PRN":29,"el":67,"az":310,"ss":40,"used":true,"gnssid":0,"svid":29},{"PRN":28,"el":59,"az":108,"ss":41,"used":true,"gnssid":0,"svid":28},{"PRN":26,"el":51,"az":304,"ss":43,"used":true,"gnssid":0,"svid":26},{"PRN":8,"el":44,"az":58,"ss":44,"used":true,"gnssid":0,"svid":8},{"PRN":27,"el":16,"az":66,"ss":40,"used":true,"gnssid":0,"svid":27},{"PRN":21,"el":10,"az":301,"ss":0,"used":false,"gnssid":0,"svid":21}]}
$GPZDA,161226.89,02,02,2025,00,00*62
$GPGGA,161226.89,4629.8919,N,00734.0837,E,1,06,1.40,1326.96,M,48.183,M,,*5D
$GPRMC,161226.89,A,4629.8919,N,00734.0837,E,0.1673,180.000,020225,,*03
$GPGSA,A,3,10,29,28,26,8,27,,,,,,,3.0,1.4,2.6*09
$GPGBS,161226.89,15.279,16.167,58.845,,,,*7B
{"class":"TPV","mode":3,"time":"2025-02-02T16:12:26.890Z","ept":0.005,"lat":46.498198306,"lon":7.568061439,"alt":1326.964,"epx":15.279,"epy":16.167,"epv":58.845,"track":180.0000,"speed":0.086,"climb":-0.091,"eps":32.33,"epc":117.69,"ecefx":4360943.00,"ecefy":579400.00,"ecefz":4604540.00,"ecefvx":0.00,"ecefvy":0.00,"ecefvz":-0.12,"eph":26.600,"sep":56.187}
$GPGSV,2,1,07,10,45,196,34,29,67,310,40,28,59,108,43,26,51,304,43*70
$GPGSV,2,2,07,08,44,058,42,27,16,066,39,21,10,301,00*45
{"class":"SKY","time":"2025-02-02T16:12:27.890Z","xdop":1.02,"ydop":1.08,"vdop":2.56,"tdop":1.96,"hdop":1.40,"gdop":3.55,"pdop":2.96,"satellites":[{"PRN":10,"el":45,"az":196,"ss":34,"used":true,"gnssid":0,"svid":10},{"PRN":29,"el":67,"az":310,"ss":40,"used":true,"gnssid":0,"svid":29},{"PRN":28,"el":59,"az":108,"ss":43,"used":true,"gnssid":0,"svid":28},{"PRN":26,"el":51,"az":304,"ss":43,"used":true,"gnssid":0,"svid":26},{"PRN":8,"el":44,"az":58,"ss":42,"used":true,"gnssid":0,"svid":8},{"PRN":27,"el":16,"az":66,"ss":39,"used":true,"gnssid":0,"svid":27},{"PRN":21,"el":10,"az":301,"ss":0,"used":false,"gnssid":0,"svid":21}]}
$GPZDA,161227.89,02,02,2025,00,00*63
$GPGGA,161227.89,4629.8919,N,00734.0837,E,1,06,1.40,1326.96,M,48.183,M,,*5C
$GPRMC,161227.89,A,4629.8919,N,00734.0837,E,0.0000,0.000,020225,,*08
$GPGSA,A,3,10,29,28,26,8,27,,,,,,,3.0,1.4,2.6*09
$GPGBS,161227.89,15.279,16.167,58.845,,,,*7A
{"class":"TPV","mode":3,"time":"2025-02-02T16:12:27.890Z","ept":0.005,"lat":46.498198306,"lon":7.568061439,"alt":1326.964,"epx":15.279,"epy":16.167,"epv":58.845,"track":0.0000,"speed":0.000,"climb":0.000,"eps":32.33,"epc":117.69,"ecefx":4360943.00,"ecefy":579400.00,"ecefz":4604540.00,"ecefvx":0.00,"ecefvy":0.00,"ecefvz":0.00,"eph":26.600,"sep":56.187}
$GPGSV,2,1,07,10,45,196,35,29,67,310,39,28,59,108,43,26,51,304,43*7F
$GPGSV,2,2,07,08,44,058,42,27,16,066,38,21,10,301,00*44
{"class":"SKY","time":"2025-02-02T16:12:28.890Z","xdop":1.02,"ydop":1.08,"vdop":2.56,"tdop":1.96,"hdop":1.40,"gdop":3.55,"pdop":2.96,"satellites":[{"PRN":10,"el":45,"az":196,"ss":35,"used":true,"gnssid":0,"svid":10},{"PRN":29,"el":67,"az":310,"ss":39,"used":true,"gnssid":0,"svid":29},{"PRN":28,"el":59,"az":108,"ss":43,"used":true,"gnssid":0,"svid":28},{"PRN":26,"el":51,"az":304,"ss":43,"used":true,"gnssid":0,"svid":26},{"PRN":8,"el":44,"az":58,"ss":42,"used":true,"gnssid":0,"svid":8},{"PRN":27,"el":16,"az":66,"ss":38,"used":true,"gnssid":0,"svid":27},{"PRN":21,"el":10,"az":301,"ss":0,"used":false,"gnssid":0,"svid":21}]}
$GPZDA,161228.89,02,02,2025,00,00*6C
$GPGGA,161228.89,4629.8919,N,00734.0837,E,1,06,1.40,1326.96,M,48.183,M,,*53
$GPRMC,161228.89,A,4629.8919,N,00734.0837,E,0.0000,0.000,020225,,*07
$GPGSA,A,3,10,29,28,26,8,27,,,,,,,3.0,1.4,2.6*09
$GPGBS,161228.89,15.279,16.167,58.845,,,,*75
{"class":"TPV","mode":3,"time":"2025-02-02T16:12:28.890Z","ept":0.005,"lat":46.498198306,"lon":7.568061439,"alt":1326.964,"epx":15.279,"epy":16.167,"epv":58.845,"track":0.0000,"speed":0.000,"climb":0.000,"eps":32.33,"epc":117.69,"ecefx":4360943.00,"ecefy":579400.00,"ecefz":4604540.00,"ecefvx":0.00,"ecefvy":0.00,"ecefvz":0.00,"eph":26.600,"sep":56.187}
$GPGSV,2,1,07,10,45,196,37,29,67,310,40,28,59,108,45,26,51,304,42*74
$GPGSV,2,2,07,08,44,058,42,27,16,066,38,21,10,301,00*44
{"class":"SKY","time":"2025-02-02T16:12:29.890Z","xdop":1.02,"ydop":1.08,"vdop":2.56,"tdop":1.96,"hdop":1.40,"gdop":3.55,"pdop":2.96,"satellites":[{"PRN":10,"el":45,"az":196,"ss":37,"used":true,"gnssid":0,"svid":10},{"PRN":29,"el":67,"az":310,"ss":40,"used":true,"gnssid":0,"svid":29},{"PRN":28,"el":59,"az":108,"ss":45,"used":true,"gnssid":0,"svid":28},{"PRN":26,"el":51,"az":304,"ss":42,"used":true,"gnssid":0,"svid":26},{"PRN":8,"el":44,"az":58,"ss":42,"used":true,"gnssid":0,"svid":8},{"PRN":27,"el":16,"az":66,"ss":38,"used":true,"gnssid":0,"svid":27},{"PRN":21,"el":10,"az":301,"ss":0,"used":false,"gnssid":0,"svid":21}]}
$GPZDA,161229.89,02,02,2025,00,00*6D
$GPGGA,161229.89,4629.8919,N,00734.0837,E,1,06,1.40,1326.96,M,48.183,M,,*52
$GPRMC,161229.89,A,4629.8919,N,00734.0837,E,0.0000,0.000,020225,,*06
$GPGSA,A,3,10,29,28,26,8,27,,,,,,,3.0,1.4,2.6*09
$GPGBS,161229.89,15.279,16.167,58.845,,,,*74
{"class":"TPV","mode":3,"time":"2025-02-02T16:12:29.890Z","ept":0.005,"lat":46.498198306,"lon":7.568061439,"alt":1326.964,"epx":15.279,"epy":16.167,"epv":58.845,"track":0.0000,"speed":0.000,"climb":0.000,"eps":32.33,"epc":117.69,"ecefx":4360943.00,"ecefy":579400.00,"ecefz":4604540.00,"ecefvx":0.00,"ecefvy":0.00,"ecefvz":0.00,"eph":26.600,"sep":56.187}
