$GPGGA,143502,4629.8972,N,00734.0447,E,1,05,2.40,1342.40,M,48.183,M,,*7C
$GPRMC,143502,A,4629.8972,N,00734.0447,E,0.1776,10.379,090605,,*17
$GPGSA,A,3,08,10,04,02,27,,,,,,,,0.0,2.4,0.0*3E
{"class":"TPV","tag":"MID2","time":1118327702.280,"ept":0.005,"lat":46.498287178,"lon":7.567411672,"alt":1342.402,"track":10.3788,"speed":0.091,"climb":-0.085,"mode":3}
$GPGSV,2,1,08,23,06,084,00,28,07,160,00,08,66,189,44,29,13,273,00*74
$GPGSV,2,2,08,10,51,304,29,04,15,199,36,02,34,241,43,27,71,076,43*7C
{"class":"SKY","tag":"MID4","time":1118327703.280,"xdop":0.73,"ydop":1.04,"vdop":1.41,"tdop":0.78,"hdop":1.27,"gdop":2.05,"pdop":1.89,"satellites":[{"PRN":23,"el":6,"az":84,"ss":0,"used":false},{"PRN":28,"el":7,"az":160,"ss":0,"used":false},{"PRN":8,"el":66,"az":189,"ss":44,"used":true},{"PRN":29,"el":13,"az":273,"ss":0,"used":false},{"PRN":10,"el":51,"az":304,"ss":29,"used":true},{"PRN":4,"el":15,"az":199,"ss":36,"used":true},{"PRN":2,"el":34,"az":241,"ss":43,"used":true},{"PRN":27,"el":71,"az":76,"ss":43,"used":true}]}
$GPGGA,143503,4629.8976,N,00734.0447,E,1,05,2.40,1343.13,M,48.183,M,,*7E
$GPRMC,143503,A,4629.8976,N,00734.0447,E,0.1776,10.379,090605,,*12
$GPGSA,A,3,08,10,04,02,27,,,,,,,,1.9,2.4,1.4*33
{"class":"TPV","tag":"MID2","time":1118327703.280,"ept":0.005,"lat":46.498293369,"lon":7.567411672,"alt":1343.127,"epx":10.972,"epy":15.581,"epv":32.321,"track":10.3788,"speed":0.091,"climb":-0.085,"mode":3}
$GPGSV,2,1,08,23,06,084,00,28,07,160,00,08,66,189,44,29,13,273,00*74
$GPGSV,2,2,08,10,51,304,28,04,15,199,37,02,34,241,43,27,71,076,43*7C
{"class":"SKY","tag":"MID4","time":1118327704.280,"xdop":0.73,"ydop":1.04,"vdop":1.41,"tdop":0.78,"hdop":1.27,"gdop":2.05,"pdop":1.89,"satellites":[{"PRN":23,"el":6,"az":84,"ss":0,"used":false},{"PRN":28,"el":7,"az":160,"ss":0,"used":false},{"PRN":8,"el":66,"az":189,"ss":44,"used":true},{"PRN":29,"el":13,"az":273,"ss":0,"used":false},{"PRN":10,"el":51,"az":304,"ss":28,"used":true},{"PRN":4,"el":15,"az":199,"ss":37,"used":true},{"PRN":2,"el":34,"az":241,"ss":43,"used":true},{"PRN":27,"el":71,"az":76,"ss":43,"used":true}]}
$GPGGA,143504,4629.8980,N,00734.0440,E,1,05,2.40,1342.35,M,48.183,M,,*72
$GPRMC,143504,A,4629.8980,N,00734.0440,E,0.1776,10.379,090605,,*1B
$GPGSA,A,3,08,10,04,02,27,,,,,,,,1.9,2.4,1.4*33
{"class":"TPV","tag":"MID2","time":1118327704.280,"ept":0.005,"lat":46.498300695,"lon":7.567400477,"alt":1342.354,"epx":10.972,"epy":15.581,"epv":32.321,"track":10.3788,"speed":0.091,"climb":-0.085,"mode":3}
$GPGSV,2,1,08,23,06,084,00,28,07,160,00,08,66,189,44,29,13,273,00*74
$GPGSV,2,2,08,10,51,304,27,04,15,199,35,02,34,241,42,27,71,076,42*71
{"class":"SKY","tag":"MID4","time":1118327705.280,"xdop":0.73,"ydop":1.04,"vdop":1.41,"tdop":0.78,"hdop":1.27,"gdop":2.05,"pdop":1.89,"satellites":[{"PRN":23,"el":6,"az":84,"ss":0,"used":false},{"PRN":28,"el":7,"az":160,"ss":0,"used":false},{"PRN":8,"el":66,"az":189,"ss":44,"used":true},{"PRN":29,"el":13,"az":273,"ss":0,"used":false},{"PRN":10,"el":51,"az":304,"ss":27,"used":true},{"PRN":4,"el":15,"az":199,"ss":35,"used":true},{"PRN":2,"el":34,"az":241,"ss":42,"used":true},{"PRN":27,"el":71,"az":76,"ss":42,"used":true}]}
$GPGGA,143505,4629.8984,N,00734.0440,E,1,04,3.20,1343.08,M,48.183,M,,*7E
$GPRMC,143505,A,4629.8984,N,00734.0440,E,0.1776,10.379,090605,,*1E
$GPGSA,A,3,08,04,02,27,,,,,,,,,1.9,3.2,1.4*35
{"class":"TPV","tag":"MID2","time":1118327705.280,"ept":0.005,"lat":46.498306887,"lon":7.567400477,"alt":1343.079,"epx":10.972,"epy":15.581,"epv":32.321,"track":10.3788,"speed":0.091,"climb":-0.085,"mode":3}
$GPGSV,2,1,08,23,06,084,00,28,07,160,00,08,66,189,44,29,13,273,00*74
$GPGSV,2,2,08,10,51,304,28,04,15,199,36,02,34,241,42,27,71,076,42*7D
{"class":"SKY","tag":"MID4","time":1118327706.280,"xdop":0.73,"ydop":1.22,"vdop":1.56,"tdop":0.79,"hdop":1.42,"gdop":2.25,"pdop":2.11,"satellites":[{"PRN":23,"el":6,"az":84,"ss":0,"used":false},{"PRN":28,"el":7,"az":160,"ss":0,"used":false},{"PRN":8,"el":66,"az":189,"ss":44,"used":true},{"PRN":29,"el":13,"az":273,"ss":0,"used":false},{"PRN":10,"el":51,"az":304,"ss":28,"used":false},{"PRN":4,"el":15,"az":199,"ss":36,"used":true},{"PRN":2,"el":34,"az":241,"ss":42,"used":true},{"PRN":27,"el":71,"az":76,"ss":42,"used":true}]}
$GPGGA,143506,4629.8984,N,00734.0440,E,1,05,2.40,1343.08,M,48.183,M,,*7B
$GPRMC,143506,A,4629.8984,N,00734.0440,E,0.1776,10.379,090605,,*1D
$GPGSA,A,3,08,10,04,02,27,,,,,,,,2.1,2.4,1.6*3A
{"class":"TPV","tag":"MID2","time":1118327706.280,"ept":0.005,"lat":46.498306887,"lon":7.567400477,"alt":1343.079,"epx":11.014,"epy":18.289,"epv":35.884,"track":10.3788,"speed":0.091,"climb":-0.085,"mode":3}
$GPGSV,2,1,08,23,06,084,00,28,07,160,00,08,66,189,45,29,13,273,00*75
$GPGSV,2,2,08,10,51,304,28,04,15,199,38,02,34,241,43,27,71,076,42*72
{"class":"SKY","tag":"MID4","time":1118327707.280,"xdop":0.73,"ydop":1.04,"vdop":1.41,"tdop":0.78,"hdop":1.27,"gdop":2.05,"pdop":1.89,"satellites":[{"PRN":23,"el":6,"az":84,"ss":0,"used":false},{"PRN":28,"el":7,"az":160,"ss":0,"used":false},{"PRN":8,"el":66,"az":189,"ss":45,"used":true},{"PRN":29,"el":13,"az":273,"ss":0,"used":false},{"PRN":10,"el":51,"az":304,"ss":28,"used":true},{"PRN":4,"el":15,"az":199,"ss":38,"used":true},{"PRN":2,"el":34,"az":241,"ss":43,"used":true},{"PRN":27,"el":71,"az":76,"ss":42,"used":true}]}
$GPGGA,143507,4629.8992,N,00734.0441,E,1,05,2.40,1343.12,M,48.183,M,,*77
$GPRMC,143507,A,4629.8992,N,00734.0441,E,0.1776,10.379,090605,,*1A
$GPGSA,A,3,08,10,04,02,27,,,,,,,,1.9,2.4,1.4*33
{"class":"TPV","tag":"MID2","time":1118327707.280,"ept":0.005,"lat":46.498319545,"lon":7.567402192,"alt":1343.122,"epx":10.972,"epy":15.581,"epv":32.321,"track":10.3788,"speed":0.091,"climb":-0.085,"mode":3}
$GPGSV,2,1,08,23,06,084,00,28,07,160,00,08,66,189,45,29,13,273,00*75
$GPGSV,2,2,08,10,51,304,29,04,15,199,37,02,34,241,42,27,71,076,42*7D
{"class":"SKY","tag":"MID4","time":1118327708.280,"xdop":0.73,"ydop":1.04,"vdop":1.41,"tdop":0.78,"hdop":1.27,"gdop":2.05,"pdop":1.89,"satellites":[{"PRN":23,"el":6,"az":84,"ss":0,"used":false},{"PRN":28,"el":7,"az":160,"ss":0,"used":false},{"PRN":8,"el":66,"az":189,"ss":45,"used":true},{"PRN":29,"el":13,"az":273,"ss":0,"used":false},{"PRN":10,"el":51,"az":304,"ss":29,"used":true},{"PRN":4,"el":15,"az":199,"ss":37,"used":true},{"PRN":2,"el":34,"az":241,"ss":42,"used":true},{"PRN":27,"el":71,"az":76,"ss":42,"used":true}]}
$GPGGA,143508,4629.8992,N,00734.0441,E,1,05,2.40,1343.12,M,48.183,M,,*78
$GPRMC,143508,A,4629.8992,N,00734.0441,E,0.1776,10.379,090605,,*15
$GPGSA,A,3,08,10,04,02,27,,,,,,,,1.9,2.4,1.4*33
{"class":"TPV","tag":"MID2","time":1118327708.280,"ept":0.005,"lat":46.498319545,"lon":7.567402192,"alt":1343.122,"epx":10.972,"epy":15.581,"epv":32.321,"track":10.3788,"speed":0.091,"climb":-0.085,"mode":3}
$GPGSV,2,1,08,23,06,084,00,28,07,160,00,08,66,189,45,29,13,273,00*75
$GPGSV,2,2,08,10,51,304,32,04,15,199,36,02,34,241,43,27,71,076,42*77
{"class":"SKY","tag":"MID4","time":1118327709.280,"xdop":0.73,"ydop":1.04,"vdop":1.41,"tdop":0.78,"hdop":1.27,"gdop":2.05,"pdop":1.89,"satellites":[{"PRN":23,"el":6,"az":84,"ss":0,"used":false},{"PRN":28,"el":7,"az":160,"ss":0,"used":false},{"PRN":8,"el":66,"az":189,"ss":45,"used":true},{"PRN":29,"el":13,"az":273,"ss":0,"used":false},{"PRN":10,"el":51,"az":304,"ss":32,"used":true},{"PRN":4,"el":15,"az":199,"ss":36,"used":true},{"PRN":2,"el":34,"az":241,"ss":43,"used":true},{"PRN":27,"el":71,"az":76,"ss":42,"used":true}]}
$GPGGA,143509,4629.8992,N,00734.0441,E,1,05,2.40,1343.12,M,48.183,M,,*79
$GPRMC,143509,A,4629.8992,N,00734.0441,E,0.1776,10.379,090605,,*14
$GPGSA,A,3,08,10,04,02,27,,,,,,,,1.9,2.4,1.4*33
{"class":"TPV","tag":"MID2","time":1118327709.280,"ept":0.005,"lat":46.498319545,"lon":7.567402192,"alt":1343.122,"epx":10.972,"epy":15.581,"epv":32.321,"track":10.3788,"speed":0.091,"climb":-0.085,"mode":3}
$GPGSV,2,1,08,23,06,084,00,28,07,160,00,08,66,189,45,29,13,273,00*75
$GPGSV,2,2,08,10,51,304,29,04,15,199,36,02,34,241,41,27,71,076,42*7F
{"class":"SKY","tag":"MID4","time":1118327710.280,"xdop":0.73,"ydop":1.04,"vdop":1.41,"tdop":0.78,"hdop":1.27,"gdop":2.05,"pdop":1.89,"satellites":[{"PRN":23,"el":6,"az":84,"ss":0,"used":false},{"PRN":28,"el":7,"az":160,"ss":0,"used":false},{"PRN":8,"el":66,"az":189,"ss":45,"used":true},{"PRN":29,"el":13,"az":273,"ss":0,"used":false},{"PRN":10,"el":51,"az":304,"ss":29,"used":true},{"PRN":4,"el":15,"az":199,"ss":36,"used":true},{"PRN":2,"el":34,"az":241,"ss":41,"used":true},{"PRN":27,"el":71,"az":76,"ss":42,"used":true}]}
$GPGGA,143510,4629.8999,N,00734.0442,E,1,05,2.40,1343.17,M,48.183,M,,*7C
$GPRMC,143510,A,4629.8999,N,00734.0442,E,0.1776,10.379,090605,,*14
$GPGSA,A,3,08,10,04,02,27,,,,,,,,1.9,2.4,1.4*33
{"class":"TPV","tag":"MID2","time":1118327710.280,"ept":0.005,"lat":46.498332203,"lon":7.567403907,"alt":1343.165,"epx":10.972,"epy":15.581,"epv":32.321,"track":10.3788,"speed":0.091,"climb":-0.085,"mode":3}
$GPGSV,2,1,08,23,06,084,00,28,07,160,00,08,66,189,45,29,13,273,00*75
$GPGSV,2,2,08,10,51,304,25,04,15,199,36,02,34,241,42,27,71,076,42*70
{"class":"SKY","tag":"MID4","time":1118327711.280,"xdop":0.73,"ydop":1.04,"vdop":1.41,"tdop":0.78,"hdop":1.27,"gdop":2.05,"pdop":1.89,"satellites":[{"PRN":23,"el":6,"az":84,"ss":0,"used":false},{"PRN":28,"el":7,"az":160,"ss":0,"used":false},{"PRN":8,"el":66,"az":189,"ss":45,"used":true},{"PRN":29,"el":13,"az":273,"ss":0,"used":false},{"PRN":10,"el":51,"az":304,"ss":25,"used":true},{"PRN":4,"el":15,"az":199,"ss":36,"used":true},{"PRN":2,"el":34,"az":241,"ss":42,"used":true},{"PRN":27,"el":71,"az":76,"ss":42,"used":true}]}
$GPGGA,143511,4629.8999,N,00734.0442,E,1,04,3.20,1343.17,M,48.183,M,,*7B
$GPRMC,143511,A,4629.8999,N,00734.0442,E,0.1776,10.379,090605,,*15
$GPGSA,A,3,08,04,02,27,,,,,,,,,1.9,3.2,1.4*35
{"class":"TPV","tag":"MID2","time":1118327711.280,"ept":0.005,"lat":46.498332203,"lon":7.567403907,"alt":1343.165,"epx":10.972,"epy":15.581,"epv":32.321,"track":10.3788,"speed":0.091,"climb":-0.085,"mode":3}
$GPGSV,2,1,08,23,06,084,00,28,07,160,00,08,66,189,46,29,13,273,00*76
$GPGSV,2,2,08,10,51,304,32,04,15,199,36,02,34,241,42,27,71,076,42*76
{"class":"SKY","tag":"MID4","time":1118327712.280,"xdop":0.73,"ydop":1.22,"vdop":1.56,"tdop":0.79,"hdop":1.42,"gdop":2.25,"pdop":2.11,"satellites":[{"PRN":23,"el":6,"az":84,"ss":0,"used":false},{"PRN":28,"el":7,"az":160,"ss":0,"used":false},{"PRN":8,"el":66,"az":189,"ss":46,"used":true},{"PRN":29,"el":13,"az":273,"ss":0,"used":false},{"PRN":10,"el":51,"az":304,"ss":32,"used":false},{"PRN":4,"el":15,"az":199,"ss":36,"used":true},{"PRN":2,"el":34,"az":241,"ss":42,"used":true},{"PRN":27,"el":71,"az":76,"ss":42,"used":true}]}
$GPGGA,143512,4629.9000,N,00734.0435,E,1,05,2.40,1343.07,M,48.183,M,,*77
$GPRMC,143512,A,4629.9000,N,00734.0435,E,0.1776,10.379,090605,,*1E
$GPGSA,A,3,08,10,04,02,27,,,,,,,,2.1,2.4,1.6*3A
{"class":"TPV","tag":"MID2","time":1118327712.280,"ept":0.005,"lat":46.498333062,"lon":7.567390997,"alt":1343.075,"epx":11.014,"epy":18.289,"epv":35.884,"track":10.3787,"speed":0.091,"climb":-0.085,"mode":3}
$GPGSV,2,1,08,23,06,084,00,28,07,160,00,08,66,189,46,29,13,273,00*76
$GPGSV,2,2,08,10,51,304,31,04,15,199,37,02,34,241,42,27,71,076,43*75
{"class":"SKY","tag":"MID4","time":1118327713.280,"xdop":0.73,"ydop":1.04,"vdop":1.41,"tdop":0.78,"hdop":1.27,"gdop":2.05,"pdop":1.89,"satellites":[{"PRN":23,"el":6,"az":84,"ss":0,"used":false},{"PRN":28,"el":7,"az":160,"ss":0,"used":false},{"PRN":8,"el":66,"az":189,"ss":46,"used":true},{"PRN":29,"el":13,"az":273,"ss":0,"used":false},{"PRN":10,"el":51,"az":304,"ss":31,"used":true},{"PRN":4,"el":15,"az":199,"ss":37,"used":true},{"PRN":2,"el":34,"az":241,"ss":42,"used":true},{"PRN":27,"el":71,"az":76,"ss":43,"used":true}]}
$GPGGA,143513,4629.9004,N,00734.0436,E,1,05,2.40,1342.39,M,48.183,M,,*7D
$GPRMC,143513,A,4629.9004,N,00734.0436,E,0.1776,10.379,090605,,*18
$GPGSA,A,3,08,10,04,02,27,,,,,,,,1.9,2.4,1.4*33
{"class":"TPV","tag":"MID2","time":1118327713.280,"ept":0.005,"lat":46.498339529,"lon":7.567392712,"alt":1342.392,"epx":10.972,"epy":15.581,"epv":32.321,"track":10.3787,"speed":0.091,"climb":-0.085,"mode":3}
$GPGSV,2,1,08,23,06,084,00,28,07,160,00,08,66,189,46,29,13,273,00*76
$GPGSV,2,2,08,10,51,304,30,04,15,199,34,02,34,241,43,27,71,076,43*76
{"class":"SKY","tag":"MID4","time":1118327714.280,"xdop":0.73,"ydop":1.04,"vdop":1.41,"tdop":0.78,"hdop":1.27,"gdop":2.05,"pdop":1.89,"satellites":[{"PRN":23,"el":6,"az":84,"ss":0,"used":false},{"PRN":28,"el":7,"az":160,"ss":0,"used":false},{"PRN":8,"el":66,"az":189,"ss":46,"used":true},{"PRN":29,"el":13,"az":273,"ss":0,"used":false},{"PRN":10,"el":51,"az":304,"ss":30,"used":true},{"PRN":4,"el":15,"az":199,"ss":34,"used":true},{"PRN":2,"el":34,"az":241,"ss":43,"used":true},{"PRN":27,"el":71,"az":76,"ss":43,"used":true}]}
$GPGGA,143514,4629.9004,N,00734.0436,E,1,05,2.40,1342.39,M,48.183,M,,*7A
$GPRMC,143514,A,4629.9004,N,00734.0436,E,0.1776,10.379,090605,,*1F
$GPGSA,A,3,08,10,04,02,27,,,,,,,,1.9,2.4,1.4*33
{"class":"TPV","tag":"MID2","time":1118327714.280,"ept":0.005,"lat":46.498339529,"lon":7.567392712,"alt":1342.392,"epx":10.972,"epy":15.581,"epv":32.321,"track":10.3787,"speed":0.091,"climb":-0.085,"mode":3}
$GPGSV,2,1,08,23,06,084,00,28,07,160,00,08,66,189,45,29,13,273,00*75
$GPGSV,2,2,08,10,51,304,25,04,15,199,36,02,34,241,40,27,71,076,42*72
{"class":"SKY","tag":"MID4","time":1118327715.280,"xdop":0.73,"ydop":1.04,"vdop":1.41,"tdop":0.78,"hdop":1.27,"gdop":2.05,"pdop":1.89,"satellites":[{"PRN":23,"el":6,"az":84,"ss":0,"used":false},{"PRN":28,"el":7,"az":160,"ss":0,"used":false},{"PRN":8,"el":66,"az":189,"ss":45,"used":true},{"PRN":29,"el":13,"az":273,"ss":0,"used":false},{"PRN":10,"el":51,"az":304,"ss":25,"used":true},{"PRN":4,"el":15,"az":199,"ss":36,"used":true},{"PRN":2,"el":34,"az":241,"ss":40,"used":true},{"PRN":27,"el":71,"az":76,"ss":42,"used":true}]}
$GPGGA,143515,4629.9004,N,00734.0436,E,1,04,3.20,1342.39,M,48.183,M,,*7D
$GPRMC,143515,A,4629.9004,N,00734.0436,E,0.1776,10.379,090605,,*1E
$GPGSA,A,3,08,04,02,27,,,,,,,,,1.9,3.2,1.4*35
{"class":"TPV","tag":"MID2","time":1118327715.280,"ept":0.005,"lat":46.498339529,"lon":7.567392712,"alt":1342.392,"epx":10.972,"epy":15.581,"epv":32.321,"track":10.3787,"speed":0.091,"climb":-0.085,"mode":3}
$GPGSV,2,1,08,23,06,084,00,28,07,160,00,08,66,189,45,29,13,273,00*75
$GPGSV,2,2,08,10,51,304,30,04,15,199,36,02,34,241,43,27,71,076,42*75
{"class":"SKY","tag":"MID4","time":1118327716.280,"xdop":0.73,"ydop":1.22,"vdop":1.56,"tdop":0.79,"hdop":1.42,"gdop":2.25,"pdop":2.11,"satellites":[{"PRN":23,"el":6,"az":84,"ss":0,"used":false},{"PRN":28,"el":7,"az":160,"ss":0,"used":false},{"PRN":8,"el":66,"az":189,"ss":45,"used":true},{"PRN":29,"el":13,"az":273,"ss":0,"used":false},{"PRN":10,"el":51,"az":304,"ss":30,"used":false},{"PRN":4,"el":15,"az":199,"ss":36,"used":true},{"PRN":2,"el":34,"az":241,"ss":43,"used":true},{"PRN":27,"el":71,"az":76,"ss":42,"used":true}]}
$GPGGA,143516,4629.9008,N,00734.0437,E,1,05,2.40,1341.71,M,48.183,M,,*7A
$GPRMC,143516,A,4629.9008,N,00734.0437,E,0.1776,10.379,090605,,*10
$GPGSA,A,3,08,10,04,02,27,,,,,,,,2.1,2.4,1.6*3A
{"class":"TPV","tag":"MID2","time":1118327716.280,"ept":0.005,"lat":46.498345996,"lon":7.567394427,"alt":1341.710,"epx":11.014,"epy":18.289,"epv":35.884,"track":10.3787,"speed":0.091,"climb":-0.085,"mode":3}
$GPGSV,2,1,08,23,06,084,00,28,07,160,00,08,66,189,45,29,13,273,00*75
$GPGSV,2,2,08,10,51,304,05,04,15,199,35,02,34,241,42,27,71,076,43*70
{"class":"SKY","tag":"MID4","time":1118327717.280,"xdop":0.73,"ydop":1.04,"vdop":1.41,"tdop":0.78,"hdop":1.27,"gdop":2.05,"pdop":1.89,"satellites":[{"PRN":23,"el":6,"az":84,"ss":0,"used":false},{"PRN":28,"el":7,"az":160,"ss":0,"used":false},{"PRN":8,"el":66,"az":189,"ss":45,"used":true},{"PRN":29,"el":13,"az":273,"ss":0,"used":false},{"PRN":10,"el":51,"az":304,"ss":5,"used":true},{"PRN":4,"el":15,"az":199,"ss":35,"used":true},{"PRN":2,"el":34,"az":241,"ss":42,"used":true},{"PRN":27,"el":71,"az":76,"ss":43,"used":true}]}
$GPGGA,143517,4629.9008,N,00734.0429,E,1,04,3.20,1341.62,M,48.183,M,,*70
$GPRMC,143517,A,4629.9008,N,00734.0429,E,0.1776,10.379,090605,,*1E
$GPGSA,A,3,08,04,02,27,,,,,,,,,1.9,3.2,1.4*35
{"class":"TPV","tag":"MID2","time":1118327717.280,"ept":0.005,"lat":46.498346855,"lon":7.567381517,"alt":1341.619,"epx":10.972,"epy":15.581,"epv":32.321,"track":10.3787,"speed":0.091,"climb":-0.085,"mode":3}
$GPGSV,2,1,08,23,06,084,00,28,07,160,00,08,66,189,45,29,13,273,00*75
$GPGSV,2,2,08,10,51,304,00,04,15,199,34,02,34,241,42,27,71,076,43*74
{"class":"SKY","tag":"MID4","time":1118327718.280,"xdop":0.73,"ydop":1.22,"vdop":1.56,"tdop":0.79,"hdop":1.42,"gdop":2.25,"pdop":2.11,"satellites":[{"PRN":23,"el":6,"az":84,"ss":0,"used":false},{"PRN":28,"el":7,"az":160,"ss":0,"used":false},{"PRN":8,"el":66,"az":189,"ss":45,"used":true},{"PRN":29,"el":13,"az":273,"ss":0,"used":false},{"PRN":10,"el":51,"az":304,"ss":0,"used":false},{"PRN":4,"el":15,"az":199,"ss":34,"used":true},{"PRN":2,"el":34,"az":241,"ss":42,"used":true},{"PRN":27,"el":71,"az":76,"ss":43,"used":true}]}
$GPGGA,143518,4629.9008,N,00734.0429,E,1,04,3.20,1341.62,M,48.183,M,,*7F
$GPRMC,143518,A,4629.9008,N,00734.0429,E,0.1776,10.379,090605,,*11
$GPGSA,A,3,08,04,02,27,,,,,,,,,2.1,3.2,1.6*3C
{"class":"TPV","tag":"MID2","time":1118327718.280,"ept":0.005,"lat":46.498346855,"lon":7.567381517,"alt":1341.619,"epx":11.014,"epy":18.289,"epv":35.884,"track":10.3787,"speed":0.091,"climb":-0.085,"mode":3}
$GPGSV,2,1,08,23,06,084,00,28,07,160,00,08,66,189,46,29,13,273,00*76
$GPGSV,2,2,08,10,51,304,00,04,15,199,34,02,34,241,40,27,71,076,42*77
{"class":"SKY","tag":"MID4","time":1118327719.280,"xdop":0.73,"ydop":1.22,"vdop":1.56,"tdop":0.79,"hdop":1.42,"gdop":2.25,"pdop":2.11,"satellites":[{"PRN":23,"el":6,"az":84,"ss":0,"used":false},{"PRN":28,"el":7,"az":160,"ss":0,"used":false},{"PRN":8,"el":66,"az":189,"ss":46,"used":true},{"PRN":29,"el":13,"az":273,"ss":0,"used":false},{"PRN":10,"el":51,"az":304,"ss":0,"used":false},{"PRN":4,"el":15,"az":199,"ss":34,"used":true},{"PRN":2,"el":34,"az":241,"ss":40,"used":true},{"PRN":27,"el":71,"az":76,"ss":42,"used":true}]}
$GPGGA,143519,4629.9008,N,00734.0429,E,1,04,3.20,1341.62,M,48.183,M,,*7E
$GPRMC,143519,A,4629.9008,N,00734.0429,E,0.1776,10.379,090605,,*10
$GPGSA,A,3,08,04,02,27,,,,,,,,,2.1,3.2,1.6*3C
{"class":"TPV","tag":"MID2","time":1118327719.280,"ept":0.005,"lat":46.498346855,"lon":7.567381517,"alt":1341.619,"epx":11.014,"epy":18.289,"epv":35.884,"track":10.3787,"speed":0.091,"climb":-0.085,"mode":3}
$GPGSV,2,1,08,23,06,084,00,28,07,160,00,08,66,189,45,29,13,273,00*75
$GPGSV,2,2,08,10,51,304,00,04,15,199,35,02,34,241,40,27,71,076,43*77
{"class":"SKY","tag":"MID4","time":1118327720.280,"xdop":0.73,"ydop":1.22,"vdop":1.56,"tdop":0.79,"hdop":1.42,"gdop":2.25,"pdop":2.11,"satellites":[{"PRN":23,"el":6,"az":84,"ss":0,"used":false},{"PRN":28,"el":7,"az":160,"ss":0,"used":false},{"PRN":8,"el":66,"az":189,"ss":45,"used":true},{"PRN":29,"el":13,"az":273,"ss":0,"used":false},{"PRN":10,"el":51,"az":304,"ss":0,"used":false},{"PRN":4,"el":15,"az":199,"ss":35,"used":true},{"PRN":2,"el":34,"az":241,"ss":40,"used":true},{"PRN":27,"el":71,"az":76,"ss":43,"used":true}]}
$GPGGA,143520,4629.9008,N,00734.0430,E,1,04,3.20,1340.21,M,48.183,M,,*7A
$GPRMC,143520,A,4629.9008,N,00734.0430,E,0.1776,10.379,090605,,*12
$GPGSA,A,3,08,04,02,27,,,,,,,,,2.1,3.2,1.6*3C
{"class":"TPV","tag":"MID2","time":1118327720.280,"ept":0.005,"lat":46.498347131,"lon":7.567383232,"alt":1340.211,"epx":11.014,"epy":18.289,"epv":35.884,"track":10.3787,"speed":0.091,"climb":-0.085,"mode":3}
$GPGSV,2,1,08,23,06,084,00,28,07,160,00,08,66,189,45,29,13,273,00*75
$GPGSV,2,2,08,10,51,304,00,04,15,199,35,02,34,241,40,27,71,076,42*76
{"class":"SKY","tag":"MID4","time":1118327721.280,"xdop":0.73,"ydop":1.22,"vdop":1.56,"tdop":0.79,"hdop":1.42,"gdop":2.25,"pdop":2.11,"satellites":[{"PRN":23,"el":6,"az":84,"ss":0,"used":false},{"PRN":28,"el":7,"az":160,"ss":0,"used":false},{"PRN":8,"el":66,"az":189,"ss":45,"used":true},{"PRN":29,"el":13,"az":273,"ss":0,"used":false},{"PRN":10,"el":51,"az":304,"ss":0,"used":false},{"PRN":4,"el":15,"az":199,"ss":35,"used":true},{"PRN":2,"el":34,"az":241,"ss":40,"used":true},{"PRN":27,"el":71,"az":76,"ss":42,"used":true}]}
$GPGGA,143521,4629.9008,N,00734.0430,E,1,04,3.20,1340.21,M,48.183,M,,*7B
$GPRMC,143521,A,4629.9008,N,00734.0430,E,0.1776,10.379,090605,,*13
$GPGSA,A,3,08,04,02,27,,,,,,,,,2.1,3.2,1.6*3C
{"class":"TPV","tag":"MID2","time":1118327721.280,"ept":0.005,"lat":46.498347131,"lon":7.567383232,"alt":1340.211,"epx":11.014,"epy":18.289,"epv":35.884,"track":10.3787,"speed":0.091,"climb":-0.085,"mode":3}
$GPGSV,2,1,08,23,06,084,00,28,07,160,00,08,66,189,45,29,13,273,00*75
$GPGSV,2,2,08,10,51,304,00,04,15,199,36,02,34,241,40,27,71,076,42*75
{"class":"SKY","tag":"MID4","time":1118327722.280,"xdop":0.73,"ydop":1.22,"vdop":1.56,"tdop":0.79,"hdop":1.42,"gdop":2.25,"pdop":2.11,"satellites":[{"PRN":23,"el":6,"az":84,"ss":0,"used":false},{"PRN":28,"el":7,"az":160,"ss":0,"used":false},{"PRN":8,"el":66,"az":189,"ss":45,"used":true},{"PRN":29,"el":13,"az":273,"ss":0,"used":false},{"PRN":10,"el":51,"az":304,"ss":0,"used":false},{"PRN":4,"el":15,"az":199,"ss":36,"used":true},{"PRN":2,"el":34,"az":241,"ss":40,"used":true},{"PRN":27,"el":71,"az":76,"ss":42,"used":true}]}
$GPGGA,143522,4629.9008,N,00734.0430,E,1,04,3.20,1340.21,M,48.183,M,,*78
$GPRMC,143522,A,4629.9008,N,00734.0430,E,0.1776,10.379,090605,,*10
$GPGSA,A,3,08,04,02,27,,,,,,,,,2.1,3.2,1.6*3C
{"class":"TPV","tag":"MID2","time":1118327722.280,"ept":0.005,"lat":46.498347131,"lon":7.567383232,"alt":1340.211,"epx":11.014,"epy":18.289,"epv":35.884,"track":10.3787,"speed":0.091,"climb":-0.085,"mode":3}
$GPGSV,2,1,08,23,06,084,00,28,07,160,00,08,66,189,45,29,13,273,00*75
$GPGSV,2,2,08,10,51,304,23,04,15,199,38,02,34,241,40,27,71,076,41*79
{"class":"SKY","tag":"MID4","time":1118327723.280,"xdop":0.73,"ydop":1.22,"vdop":1.56,"tdop":0.79,"hdop":1.42,"gdop":2.25,"pdop":2.11,"satellites":[{"PRN":23,"el":6,"az":84,"ss":0,"used":false},{"PRN":28,"el":7,"az":160,"ss":0,"used":false},{"PRN":8,"el":66,"az":189,"ss":45,"used":true},{"PRN":29,"el":13,"az":273,"ss":0,"used":false},{"PRN":10,"el":51,"az":304,"ss":23,"used":false},{"PRN":4,"el":15,"az":199,"ss":38,"used":true},{"PRN":2,"el":34,"az":241,"ss":40,"used":true},{"PRN":27,"el":71,"az":76,"ss":41,"used":true}]}
$GPGGA,143523,4629.9004,N,00734.0429,E,1,05,2.40,1340.89,M,48.183,M,,*79
$GPRMC,143523,A,4629.9004,N,00734.0429,E,0.1776,10.379,090605,,*15
$GPGSA,A,3,08,10,04,02,27,,,,,,,,2.1,2.4,1.6*3A
{"class":"TPV","tag":"MID2","time":1118327723.280,"ept":0.005,"lat":46.498340664,"lon":7.567381517,"alt":1340.894,"epx":11.014,"epy":18.289,"epv":35.884,"track":10.3787,"speed":0.091,"climb":-0.085,"mode":3}
$GPGSV,2,1,08,23,06,084,00,28,07,160,00,08,66,189,44,29,13,273,00*74
$GPGSV,2,2,08,10,51,304,34,04,15,199,38,02,34,241,41,27,71,076,42*7D
{"class":"SKY","tag":"MID4","time":1118327724.280,"xdop":0.73,"ydop":1.04,"vdop":1.41,"tdop":0.78,"hdop":1.27,"gdop":2.05,"pdop":1.89,"satellites":[{"PRN":23,"el":6,"az":84,"ss":0,"used":false},{"PRN":28,"el":7,"az":160,"ss":0,"used":false},{"PRN":8,"el":66,"az":189,"ss":44,"used":true},{"PRN":29,"el":13,"az":273,"ss":0,"used":false},{"PRN":10,"el":51,"az":304,"ss":34,"used":true},{"PRN":4,"el":15,"az":199,"ss":38,"used":true},{"PRN":2,"el":34,"az":241,"ss":41,"used":true},{"PRN":27,"el":71,"az":76,"ss":42,"used":true}]}
$GPGGA,143524,4629.9004,N,00734.0429,E,1,05,2.40,1340.89,M,48.183,M,,*7E
$GPRMC,143524,A,4629.9004,N,00734.0429,E,0.0000,0.000,090605,,*29
$GPGSA,A,3,08,10,04,02,27,,,,,,,,1.9,2.4,1.4*33
{"class":"TPV","tag":"MID2","time":1118327724.280,"ept":0.005,"lat":46.498340664,"lon":7.567381517,"alt":1340.894,"epx":10.972,"epy":15.581,"epv":32.321,"track":0.0000,"speed":0.000,"climb":0.000,"mode":3}
$GPGSV,2,1,08,23,06,084,00,28,07,160,00,08,66,189,45,29,13,273,00*75
$GPGSV,2,2,08,10,51,304,32,04,15,199,37,02,34,241,42,27,71,076,44*71
{"class":"SKY","tag":"MID4","time":1118327725.280,"xdop":0.73,"ydop":1.04,"vdop":1.41,"tdop":0.78,"hdop":1.27,"gdop":2.05,"pdop":1.89,"satellites":[{"PRN":23,"el":6,"az":84,"ss":0,"used":false},{"PRN":28,"el":7,"az":160,"ss":0,"used":false},{"PRN":8,"el":66,"az":189,"ss":45,"used":true},{"PRN":29,"el":13,"az":273,"ss":0,"used":false},{"PRN":10,"el":51,"az":304,"ss":32,"used":true},{"PRN":4,"el":15,"az":199,"ss":37,"used":true},{"PRN":2,"el":34,"az":241,"ss":42,"used":true},{"PRN":27,"el":71,"az":76,"ss":44,"used":true}]}
$GPGGA,143525,4629.9001,N,00734.0428,E,1,05,2.40,1341.58,M,48.183,M,,*76
$GPRMC,143525,A,4629.9001,N,00734.0428,E,0.0000,0.000,090605,,*2C
$GPGSA,A,3,08,10,04,02,27,,,,,,,,1.9,2.4,1.4*33
{"class":"TPV","tag":"MID2","time":1118327725.280,"ept":0.005,"lat":46.498334197,"lon":7.567379802,"alt":1341.576,"epx":10.972,"epy":15.581,"epv":32.321,"track":0.0000,"speed":0.000,"climb":0.000,"mode":3}
$GPGSV,2,1,08,23,06,084,00,28,07,160,00,08,66,189,39,29,13,273,00*7E
$GPGSV,2,2,08,10,51,304,25,04,15,199,29,02,34,241,20,27,71,076,38*77
{"class":"SKY","tag":"MID4","time":1118327726.280,"xdop":0.73,"ydop":1.04,"vdop":1.41,"tdop":0.78,"hdop":1.27,"gdop":2.05,"pdop":1.89,"satellites":[{"PRN":23,"el":6,"az":84,"ss":0,"used":false},{"PRN":28,"el":7,"az":160,"ss":0,"used":false},{"PRN":8,"el":66,"az":189,"ss":39,"used":true},{"PRN":29,"el":13,"az":273,"ss":0,"used":false},{"PRN":10,"el":51,"az":304,"ss":25,"used":true},{"PRN":4,"el":15,"az":199,"ss":29,"used":true},{"PRN":2,"el":34,"az":241,"ss":20,"used":true},{"PRN":27,"el":71,"az":76,"ss":38,"used":true}]}
$GPGGA,143526,4629.9000,N,00734.0436,E,1,04,3.20,1341.67,M,48.183,M,,*71
$GPRMC,143526,A,4629.9000,N,00734.0436,E,0.3121,60.960,090605,,*19
$GPGSA,A,3,08,04,02,27,,,,,,,,,1.9,3.2,1.4*35
{"class":"TPV","tag":"MID2","time":1118327726.280,"ept":0.005,"lat":46.498333338,"lon":7.567392712,"alt":1341.667,"epx":10.972,"epy":15.581,"epv":32.321,"track":60.9597,"speed":0.161,"climb":-0.074,"mode":3}
$GPGSV,2,1,08,23,06,084,00,28,07,160,00,08,66,189,40,29,13,273,00*70
$GPGSV,2,2,08,10,51,304,35,04,15,199,13,02,34,241,27,27,71,076,41*76
{"class":"SKY","tag":"MID4","time":1118327727.280,"xdop":0.73,"ydop":1.22,"vdop":1.56,"tdop":0.79,"hdop":1.42,"gdop":2.25,"pdop":2.11,"satellites":[{"PRN":23,"el":6,"az":84,"ss":0,"used":false},{"PRN":28,"el":7,"az":160,"ss":0,"used":false},{"PRN":8,"el":66,"az":189,"ss":40,"used":true},{"PRN":29,"el":13,"az":273,"ss":0,"used":false},{"PRN":10,"el":51,"az":304,"ss":35,"used":false},{"PRN":4,"el":15,"az":199,"ss":13,"used":true},{"PRN":2,"el":34,"az":241,"ss":27,"used":true},{"PRN":27,"el":71,"az":76,"ss":41,"used":true}]}
$GPGGA,143527,4629.8996,N,00734.0435,E,1,04,3.80,1342.35,M,48.183,M,,*7A
$GPRMC,143527,A,4629.8996,N,00734.0435,E,1.5556,157.529,090605,,*2B
$GPGSA,A,3,08,10,02,27,,,,,,,,,2.1,3.8,1.6*33
{"class":"TPV","tag":"MID2","time":1118327727.280,"ept":0.005,"lat":46.498326871,"lon":7.567390997,"alt":1342.349,"epx":11.014,"epy":18.289,"epv":35.884,"track":157.5287,"speed":0.800,"climb":0.013,"mode":3}
$GPGSV,2,1,08,23,06,084,00,28,07,160,00,08,66,189,40,29,13,273,00*70
$GPGSV,2,2,08,10,51,304,36,04,15,199,27,02,34,241,36,27,71,076,43*70
{"class":"SKY","tag":"MID4","time":1118327728.280,"xdop":0.73,"ydop":1.22,"vdop":1.56,"tdop":0.79,"hdop":1.42,"gdop":2.25,"pdop":2.11,"satellites":[{"PRN":23,"el":6,"az":84,"ss":0,"used":false},{"PRN":28,"el":7,"az":160,"ss":0,"used":false},{"PRN":8,"el":66,"az":189,"ss":40,"used":true},{"PRN":29,"el":13,"az":273,"ss":0,"used":false},{"PRN":10,"el":51,"az":304,"ss":36,"used":true},{"PRN":4,"el":15,"az":199,"ss":27,"used":false},{"PRN":2,"el":34,"az":241,"ss":36,"used":true},{"PRN":27,"el":71,"az":76,"ss":43,"used":true}]}
$GPGGA,143528,4629.8992,N,00734.0434,E,1,04,3.80,1343.03,M,48.183,M,,*74
$GPRMC,143528,A,4629.8992,N,00734.0434,E,0.7149,141.014,090605,,*24
$GPGSA,A,3,08,10,02,27,,,,,,,,,2.1,3.8,1.6*33
{"class":"TPV","tag":"MID2","time":1118327728.280,"ept":0.005,"lat":46.498320404,"lon":7.567389282,"alt":1343.032,"epx":11.014,"epy":18.289,"epv":35.884,"track":141.0144,"speed":0.368,"climb":-0.073,"mode":3}
$GPGSV,2,1,08,23,06,084,00,28,07,160,00,08,66,189,29,29,13,273,00*7F
$GPGSV,2,2,08,10,51,304,31,04,15,199,27,02,34,241,34,27,71,076,42*74
{"class":"SKY","tag":"MID4","time":1118327729.280,"xdop":0.73,"ydop":1.22,"vdop":1.56,"tdop":0.79,"hdop":1.42,"gdop":2.25,"pdop":2.11,"satellites":[{"PRN":23,"el":6,"az":84,"ss":0,"used":false},{"PRN":28,"el":7,"az":160,"ss":0,"used":false},{"PRN":8,"el":66,"az":189,"ss":29,"used":true},{"PRN":29,"el":13,"az":273,"ss":0,"used":false},{"PRN":10,"el":51,"az":304,"ss":31,"used":true},{"PRN":4,"el":15,"az":199,"ss":27,"used":false},{"PRN":2,"el":34,"az":241,"ss":34,"used":true},{"PRN":27,"el":71,"az":76,"ss":42,"used":true}]}
$GPGGA,143529,4629.8984,N,00734.0440,E,1,04,3.80,1343.08,M,48.183,M,,*7A
$GPRMC,143529,A,4629.8984,N,00734.0440,E,0.5719,158.581,090605,,*21
$GPGSA,A,3,08,10,02,27,,,,,,,,,2.1,3.8,1.6*33
{"class":"TPV","tag":"MID2","time":1118327729.280,"ept":0.005,"lat":46.498306887,"lon":7.567400477,"alt":1343.079,"epx":11.014,"epy":18.289,"epv":35.884,"track":158.5811,"speed":0.294,"climb":-0.085,"mode":3}
$GPGSV,2,1,08,23,06,084,00,28,07,160,00,08,66,189,36,29,13,273,00*71
$GPGSV,2,2,08,10,51,304,19,04,15,199,00,02,34,241,38,27,71,076,38*7A
{"class":"SKY","tag":"MID4","time":1118327730.280,"xdop":0.73,"ydop":1.22,"vdop":1.56,"tdop":0.79,"hdop":1.42,"gdop":2.25,"pdop":2.11,"satellites":[{"PRN":23,"el":6,"az":84,"ss":0,"used":false},{"PRN":28,"el":7,"az":160,"ss":0,"used":false},{"PRN":8,"el":66,"az":189,"ss":36,"used":true},{"PRN":29,"el":13,"az":273,"ss":0,"used":false},{"PRN":10,"el":51,"az":304,"ss":19,"used":true},{"PRN":4,"el":15,"az":199,"ss":0,"used":false},{"PRN":2,"el":34,"az":241,"ss":38,"used":true},{"PRN":27,"el":71,"az":76,"ss":38,"used":true}]}
$GPGGA,143530,4629.8984,N,00734.0440,E,1,03,12.80,1343.08,M,48.183,M,,*45
$GPRMC,143530,A,4629.8984,N,00734.0440,E,0.4207,150.233,090605,,*24
$GPGSA,A,2,08,02,27,,,,,,,,,,2.1,12.8,1.6*03
{"class":"TPV","tag":"MID2","time":1118327730.280,"ept":0.005,"lat":46.498306887,"lon":7.567400477,"epx":11.014,"epy":18.289,"track":150.2328,"speed":0.216,"mode":2}
$GPGSV,2,1,08,23,06,084,00,28,07,160,00,08,66,189,34,29,14,273,00*74
$GPGSV,2,2,08,10,51,304,20,04,15,199,00,02,34,241,29,27,71,075,37*7C
{"class":"SKY","tag":"MID4","time":1118327731.280,"satellites":[{"PRN":23,"el":6,"az":84,"ss":0,"used":false},{"PRN":28,"el":7,"az":160,"ss":0,"used":false},{"PRN":8,"el":66,"az":189,"ss":34,"used":true},{"PRN":29,"el":14,"az":273,"ss":0,"used":false},{"PRN":10,"el":51,"az":304,"ss":20,"used":false},{"PRN":4,"el":15,"az":199,"ss":0,"used":false},{"PRN":2,"el":34,"az":241,"ss":29,"used":true},{"PRN":27,"el":71,"az":75,"ss":37,"used":true}]}
$GPGGA,143531,4629.8980,N,00734.0439,E,1,04,3.80,1343.76,M,48.183,M,,*70
$GPRMC,143531,A,4629.8980,N,00734.0439,E,0.3435,5.346,090605,,*2D
$GPGSA,A,3,08,10,02,27,,,,,,,,,0.0,3.8,0.0*37
{"class":"TPV","tag":"MID2","time":1118327731.280,"ept":0.005,"lat":46.498300420,"lon":7.567398762,"alt":1343.762,"track":5.3456,"speed":0.177,"climb":0.005,"mode":3}
$GPGSV,2,1,08,23,06,084,00,28,07,160,00,08,66,189,37,29,14,273,00*77
$GPGSV,2,2,08,10,51,304,30,04,15,199,31,02,34,241,26,27,71,075,33*74
{"class":"SKY","tag":"MID4","time":1118327732.280,"xdop":0.74,"ydop":1.22,"vdop":1.57,"tdop":0.80,"hdop":1.43,"gdop":2.27,"pdop":2.12,"satellites":[{"PRN":23,"el":6,"az":84,"ss":0,"used":false},{"PRN":28,"el":7,"az":160,"ss":0,"used":false},{"PRN":8,"el":66,"az":189,"ss":37,"used":true},{"PRN":29,"el":14,"az":273,"ss":0,"used":false},{"PRN":10,"el":51,"az":304,"ss":30,"used":true},{"PRN":4,"el":15,"az":199,"ss":31,"used":false},{"PRN":2,"el":34,"az":241,"ss":26,"used":true},{"PRN":27,"el":71,"az":75,"ss":33,"used":true}]}
$GPGGA,143532,4629.8976,N,00734.0438,E,1,04,2.80,1344.44,M,48.183,M,,*7C
$GPRMC,143532,A,4629.8976,N,00734.0438,E,0.0000,0.000,090605,,*23
$GPGSA,A,3,08,10,04,27,,,,,,,,,2.1,2.8,1.6*34
{"class":"TPV","tag":"MID2","time":1118327732.280,"ept":0.005,"lat":46.498293953,"lon":7.567397047,"alt":1344.444,"epx":11.098,"epy":18.270,"epv":36.204,"track":0.0000,"speed":0.000,"climb":0.000,"mode":3}
$GPGSV,2,1,08,23,06,084,00,28,07,160,00,08,66,189,41,29,14,273,00*76
$GPGSV,2,2,08,10,51,304,35,04,15,199,23,02,34,241,37,27,71,075,41*77
{"class":"SKY","tag":"MID4","time":1118327733.280,"xdop":0.74,"ydop":1.22,"vdop":1.57,"tdop":0.80,"hdop":1.43,"gdop":2.27,"pdop":2.12,"satellites":[{"PRN":23,"el":6,"az":84,"ss":0,"used":false},{"PRN":28,"el":7,"az":160,"ss":0,"used":false},{"PRN":8,"el":66,"az":189,"ss":41,"used":true},{"PRN":29,"el":14,"az":273,"ss":0,"used":false},{"PRN":10,"el":51,"az":304,"ss":35,"used":true},{"PRN":4,"el":15,"az":199,"ss":23,"used":true},{"PRN":2,"el":34,"az":241,"ss":37,"used":false},{"PRN":27,"el":71,"az":75,"ss":41,"used":true}]}
