$GPGSV,2,1,08,23,07,084,00,28,07,160,00,08,66,189,45,29,14,273,00*73
$GPGSV,2,2,08,10,50,304,37,04,16,200,36,02,34,242,43,27,72,076,43*72
{"class":"SKY","time":"2025-01-23T14:34:11.280Z","xdop":1.70,"ydop":1.67,"vdop":3.51,"tdop":3.13,"hdop":2.38,"gdop":5.27,"pdop":4.24,"satellites":[{"PRN":23,"el":7.0,"az":84.0,"ss":0.0,"used":false,"gnssid":0,"svid":23},{"PRN":28,"el":7.0,"az":160.5,"ss":0.0,"used":false,"gnssid":0,"svid":28},{"PRN":8,"el":65.5,"az":189.0,"ss":44.8,"used":true,"gnssid":0,"svid":8},{"PRN":29,"el":13.5,"az":273.0,"ss":0.0,"used":false,"gnssid":0,"svid":29},{"PRN":10,"el":50.5,"az":304.5,"ss":37.2,"used":true,"gnssid":0,"svid":10},{"PRN":4,"el":16.0,"az":199.5,"ss":36.5,"used":true,"gnssid":0,"svid":4},{"PRN":2,"el":34.5,"az":241.5,"ss":43.1,"used":true,"gnssid":0,"svid":2},{"PRN":27,"el":71.5,"az":76.5,"ss":43.0,"used":true,"gnssid":0,"svid":27}]}
$GPZDA,143411.28,23,01,2025,00,00*6B
$GPGGA,143411.28,4629.8901,N,00734.0471,E,1,05,2.40,1352.10,M,45.589,M,,*5D
$GPRMC,143411.28,A,4629.8901,N,00734.0471,E,0.1776,10.379,230125,2.3,E*56
$GPGSA,A,3,8,10,4,2,27,,,,,,,,4.2,2.4,3.5*0E
$GPGBS,143411.28,25.546,25.003,80.721,,,,*71
{"class":"TPV","mode":3,"time":"2025-01-23T14:34:11.280Z","ept":0.005,"lat":46.498167579,"lon":7.567452213,"altHAE":1397.689,"altMSL":1352.100,"epx":25.546,"epy":25.003,"epv":80.721,"track":10.3789,"magtrack":12.7006,"magvar":2.3,"speed":0.091,"climb":-0.085,"ecefx":4360967.00,"ecefy":579356.00,"ecefz":4604554.00,"ecefvx":-0.12,"ecefvy":0.00,"ecefvz":0.00,"velN":0.090,"velE":0.016,"velD":0.085,"geoidSep":45.589,"eph":45.600,"sep":80.601}
$GPGSV,2,1,08,23,06,084,00,28,08,160,00,08,66,189,43,29,14,273,00*7B
$GPGSV,2,2,08,10,50,304,36,04,16,200,36,02,34,242,44,27,72,076,43*74
{"class":"SKY","time":"2025-01-23T14:34:12.280Z","xdop":1.70,"ydop":1.67,"vdop":3.51,"tdop":3.13,"hdop":2.40,"gdop":5.27,"pdop":4.24,"satellites":[{"PRN":23,"el":6.5,"az":84.0,"ss":0.0,"used":false,"gnssid":0,"svid":23},{"PRN":28,"el":7.5,"az":160.5,"ss":0.0,"used":false,"gnssid":0,"svid":28},{"PRN":8,"el":65.5,"az":189.0,"ss":43.4,"used":true,"gnssid":0,"svid":8},{"PRN":29,"el":13.5,"az":273.0,"ss":0.0,"used":false,"gnssid":0,"svid":29},{"PRN":10,"el":50.5,"az":304.5,"ss":36.2,"used":true,"gnssid":0,"svid":10},{"PRN":4,"el":16.0,"az":199.5,"ss":35.6,"used":true,"gnssid":0,"svid":4},{"PRN":2,"el":34.5,"az":241.5,"ss":44.5,"used":true,"gnssid":0,"svid":2},{"PRN":27,"el":71.5,"az":76.5,"ss":43.0,"used":true,"gnssid":0,"svid":27}]}
$GPZDA,143412.28,23,01,2025,00,00*68
$GPGGA,143412.28,4629.8905,N,00734.0473,E,1,05,2.40,1350.01,M,45.589,M,,*5A
$GPRMC,143412.28,A,4629.8905,N,00734.0473,E,0.1776,10.379,230125,2.3,E*53
$GPGSA,A,3,8,10,4,2,27,,,,,,,,4.2,2.4,3.5*0E
$GPGBS,143412.28,25.546,25.003,80.721,,,,*72
{"class":"TPV","mode":3,"time":"2025-01-23T14:34:12.280Z","ept":0.005,"lat":46.498174322,"lon":7.567455643,"altHAE":1395.599,"altMSL":1350.010,"epx":25.546,"epy":25.003,"epv":80.721,"track":10.3789,"magtrack":12.7006,"magvar":2.3,"speed":0.091,"climb":-0.085,"eps":51.09,"epc":161.44,"ecefx":4360965.00,"ecefy":579356.00,"ecefz":4604553.00,"ecefvx":-0.12,"ecefvy":0.00,"ecefvz":0.00,"velN":0.090,"velE":0.016,"velD":0.085,"geoidSep":45.589,"eph":45.600,"sep":80.601}
$GPGSV,2,1,08,23,06,084,00,28,08,160,00,08,66,189,44,29,14,273,00*7C
$GPGSV,2,2,08,10,50,304,38,04,16,200,35,02,34,242,44,27,72,076,42*78
{"class":"SKY","time":"2025-01-23T14:34:13.280Z","xdop":1.70,"ydop":1.67,"vdop":3.51,"tdop":3.13,"hdop":2.40,"gdop":5.27,"pdop":4.24,"satellites":[{"PRN":23,"el":6.5,"az":84.0,"ss":0.0,"used":false,"gnssid":0,"svid":23},{"PRN":28,"el":7.5,"az":160.5,"ss":0.0,"used":false,"gnssid":0,"svid":28},{"PRN":8,"el":65.5,"az":189.0,"ss":44.4,"used":true,"gnssid":0,"svid":8},{"PRN":29,"el":13.5,"az":273.0,"ss":0.0,"used":false,"gnssid":0,"svid":29},{"PRN":10,"el":50.5,"az":304.5,"ss":37.7,"used":true,"gnssid":0,"svid":10},{"PRN":4,"el":16.0,"az":199.5,"ss":35.3,"used":true,"gnssid":0,"svid":4},{"PRN":2,"el":34.5,"az":241.5,"ss":44.1,"used":true,"gnssid":0,"svid":2},{"PRN":27,"el":71.5,"az":76.5,"ss":42.3,"used":true,"gnssid":0,"svid":27}]}
$GPZDA,143413.28,23,01,2025,00,00*69
$GPGGA,143413.28,4629.8908,N,00734.0474,E,1,05,2.40,1349.33,M,45.589,M,,*58
$GPRMC,143413.28,A,4629.8908,N,00734.0474,E,0.0000,0.000,230125,2.3,E*63
$GPGSA,A,3,8,10,4,2,27,,,,,,,,4.2,2.4,3.5*0E
$GPGBS,143413.28,25.546,25.003,80.721,,,,*73
{"class":"TPV","mode":3,"time":"2025-01-23T14:34:13.280Z","ept":0.005,"lat":46.498180788,"lon":7.567457358,"altHAE":1394.917,"altMSL":1349.328,"epx":25.546,"epy":25.003,"epv":80.721,"track":0.0000,"magtrack":2.3218,"magvar":2.3,"speed":0.000,"climb":0.000,"eps":51.09,"epc":161.44,"ecefx":4360964.00,"ecefy":579356.00,"ecefz":4604553.00,"ecefvx":0.00,"ecefvy":0.00,"ecefvz":0.00,"velN":0.000,"velE":0.000,"velD":-0.000,"geoidSep":45.589,"eph":45.600,"sep":80.601}
$GPGSV,2,1,08,23,06,084,00,28,08,160,00,08,66,189,45,29,14,273,00*7D
$GPGSV,2,2,08,10,50,304,38,04,16,200,35,02,34,242,43,27,72,076,43*7E
{"class":"SKY","time":"2025-01-23T14:34:14.280Z","xdop":1.70,"ydop":1.67,"vdop":3.51,"tdop":3.13,"hdop":2.40,"gdop":5.27,"pdop":4.24,"satellites":[{"PRN":23,"el":6.5,"az":84.0,"ss":0.0,"used":false,"gnssid":0,"svid":23},{"PRN":28,"el":7.5,"az":160.5,"ss":0.0,"used":false,"gnssid":0,"svid":28},{"PRN":8,"el":65.5,"az":189.0,"ss":44.8,"used":true,"gnssid":0,"svid":8},{"PRN":29,"el":13.5,"az":273.0,"ss":0.0,"used":false,"gnssid":0,"svid":29},{"PRN":10,"el":50.5,"az":304.5,"ss":37.5,"used":true,"gnssid":0,"svid":10},{"PRN":4,"el":16.0,"az":199.5,"ss":34.8,"used":true,"gnssid":0,"svid":4},{"PRN":2,"el":34.5,"az":241.5,"ss":43.1,"used":true,"gnssid":0,"svid":2},{"PRN":27,"el":71.5,"az":76.5,"ss":42.8,"used":true,"gnssid":0,"svid":27}]}
$GPZDA,143414.28,23,01,2025,00,00*6E
$GPGGA,143414.28,4629.8912,N,00734.0475,E,1,05,2.40,1348.65,M,45.589,M,,*57
$GPRMC,143414.28,A,4629.8912,N,00734.0475,E,0.1776,10.379,230125,2.3,E*55
$GPGSA,A,3,8,10,4,2,27,,,,,,,,4.2,2.4,3.5*0E
$GPGBS,143414.28,25.546,25.003,80.721,,,,*74
{"class":"TPV","mode":3,"time":"2025-01-23T14:34:14.280Z","ept":0.005,"lat":46.498187255,"lon":7.567459073,"altHAE":1394.235,"altMSL":1348.645,"epx":25.546,"epy":25.003,"epv":80.721,"track":10.3789,"magtrack":12.7006,"magvar":2.3,"speed":0.091,"climb":-0.085,"eps":51.09,"epc":161.44,"ecefx":4360963.00,"ecefy":579356.00,"ecefz":4604553.00,"ecefvx":-0.12,"ecefvy":0.00,"ecefvz":0.00,"velN":0.090,"velE":0.016,"velD":0.085,"geoidSep":45.589,"eph":45.600,"sep":80.601}
$GPGSV,2,1,08,23,06,084,00,28,08,160,00,08,66,189,44,29,14,273,00*7C
$GPGSV,2,2,08,10,50,304,36,04,16,200,32,02,34,242,39,27,72,076,41*78
{"class":"SKY","time":"2025-01-23T14:34:15.280Z","xdop":1.70,"ydop":1.67,"vdop":3.51,"tdop":3.13,"hdop":2.40,"gdop":5.27,"pdop":4.24,"satellites":[{"PRN":23,"el":6.5,"az":84.0,"ss":0.0,"used":false,"gnssid":0,"svid":23},{"PRN":28,"el":7.5,"az":160.5,"ss":0.0,"used":false,"gnssid":0,"svid":28},{"PRN":8,"el":65.5,"az":189.0,"ss":43.6,"used":true,"gnssid":0,"svid":8},{"PRN":29,"el":13.5,"az":273.0,"ss":0.0,"used":false,"gnssid":0,"svid":29},{"PRN":10,"el":50.5,"az":304.5,"ss":35.9,"used":true,"gnssid":0,"svid":10},{"PRN":4,"el":16.0,"az":199.5,"ss":32.3,"used":true,"gnssid":0,"svid":4},{"PRN":2,"el":34.5,"az":241.5,"ss":39.2,"used":true,"gnssid":0,"svid":2},{"PRN":27,"el":71.5,"az":76.5,"ss":41.1,"used":true,"gnssid":0,"svid":27}]}
$GPZDA,143415.28,23,01,2025,00,00*6F
$GPGGA,143415.28,4629.8909,N,00734.0475,E,1,05,2.40,1347.92,M,45.589,M,,*5B
$GPRMC,143415.28,A,4629.8909,N,00734.0475,E,0.1776,10.379,230125,2.3,E*5E
$GPGSA,A,3,8,10,4,2,27,,,,,,,,4.2,2.4,3.5*0E
$GPGBS,143415.28,25.546,25.003,80.721,,,,*75
{"class":"TPV","mode":3,"time":"2025-01-23T14:34:15.280Z","ept":0.005,"lat":46.498181064,"lon":7.567459073,"altHAE":1393.509,"altMSL":1347.920,"epx":25.546,"epy":25.003,"epv":80.721,"track":10.3789,"magtrack":12.7006,"magvar":2.3,"speed":0.091,"climb":-0.085,"eps":51.09,"epc":161.44,"ecefx":4360963.00,"ecefy":579356.00,"ecefz":4604552.00,"ecefvx":-0.12,"ecefvy":0.00,"ecefvz":0.00,"velN":0.090,"velE":0.016,"velD":0.085,"geoidSep":45.589,"eph":45.600,"sep":80.601}
$GPGSV,2,1,08,23,06,084,00,28,08,160,00,08,66,189,46,29,14,273,00*7E
$GPGSV,2,2,08,10,50,304,38,04,16,200,34,02,34,242,41,27,72,076,41*7F
{"class":"SKY","time":"2025-01-23T14:34:16.280Z","xdop":1.70,"ydop":1.67,"vdop":3.51,"tdop":3.13,"hdop":2.40,"gdop":5.27,"pdop":4.24,"satellites":[{"PRN":23,"el":6.5,"az":84.0,"ss":0.0,"used":false,"gnssid":0,"svid":23},{"PRN":28,"el":7.5,"az":160.5,"ss":0.0,"used":false,"gnssid":0,"svid":28},{"PRN":8,"el":65.5,"az":189.0,"ss":45.5,"used":true,"gnssid":0,"svid":8},{"PRN":29,"el":13.5,"az":273.0,"ss":0.0,"used":false,"gnssid":0,"svid":29},{"PRN":10,"el":50.5,"az":304.5,"ss":37.8,"used":true,"gnssid":0,"svid":10},{"PRN":4,"el":16.0,"az":199.5,"ss":33.6,"used":true,"gnssid":0,"svid":4},{"PRN":2,"el":34.5,"az":241.5,"ss":41.2,"used":true,"gnssid":0,"svid":2},{"PRN":27,"el":71.5,"az":76.5,"ss":41.4,"used":true,"gnssid":0,"svid":27}]}
$GPZDA,143416.28,23,01,2025,00,00*6C
$GPGGA,143416.28,4629.8913,N,00734.0476,E,1,05,2.40,1347.24,M,45.589,M,,*5D
$GPRMC,143416.28,A,4629.8913,N,00734.0476,E,0.1673,180.000,230125,2.3,E*64
$GPGSA,A,3,8,10,4,2,27,,,,,,,,4.2,2.4,3.5*0E
$GPGBS,143416.28,25.546,25.003,80.721,,,,*76
{"class":"TPV","mode":3,"time":"2025-01-23T14:34:16.280Z","ept":0.005,"lat":46.498187531,"lon":7.567460788,"altHAE":1392.827,"altMSL":1347.237,"epx":25.546,"epy":25.003,"epv":80.721,"track":180.0000,"magtrack":182.3218,"magvar":2.3,"speed":0.086,"climb":-0.091,"eps":51.09,"epc":161.44,"ecefx":4360962.00,"ecefy":579356.00,"ecefz":4604552.00,"ecefvx":0.00,"ecefvy":0.00,"ecefvz":-0.12,"velN":-0.086,"velE":0.000,"velD":0.091,"geoidSep":45.589,"eph":45.600,"sep":80.601}
$GPGSV,2,1,08,23,06,084,00,28,08,160,00,08,66,189,46,29,14,273,00*7E
$GPGSV,2,2,08,10,50,304,37,04,16,200,36,02,34,242,43,27,72,076,41*70
{"class":"SKY","time":"2025-01-23T14:34:17.280Z","xdop":1.70,"ydop":1.67,"vdop":3.51,"tdop":3.13,"hdop":2.40,"gdop":5.27,"pdop":4.24,"satellites":[{"PRN":23,"el":6.5,"az":84.0,"ss":0.0,"used":false,"gnssid":0,"svid":23},{"PRN":28,"el":7.5,"az":160.5,"ss":0.0,"used":false,"gnssid":0,"svid":28},{"PRN":8,"el":65.5,"az":189.0,"ss":45.5,"used":true,"gnssid":0,"svid":8},{"PRN":29,"el":13.5,"az":273.0,"ss":0.0,"used":false,"gnssid":0,"svid":29},{"PRN":10,"el":50.5,"az":304.5,"ss":37.1,"used":true,"gnssid":0,"svid":10},{"PRN":4,"el":16.0,"az":199.5,"ss":36.1,"used":true,"gnssid":0,"svid":4},{"PRN":2,"el":34.5,"az":241.5,"ss":43.2,"used":true,"gnssid":0,"svid":2},{"PRN":27,"el":71.5,"az":76.5,"ss":41.3,"used":true,"gnssid":0,"svid":27}]}
$GPZDA,143417.28,23,01,2025,00,00*6D
$GPGGA,143417.28,4629.8916,N,00734.0478,E,1,05,2.40,1346.56,M,45.589,M,,*53
$GPRMC,143417.28,A,4629.8916,N,00734.0478,E,0.1776,10.379,230125,2.3,E*5F
$GPGSA,A,3,8,10,4,2,27,,,,,,,,4.2,2.4,3.5*0E
$GPGBS,143417.28,25.546,25.003,80.721,,,,*77
{"class":"TPV","mode":3,"time":"2025-01-23T14:34:17.280Z","ept":0.005,"lat":46.498193998,"lon":7.567462504,"altHAE":1392.144,"altMSL":1346.555,"epx":25.546,"epy":25.003,"epv":80.721,"track":10.3789,"magtrack":12.7006,"magvar":2.3,"speed":0.091,"climb":-0.085,"eps":51.09,"epc":161.44,"ecefx":4360961.00,"ecefy":579356.00,"ecefz":4604552.00,"ecefvx":-0.12,"ecefvy":0.00,"ecefvz":0.00,"velN":0.090,"velE":0.016,"velD":0.085,"geoidSep":45.589,"eph":45.600,"sep":80.601}
$GPGSV,2,1,08,23,06,084,00,28,08,160,00,08,66,189,45,29,14,273,00*7D
$GPGSV,2,2,08,10,50,304,38,04,16,200,36,02,34,242,42,27,72,076,42*7D
{"class":"SKY","time":"2025-01-23T14:34:18.280Z","xdop":1.70,"ydop":1.67,"vdop":3.51,"tdop":3.13,"hdop":2.40,"gdop":5.27,"pdop":4.24,"satellites":[{"PRN":23,"el":6.5,"az":84.0,"ss":0.0,"used":false,"gnssid":0,"svid":23},{"PRN":28,"el":7.5,"az":160.5,"ss":0.0,"used":false,"gnssid":0,"svid":28},{"PRN":8,"el":65.5,"az":189.0,"ss":45.0,"used":true,"gnssid":0,"svid":8},{"PRN":29,"el":13.5,"az":273.0,"ss":0.0,"used":false,"gnssid":0,"svid":29},{"PRN":10,"el":50.5,"az":304.5,"ss":37.5,"used":true,"gnssid":0,"svid":10},{"PRN":4,"el":16.0,"az":199.5,"ss":36.1,"used":true,"gnssid":0,"svid":4},{"PRN":2,"el":34.5,"az":241.5,"ss":42.2,"used":true,"gnssid":0,"svid":2},{"PRN":27,"el":71.5,"az":76.5,"ss":41.8,"used":true,"gnssid":0,"svid":27}]}
$GPZDA,143418.28,23,01,2025,00,00*62
$GPGGA,143418.28,4629.8916,N,00734.0478,E,1,05,2.40,1346.56,M,45.589,M,,*5C
$GPRMC,143418.28,A,4629.8916,N,00734.0478,E,0.0000,0.000,230125,2.3,E*6B
$GPGSA,A,3,8,10,4,2,27,,,,,,,,4.2,2.4,3.5*0E
$GPGBS,143418.28,25.546,25.003,80.721,,,,*78
{"class":"TPV","mode":3,"time":"2025-01-23T14:34:18.280Z","ept":0.005,"lat":46.498193998,"lon":7.567462504,"altHAE":1392.144,"altMSL":1346.555,"epx":25.546,"epy":25.003,"epv":80.721,"track":0.0000,"magtrack":2.3218,"magvar":2.3,"speed":0.000,"climb":0.000,"eps":51.09,"epc":161.44,"ecefx":4360961.00,"ecefy":579356.00,"ecefz":4604552.00,"ecefvx":0.00,"ecefvy":0.00,"ecefvz":0.00,"velN":0.000,"velE":0.000,"velD":-0.000,"geoidSep":45.589,"eph":45.600,"sep":80.601}
$GPGSV,2,1,08,23,06,084,00,28,08,160,00,08,66,189,45,29,14,273,00*7D
$GPGSV,2,2,08,10,50,304,37,04,16,200,36,02,34,242,42,27,72,076,43*73
{"class":"SKY","time":"2025-01-23T14:34:19.280Z","xdop":1.70,"ydop":1.67,"vdop":3.51,"tdop":3.13,"hdop":2.40,"gdop":5.27,"pdop":4.24,"satellites":[{"PRN":23,"el":6.5,"az":84.0,"ss":0.0,"used":false,"gnssid":0,"svid":23},{"PRN":28,"el":7.5,"az":160.5,"ss":0.0,"used":false,"gnssid":0,"svid":28},{"PRN":8,"el":65.5,"az":189.0,"ss":45.0,"used":true,"gnssid":0,"svid":8},{"PRN":29,"el":13.5,"az":273.0,"ss":0.0,"used":false,"gnssid":0,"svid":29},{"PRN":10,"el":50.5,"az":304.5,"ss":37.2,"used":true,"gnssid":0,"svid":10},{"PRN":4,"el":16.0,"az":199.5,"ss":36.3,"used":true,"gnssid":0,"svid":4},{"PRN":2,"el":34.5,"az":241.5,"ss":41.8,"used":true,"gnssid":0,"svid":2},{"PRN":27,"el":71.5,"az":76.5,"ss":42.6,"used":true,"gnssid":0,"svid":27}]}
$GPZDA,143419.28,23,01,2025,00,00*63
$GPGGA,143419.28,4629.8917,N,00734.0470,E,1,05,2.40,1346.46,M,45.589,M,,*55
$GPRMC,143419.28,A,4629.8917,N,00734.0470,E,0.0000,0.000,230125,2.3,E*63
$GPGSA,A,3,8,10,4,2,27,,,,,,,,4.2,2.4,3.5*0E
$GPGBS,143419.28,25.546,25.003,80.721,,,,*79
{"class":"TPV","mode":3,"time":"2025-01-23T14:34:19.280Z","ept":0.005,"lat":46.498194857,"lon":7.567449593,"altHAE":1392.054,"altMSL":1346.464,"epx":25.546,"epy":25.003,"epv":80.721,"track":0.0000,"magtrack":2.3218,"magvar":2.3,"speed":0.000,"climb":0.000,"eps":51.09,"epc":161.44,"ecefx":4360961.00,"ecefy":579355.00,"ecefz":4604552.00,"ecefvx":0.00,"ecefvy":0.00,"ecefvz":0.00,"velN":0.000,"velE":0.000,"velD":-0.000,"geoidSep":45.589,"eph":45.600,"sep":80.601}
$GPGSV,2,1,08,23,06,084,00,28,08,160,00,08,66,189,46,29,14,273,00*7E
$GPGSV,2,2,08,10,50,304,36,04,16,200,36,02,34,242,42,27,72,076,42*73
{"class":"SKY","time":"2025-01-23T14:34:20.280Z","xdop":1.70,"ydop":1.67,"vdop":3.51,"tdop":3.13,"hdop":2.40,"gdop":5.27,"pdop":4.24,"satellites":[{"PRN":23,"el":6.5,"az":84.0,"ss":0.0,"used":false,"gnssid":0,"svid":23},{"PRN":28,"el":7.5,"az":160.5,"ss":0.0,"used":false,"gnssid":0,"svid":28},{"PRN":8,"el":65.5,"az":189.0,"ss":45.8,"used":true,"gnssid":0,"svid":8},{"PRN":29,"el":13.5,"az":273.0,"ss":0.0,"used":false,"gnssid":0,"svid":29},{"PRN":10,"el":50.5,"az":304.5,"ss":36.3,"used":true,"gnssid":0,"svid":10},{"PRN":4,"el":16.0,"az":199.5,"ss":36.5,"used":true,"gnssid":0,"svid":4},{"PRN":2,"el":34.5,"az":241.5,"ss":41.5,"used":true,"gnssid":0,"svid":2},{"PRN":27,"el":71.5,"az":76.5,"ss":42.5,"used":true,"gnssid":0,"svid":27}]}
$GPZDA,143420.28,23,01,2025,00,00*69
$GPGGA,143420.28,4629.8921,N,00734.0471,E,1,05,2.40,1345.78,M,45.589,M,,*55
$GPRMC,143420.28,A,4629.8921,N,00734.0471,E,0.1776,10.379,230125,2.3,E*56
$GPGSA,A,3,8,10,4,2,27,,,,,,,,4.2,2.4,3.5*0E
$GPGBS,143420.28,25.546,25.003,80.721,,,,*73
{"class":"TPV","mode":3,"time":"2025-01-23T14:34:20.280Z","ept":0.005,"lat":46.498201324,"lon":7.567451308,"altHAE":1391.371,"altMSL":1345.782,"epx":25.546,"epy":25.003,"epv":80.721,"track":10.3788,"magtrack":12.7006,"magvar":2.3,"speed":0.091,"climb":-0.085,"eps":51.09,"epc":161.44,"ecefx":4360960.00,"ecefy":579355.00,"ecefz":4604552.00,"ecefvx":-0.12,"ecefvy":0.00,"ecefvz":0.00,"velN":0.090,"velE":0.016,"velD":0.085,"geoidSep":45.589,"eph":45.600,"sep":80.601}
$GPGSV,2,1,08,23,06,084,00,28,08,160,00,08,66,189,46,29,14,273,00*7E
$GPGSV,2,2,08,10,50,304,36,04,16,200,37,02,34,242,42,27,72,076,42*72
{"class":"SKY","time":"2025-01-23T14:34:21.280Z","xdop":1.70,"ydop":1.67,"vdop":3.51,"tdop":3.13,"hdop":2.40,"gdop":5.27,"pdop":4.24,"satellites":[{"PRN":23,"el":6.5,"az":84.0,"ss":0.0,"used":false,"gnssid":0,"svid":23},{"PRN":28,"el":7.5,"az":160.5,"ss":0.0,"used":false,"gnssid":0,"svid":28},{"PRN":8,"el":65.5,"az":189.0,"ss":45.8,"used":true,"gnssid":0,"svid":8},{"PRN":29,"el":13.5,"az":273.0,"ss":0.0,"used":false,"gnssid":0,"svid":29},{"PRN":10,"el":50.5,"az":304.5,"ss":36.4,"used":true,"gnssid":0,"svid":10},{"PRN":4,"el":16.0,"az":199.5,"ss":36.9,"used":true,"gnssid":0,"svid":4},{"PRN":2,"el":34.5,"az":241.5,"ss":42.2,"used":true,"gnssid":0,"svid":2},{"PRN":27,"el":71.5,"az":76.5,"ss":42.5,"used":true,"gnssid":0,"svid":27}]}
$GPZDA,143421.28,23,01,2025,00,00*68
$GPGGA,143421.28,4629.8921,N,00734.0471,E,1,05,2.40,1345.78,M,45.589,M,,*54
$GPRMC,143421.28,A,4629.8921,N,00734.0471,E,0.1776,10.379,230125,2.3,E*57
$GPGSA,A,3,8,10,4,2,27,,,,,,,,4.2,2.4,3.5*0E
$GPGBS,143421.28,25.546,25.003,80.721,,,,*72
{"class":"TPV","mode":3,"time":"2025-01-23T14:34:21.280Z","ept":0.005,"lat":46.498201324,"lon":7.567451308,"altHAE":1391.371,"altMSL":1345.782,"epx":25.546,"epy":25.003,"epv":80.721,"track":10.3788,"magtrack":12.7006,"magvar":2.3,"speed":0.091,"climb":-0.085,"eps":51.09,"epc":161.44,"ecefx":4360960.00,"ecefy":579355.00,"ecefz":4604552.00,"ecefvx":-0.12,"ecefvy":0.00,"ecefvz":0.00,"velN":0.090,"velE":0.016,"velD":0.085,"geoidSep":45.589,"eph":45.600,"sep":80.601}
