$GPZDA,143443.28,09,06,2005,00,00*61
$GPGGA,143443.28,4629.8972,N,00734.0447,E,1,00,2.40,1342.40,M,48.183,M,,*59
$GPRMC,143443.28,A,4629.8972,N,00734.0447,E,0.1776,10.379,090605,,*37
$GPGSA,A,3,,,,,,,,,,,,,,2.4,*34
{"class":"TPV","mode":3,"time":"2005-06-09T14:34:43.280Z","ept":0.005,"lat":46.498287178,"lon":7.567411672,"alt":1342.402,"track":10.3788,"speed":0.091,"climb":-0.085,"ecefx":4360953.00,"ecefy":579351.00,"ecefz":4604558.00,"ecefvx":-0.12,"ecefvy":0.00,"ecefvz":0.00,"eph":45.600}
$GPGSV,2,1,08,23,06,084,00,28,07,160,00,08,66,189,44,29,13,273,00*74
$GPGSV,2,2,08,10,51,304,29,04,15,199,36,02,34,241,43,27,71,076,43*7C
{"class":"SKY","time":"2005-06-09T14:34:44.280Z","xdop":1.66,"ydop":1.69,"vdop":3.42,"tdop":3.05,"hdop":2.40,"gdop":5.15,"pdop":4.16,"satellites":[{"PRN":23,"el":6,"az":84,"ss":0,"used":false,"gnssid":0,"svid":23},{"PRN":28,"el":7,"az":160,"ss":0,"used":false,"gnssid":0,"svid":28},{"PRN":8,"el":66,"az":189,"ss":44,"used":true,"gnssid":0,"svid":8},{"PRN":29,"el":13,"az":273,"ss":0,"used":false,"gnssid":0,"svid":29},{"PRN":10,"el":51,"az":304,"ss":29,"used":true,"gnssid":0,"svid":10},{"PRN":4,"el":15,"az":199,"ss":36,"used":true,"gnssid":0,"svid":4},{"PRN":2,"el":34,"az":241,"ss":43,"used":true,"gnssid":0,"svid":2},{"PRN":27,"el":71,"az":76,"ss":43,"used":true,"gnssid":0,"svid":27}]}
$GPZDA,143444.28,09,06,2005,00,00*66
$GPGGA,143444.28,4629.8976,N,00734.0447,E,1,05,2.40,1343.13,M,48.183,M,,*58
$GPRMC,143444.28,A,4629.8976,N,00734.0447,E,0.1776,10.379,090605,,*34
$GPGSA,A,3,8,10,4,2,27,,,,,,,,4.2,2.4,3.4*0F
$GPGBS,143444.28,24.829,25.326,78.615,,,,*71
{"class":"TPV","mode":3,"time":"2005-06-09T14:34:44.280Z","ept":0.005,"lat":46.498293369,"lon":7.567411672,"alt":1343.127,"epx":24.829,"epy":25.326,"epv":78.615,"track":10.3788,"speed":0.091,"climb":-0.085,"eps":50.65,"epc":157.23,"ecefx":4360953.00,"ecefy":579351.00,"ecefz":4604559.00,"ecefvx":-0.12,"ecefvy":0.00,"ecefvz":0.00,"eph":45.600,"sep":78.966}
$GPGSV,2,1,08,23,06,084,00,28,07,160,00,08,66,189,44,29,13,273,00*74
$GPGSV,2,2,08,10,51,304,28,04,15,199,37,02,34,241,43,27,71,076,43*7C
{"class":"SKY","time":"2005-06-09T14:34:45.280Z","xdop":1.66,"ydop":1.69,"vdop":3.42,"tdop":3.05,"hdop":2.40,"gdop":5.15,"pdop":4.16,"satellites":[{"PRN":23,"el":6,"az":84,"ss":0,"used":false,"gnssid":0,"svid":23},{"PRN":28,"el":7,"az":160,"ss":0,"used":false,"gnssid":0,"svid":28},{"PRN":8,"el":66,"az":189,"ss":44,"used":true,"gnssid":0,"svid":8},{"PRN":29,"el":13,"az":273,"ss":0,"used":false,"gnssid":0,"svid":29},{"PRN":10,"el":51,"az":304,"ss":28,"used":true,"gnssid":0,"svid":10},{"PRN":4,"el":15,"az":199,"ss":37,"used":true,"gnssid":0,"svid":4},{"PRN":2,"el":34,"az":241,"ss":43,"used":true,"gnssid":0,"svid":2},{"PRN":27,"el":71,"az":76,"ss":43,"used":true,"gnssid":0,"svid":27}]}
$GPZDA,143445.28,09,06,2005,00,00*67
$GPGGA,143445.28,4629.8980,N,00734.0440,E,1,05,2.40,1342.35,M,48.183,M,,*52
$GPRMC,143445.28,A,4629.8980,N,00734.0440,E,0.1776,10.379,090605,,*3B
$GPGSA,A,3,8,10,4,2,27,,,,,,,,4.2,2.4,3.4*0F
$GPGBS,143445.28,24.829,25.326,78.615,,,,*70
{"class":"TPV","mode":3,"time":"2005-06-09T14:34:45.280Z","ept":0.005,"lat":46.498300695,"lon":7.567400477,"alt":1342.354,"epx":24.829,"epy":25.326,"epv":78.615,"track":10.3788,"speed":0.091,"climb":-0.085,"eps":50.65,"epc":157.23,"ecefx":4360952.00,"ecefy":579350.00,"ecefz":4604559.00,"ecefvx":-0.12,"ecefvy":0.00,"ecefvz":0.00,"eph":45.600,"sep":78.966}
$GPGSV,2,1,08,23,06,084,00,28,07,160,00,08,66,189,44,29,13,273,00*74
$GPGSV,2,2,08,10,51,304,27,04,15,199,35,02,34,241,42,27,71,076,42*71
{"class":"SKY","time":"2005-06-09T14:34:46.280Z","xdop":1.66,"ydop":1.69,"vdop":3.42,"tdop":3.05,"hdop":2.40,"gdop":5.15,"pdop":4.16,"satellites":[{"PRN":23,"el":6,"az":84,"ss":0,"used":false,"gnssid":0,"svid":23},{"PRN":28,"el":7,"az":160,"ss":0,"used":false,"gnssid":0,"svid":28},{"PRN":8,"el":66,"az":189,"ss":44,"used":true,"gnssid":0,"svid":8},{"PRN":29,"el":13,"az":273,"ss":0,"used":false,"gnssid":0,"svid":29},{"PRN":10,"el":51,"az":304,"ss":27,"used":true,"gnssid":0,"svid":10},{"PRN":4,"el":15,"az":199,"ss":35,"used":true,"gnssid":0,"svid":4},{"PRN":2,"el":34,"az":241,"ss":42,"used":true,"gnssid":0,"svid":2},{"PRN":27,"el":71,"az":76,"ss":42,"used":true,"gnssid":0,"svid":27}]}
$GPZDA,143446.28,09,06,2005,00,00*64
$GPGGA,143446.28,4629.8984,N,00734.0440,E,1,05,3.20,1343.08,M,48.183,M,,*5D
$GPRMC,143446.28,A,4629.8984,N,00734.0440,E,0.1776,10.379,090605,,*3C
$GPGSA,A,3,8,10,4,2,27,,,,,,,,4.2,3.2,3.4*08
$GPGBS,143446.28,24.829,25.326,78.615,,,,*73
{"class":"TPV","mode":3,"time":"2005-06-09T14:34:46.280Z","ept":0.005,"lat":46.498306887,"lon":7.567400477,"alt":1343.079,"epx":24.829,"epy":25.326,"epv":78.615,"track":10.3788,"speed":0.091,"climb":-0.085,"eps":50.65,"epc":157.23,"ecefx":4360952.00,"ecefy":579350.00,"ecefz":4604560.00,"ecefvx":-0.12,"ecefvy":0.00,"ecefvz":0.00,"eph":60.800,"sep":78.966}
$GPGSV,2,1,08,23,06,084,00,28,07,160,00,08,66,189,44,29,13,273,00*74
$GPGSV,2,2,08,10,51,304,28,04,15,199,36,02,34,241,42,27,71,076,42*7D
{"class":"SKY","time":"2005-06-09T14:34:47.280Z","xdop":1.66,"ydop":1.69,"vdop":3.42,"tdop":3.05,"hdop":3.20,"gdop":5.15,"pdop":4.16,"satellites":[{"PRN":23,"el":6,"az":84,"ss":0,"used":false,"gnssid":0,"svid":23},{"PRN":28,"el":7,"az":160,"ss":0,"used":false,"gnssid":0,"svid":28},{"PRN":8,"el":66,"az":189,"ss":44,"used":true,"gnssid":0,"svid":8},{"PRN":29,"el":13,"az":273,"ss":0,"used":false,"gnssid":0,"svid":29},{"PRN":10,"el":51,"az":304,"ss":28,"used":true,"gnssid":0,"svid":10},{"PRN":4,"el":15,"az":199,"ss":36,"used":true,"gnssid":0,"svid":4},{"PRN":2,"el":34,"az":241,"ss":42,"used":true,"gnssid":0,"svid":2},{"PRN":27,"el":71,"az":76,"ss":42,"used":true,"gnssid":0,"svid":27}]}
$GPZDA,143447.28,09,06,2005,00,00*65
$GPGGA,143447.28,4629.8984,N,00734.0440,E,1,05,2.40,1343.08,M,48.183,M,,*5B
$GPRMC,143447.28,A,4629.8984,N,00734.0440,E,0.1776,10.379,090605,,*3D
$GPGSA,A,3,8,10,4,2,27,,,,,,,,4.2,2.4,3.4*0F
$GPGBS,143447.28,24.829,25.326,78.615,,,,*72
{"class":"TPV","mode":3,"time":"2005-06-09T14:34:47.280Z","ept":0.005,"lat":46.498306887,"lon":7.567400477,"alt":1343.079,"epx":24.829,"epy":25.326,"epv":78.615,"track":10.3788,"speed":0.091,"climb":-0.085,"eps":50.65,"epc":157.23,"ecefx":4360952.00,"ecefy":579350.00,"ecefz":4604560.00,"ecefvx":-0.12,"ecefvy":0.00,"ecefvz":0.00,"eph":45.600,"sep":78.966}
$GPGSV,2,1,08,23,06,084,00,28,07,160,00,08,66,189,45,29,13,273,00*75
$GPGSV,2,2,08,10,51,304,28,04,15,199,38,02,34,241,43,27,71,076,42*72
{"class":"SKY","time":"2005-06-09T14:34:48.280Z","xdop":1.66,"ydop":1.69,"vdop":3.42,"tdop":3.05,"hdop":2.40,"gdop":5.15,"pdop":4.16,"satellites":[{"PRN":23,"el":6,"az":84,"ss":0,"used":false,"gnssid":0,"svid":23},{"PRN":28,"el":7,"az":160,"ss":0,"used":false,"gnssid":0,"svid":28},{"PRN":8,"el":66,"az":189,"ss":45,"used":true,"gnssid":0,"svid":8},{"PRN":29,"el":13,"az":273,"ss":0,"used":false,"gnssid":0,"svid":29},{"PRN":10,"el":51,"az":304,"ss":28,"used":true,"gnssid":0,"svid":10},{"PRN":4,"el":15,"az":199,"ss":38,"used":true,"gnssid":0,"svid":4},{"PRN":2,"el":34,"az":241,"ss":43,"used":true,"gnssid":0,"svid":2},{"PRN":27,"el":71,"az":76,"ss":42,"used":true,"gnssid":0,"svid":27}]}
$GPZDA,143448.28,09,06,2005,00,00*6A
$GPGGA,143448.28,4629.8992,N,00734.0441,E,1,05,2.40,1343.12,M,48.183,M,,*59
$GPRMC,143448.28,A,4629.8992,N,00734.0441,E,0.1776,10.379,090605,,*34
$GPGSA,A,3,8,10,4,2,27,,,,,,,,4.2,2.4,3.4*0F
$GPGBS,143448.28,24.829,25.326,78.615,,,,*7D
{"class":"TPV","mode":3,"time":"2005-06-09T14:34:48.280Z","ept":0.005,"lat":46.498319545,"lon":7.567402192,"alt":1343.122,"epx":24.829,"epy":25.326,"epv":78.615,"track":10.3788,"speed":0.091,"climb":-0.085,"eps":50.65,"epc":157.23,"ecefx":4360951.00,"ecefy":579350.00,"ecefz":4604561.00,"ecefvx":-0.12,"ecefvy":0.00,"ecefvz":0.00,"eph":45.600,"sep":78.966}
$GPGSV,2,1,08,23,06,084,00,28,07,160,00,08,66,189,45,29,13,273,00*75
$GPGSV,2,2,08,10,51,304,29,04,15,199,37,02,34,241,42,27,71,076,42*7D
{"class":"SKY","time":"2005-06-09T14:34:49.280Z","xdop":1.66,"ydop":1.69,"vdop":3.42,"tdop":3.05,"hdop":2.40,"gdop":5.15,"pdop":4.16,"satellites":[{"PRN":23,"el":6,"az":84,"ss":0,"used":false,"gnssid":0,"svid":23},{"PRN":28,"el":7,"az":160,"ss":0,"used":false,"gnssid":0,"svid":28},{"PRN":8,"el":66,"az":189,"ss":45,"used":true,"gnssid":0,"svid":8},{"PRN":29,"el":13,"az":273,"ss":0,"used":false,"gnssid":0,"svid":29},{"PRN":10,"el":51,"az":304,"ss":29,"used":true,"gnssid":0,"svid":10},{"PRN":4,"el":15,"az":199,"ss":37,"used":true,"gnssid":0,"svid":4},{"PRN":2,"el":34,"az":241,"ss":42,"used":true,"gnssid":0,"svid":2},{"PRN":27,"el":71,"az":76,"ss":42,"used":true,"gnssid":0,"svid":27}]}
$GPZDA,143449.28,09,06,2005,00,00*6B
$GPGGA,143449.28,4629.8992,N,00734.0441,E,1,05,2.40,1343.12,M,48.183,M,,*58
$GPRMC,143449.28,A,4629.8992,N,00734.0441,E,0.1776,10.379,090605,,*35
$GPGSA,A,3,8,10,4,2,27,,,,,,,,4.2,2.4,3.4*0F
$GPGBS,143449.28,24.829,25.326,78.615,,,,*7C
{"class":"TPV","mode":3,"time":"2005-06-09T14:34:49.280Z","ept":0.005,"lat":46.498319545,"lon":7.567402192,"alt":1343.122,"epx":24.829,"epy":25.326,"epv":78.615,"track":10.3788,"speed":0.091,"climb":-0.085,"eps":50.65,"epc":157.23,"ecefx":4360951.00,"ecefy":579350.00,"ecefz":4604561.00,"ecefvx":-0.12,"ecefvy":0.00,"ecefvz":0.00,"eph":45.600,"sep":78.966}
$GPGSV,2,1,08,23,06,084,00,28,07,160,00,08,66,189,45,29,13,273,00*75
$GPGSV,2,2,08,10,51,304,32,04,15,199,36,02,34,241,43,27,71,076,42*77
{"class":"SKY","time":"2005-06-09T14:34:50.280Z","xdop":1.66,"ydop":1.69,"vdop":3.42,"tdop":3.05,"hdop":2.40,"gdop":5.15,"pdop":4.16,"satellites":[{"PRN":23,"el":6,"az":84,"ss":0,"used":false,"gnssid":0,"svid":23},{"PRN":28,"el":7,"az":160,"ss":0,"used":false,"gnssid":0,"svid":28},{"PRN":8,"el":66,"az":189,"ss":45,"used":true,"gnssid":0,"svid":8},{"PRN":29,"el":13,"az":273,"ss":0,"used":false,"gnssid":0,"svid":29},{"PRN":10,"el":51,"az":304,"ss":32,"used":true,"gnssid":0,"svid":10},{"PRN":4,"el":15,"az":199,"ss":36,"used":true,"gnssid":0,"svid":4},{"PRN":2,"el":34,"az":241,"ss":43,"used":true,"gnssid":0,"svid":2},{"PRN":27,"el":71,"az":76,"ss":42,"used":true,"gnssid":0,"svid":27}]}
$GPZDA,143450.28,09,06,2005,00,00*63
$GPGGA,143450.28,4629.8992,N,00734.0441,E,1,05,2.40,1343.12,M,48.183,M,,*50
$GPRMC,143450.28,A,4629.8992,N,00734.0441,E,0.1776,10.379,090605,,*3D
$GPGSA,A,3,8,10,4,2,27,,,,,,,,4.2,2.4,3.4*0F
$GPGBS,143450.28,24.829,25.326,78.615,,,,*74
{"class":"TPV","mode":3,"time":"2005-06-09T14:34:50.280Z","ept":0.005,"lat":46.498319545,"lon":7.567402192,"alt":1343.122,"epx":24.829,"epy":25.326,"epv":78.615,"track":10.3788,"speed":0.091,"climb":-0.085,"eps":50.65,"epc":157.23,"ecefx":4360951.00,"ecefy":579350.00,"ecefz":4604561.00,"ecefvx":-0.12,"ecefvy":0.00,"ecefvz":0.00,"eph":45.600,"sep":78.966}
$GPGSV,2,1,08,23,06,084,00,28,07,160,00,08,66,189,45,29,13,273,00*75
$GPGSV,2,2,08,10,51,304,29,04,15,199,36,02,34,241,41,27,71,076,42*7F
{"class":"SKY","time":"2005-06-09T14:34:51.280Z","xdop":1.66,"ydop":1.69,"vdop":3.42,"tdop":3.05,"hdop":2.40,"gdop":5.15,"pdop":4.16,"satellites":[{"PRN":23,"el":6,"az":84,"ss":0,"used":false,"gnssid":0,"svid":23},{"PRN":28,"el":7,"az":160,"ss":0,"used":false,"gnssid":0,"svid":28},{"PRN":8,"el":66,"az":189,"ss":45,"used":true,"gnssid":0,"svid":8},{"PRN":29,"el":13,"az":273,"ss":0,"used":false,"gnssid":0,"svid":29},{"PRN":10,"el":51,"az":304,"ss":29,"used":true,"gnssid":0,"svid":10},{"PRN":4,"el":15,"az":199,"ss":36,"used":true,"gnssid":0,"svid":4},{"PRN":2,"el":34,"az":241,"ss":41,"used":true,"gnssid":0,"svid":2},{"PRN":27,"el":71,"az":76,"ss":42,"used":true,"gnssid":0,"svid":27}]}
$GPZDA,143451.28,09,06,2005,00,00*62
$GPGGA,143451.28,4629.8999,N,00734.0442,E,1,05,2.40,1343.17,M,48.183,M,,*5C
$GPRMC,143451.28,A,4629.8999,N,00734.0442,E,0.1776,10.379,090605,,*34
$GPGSA,A,3,8,10,4,2,27,,,,,,,,4.2,2.4,3.4*0F
$GPGBS,143451.28,24.829,25.326,78.615,,,,*75
{"class":"TPV","mode":3,"time":"2005-06-09T14:34:51.280Z","ept":0.005,"lat":46.498332203,"lon":7.567403907,"alt":1343.165,"epx":24.829,"epy":25.326,"epv":78.615,"track":10.3788,"speed":0.091,"climb":-0.085,"eps":50.65,"epc":157.23,"ecefx":4360950.00,"ecefy":579350.00,"ecefz":4604562.00,"ecefvx":-0.12,"ecefvy":0.00,"ecefvz":0.00,"eph":45.600,"sep":78.966}
$GPGSV,2,1,08,23,06,084,00,28,07,160,00,08,66,189,45,29,13,273,00*75
$GPGSV,2,2,08,10,51,304,25,04,15,199,36,02,34,241,42,27,71,076,42*70
{"class":"SKY","time":"2005-06-09T14:34:52.280Z","xdop":1.66,"ydop":1.69,"vdop":3.42,"tdop":3.05,"hdop":2.40,"gdop":5.15,"pdop":4.16,"satellites":[{"PRN":23,"el":6,"az":84,"ss":0,"used":false,"gnssid":0,"svid":23},{"PRN":28,"el":7,"az":160,"ss":0,"used":false,"gnssid":0,"svid":28},{"PRN":8,"el":66,"az":189,"ss":45,"used":true,"gnssid":0,"svid":8},{"PRN":29,"el":13,"az":273,"ss":0,"used":false,"gnssid":0,"svid":29},{"PRN":10,"el":51,"az":304,"ss":25,"used":true,"gnssid":0,"svid":10},{"PRN":4,"el":15,"az":199,"ss":36,"used":true,"gnssid":0,"svid":4},{"PRN":2,"el":34,"az":241,"ss":42,"used":true,"gnssid":0,"svid":2},{"PRN":27,"el":71,"az":76,"ss":42,"used":true,"gnssid":0,"svid":27}]}
$GPZDA,143452.28,09,06,2005,00,00*61
$GPGGA,143452.28,4629.8999,N,00734.0442,E,1,05,3.20,1343.17,M,48.183,M,,*58
$GPRMC,143452.28,A,4629.8999,N,00734.0442,E,0.1776,10.379,090605,,*37
$GPGSA,A,3,8,10,4,2,27,,,,,,,,4.2,3.2,3.4*08
$GPGBS,143452.28,24.829,25.326,78.615,,,,*76
{"class":"TPV","mode":3,"time":"2005-06-09T14:34:52.280Z","ept":0.005,"lat":46.498332203,"lon":7.567403907,"alt":1343.165,"epx":24.829,"epy":25.326,"epv":78.615,"track":10.3788,"speed":0.091,"climb":-0.085,"eps":50.65,"epc":157.23,"ecefx":4360950.00,"ecefy":579350.00,"ecefz":4604562.00,"ecefvx":-0.12,"ecefvy":0.00,"ecefvz":0.00,"eph":60.800,"sep":78.966}
$GPGSV,2,1,08,23,06,084,00,28,07,160,00,08,66,189,46,29,13,273,00*76
$GPGSV,2,2,08,10,51,304,32,04,15,199,36,02,34,241,42,27,71,076,42*76
{"class":"SKY","time":"2005-06-09T14:34:53.280Z","xdop":1.66,"ydop":1.69,"vdop":3.42,"tdop":3.05,"hdop":3.20,"gdop":5.15,"pdop":4.16,"satellites":[{"PRN":23,"el":6,"az":84,"ss":0,"used":false,"gnssid":0,"svid":23},{"PRN":28,"el":7,"az":160,"ss":0,"used":false,"gnssid":0,"svid":28},{"PRN":8,"el":66,"az":189,"ss":46,"used":true,"gnssid":0,"svid":8},{"PRN":29,"el":13,"az":273,"ss":0,"used":false,"gnssid":0,"svid":29},{"PRN":10,"el":51,"az":304,"ss":32,"used":true,"gnssid":0,"svid":10},{"PRN":4,"el":15,"az":199,"ss":36,"used":true,"gnssid":0,"svid":4},{"PRN":2,"el":34,"az":241,"ss":42,"used":true,"gnssid":0,"svid":2},{"PRN":27,"el":71,"az":76,"ss":42,"used":true,"gnssid":0,"svid":27}]}
$GPZDA,143453.28,09,06,2005,00,00*60
$GPGGA,143453.28,4629.9000,N,00734.0435,E,1,05,2.40,1343.07,M,48.183,M,,*57
$GPRMC,143453.28,A,4629.9000,N,00734.0435,E,0.1776,10.379,090605,,*3E
$GPGSA,A,3,8,10,4,2,27,,,,,,,,4.2,2.4,3.4*0F
$GPGBS,143453.28,24.829,25.326,78.615,,,,*77
{"class":"TPV","mode":3,"time":"2005-06-09T14:34:53.280Z","ept":0.005,"lat":46.498333062,"lon":7.567390997,"alt":1343.075,"epx":24.829,"epy":25.326,"epv":78.615,"track":10.3787,"speed":0.091,"climb":-0.085,"eps":50.65,"epc":157.23,"ecefx":4360950.00,"ecefy":579349.00,"ecefz":4604562.00,"ecefvx":-0.12,"ecefvy":0.00,"ecefvz":0.00,"eph":45.600,"sep":78.966}
$GPGSV,2,1,08,23,06,084,00,28,07,160,00,08,66,189,46,29,13,273,00*76
$GPGSV,2,2,08,10,51,304,31,04,15,199,37,02,34,241,42,27,71,076,43*75
{"class":"SKY","time":"2005-06-09T14:34:54.280Z","xdop":1.66,"ydop":1.69,"vdop":3.42,"tdop":3.05,"hdop":2.40,"gdop":5.15,"pdop":4.16,"satellites":[{"PRN":23,"el":6,"az":84,"ss":0,"used":false,"gnssid":0,"svid":23},{"PRN":28,"el":7,"az":160,"ss":0,"used":false,"gnssid":0,"svid":28},{"PRN":8,"el":66,"az":189,"ss":46,"used":true,"gnssid":0,"svid":8},{"PRN":29,"el":13,"az":273,"ss":0,"used":false,"gnssid":0,"svid":29},{"PRN":10,"el":51,"az":304,"ss":31,"used":true,"gnssid":0,"svid":10},{"PRN":4,"el":15,"az":199,"ss":37,"used":true,"gnssid":0,"svid":4},{"PRN":2,"el":34,"az":241,"ss":42,"used":true,"gnssid":0,"svid":2},{"PRN":27,"el":71,"az":76,"ss":43,"used":true,"gnssid":0,"svid":27}]}
$GPZDA,143454.28,09,06,2005,00,00*67
$GPGGA,143454.28,4629.9004,N,00734.0436,E,1,05,2.40,1342.39,M,48.183,M,,*5B
$GPRMC,143454.28,A,4629.9004,N,00734.0436,E,0.1776,10.379,090605,,*3E
$GPGSA,A,3,8,10,4,2,27,,,,,,,,4.2,2.4,3.4*0F
$GPGBS,143454.28,24.829,25.326,78.615,,,,*70
{"class":"TPV","mode":3,"time":"2005-06-09T14:34:54.280Z","ept":0.005,"lat":46.498339529,"lon":7.567392712,"alt":1342.392,"epx":24.829,"epy":25.326,"epv":78.615,"track":10.3787,"speed":0.091,"climb":-0.085,"eps":50.65,"epc":157.23,"ecefx":4360949.00,"ecefy":579349.00,"ecefz":4604562.00,"ecefvx":-0.12,"ecefvy":0.00,"ecefvz":0.00,"eph":45.600,"sep":78.966}
