$GPGSV,2,1,08,23,07,084,00,28,07,160,00,08,65,189,45,29,13,273,00*77
$GPGSV,2,2,08,10,50,304,37,04,16,199,36,02,34,241,43,27,71,076,43*71
{"class":"SKY","time":"2025-01-23T14:34:11.280Z","xdop":1.68,"ydop":1.65,"vdop":3.49,"tdop":3.10,"hdop":2.35,"gdop":5.23,"pdop":4.21,"satellites":[{"PRN":23,"el":7,"az":84,"ss":0,"used":false,"gnssid":0,"svid":23},{"PRN":28,"el":7,"az":160,"ss":0,"used":false,"gnssid":0,"svid":28},{"PRN":8,"el":65,"az":189,"ss":45,"used":true,"gnssid":0,"svid":8},{"PRN":29,"el":13,"az":273,"ss":0,"used":false,"gnssid":0,"svid":29},{"PRN":10,"el":50,"az":304,"ss":37,"used":true,"gnssid":0,"svid":10},{"PRN":4,"el":16,"az":199,"ss":36,"used":true,"gnssid":0,"svid":4},{"PRN":2,"el":34,"az":241,"ss":43,"used":true,"gnssid":0,"svid":2},{"PRN":27,"el":71,"az":76,"ss":43,"used":true,"gnssid":0,"svid":27}]}
$GPZDA,143411.28,23,01,2025,00,00*6B
$GPGGA,143411.28,4629.8901,N,00734.0471,E,1,05,2.40,1349.51,M,48.183,M,,*51
$GPRMC,143411.28,A,4629.8901,N,00734.0471,E,0.1776,10.379,230125,,*3C
$GPGSA,A,3,8,10,4,2,27,,,,,,,,4.2,2.4,3.5*0E
$GPGBS,143411.28,25.195,24.691,80.261,,,,*76
{"class":"TPV","mode":3,"time":"2025-01-23T14:34:11.280Z","ept":0.005,"lat":46.498167579,"lon":7.567452213,"alt":1349.507,"epx":25.195,"epy":24.691,"epv":80.261,"track":10.3789,"speed":0.091,"climb":-0.085,"ecefx":4360967.00,"ecefy":579356.00,"ecefz":4604554.00,"ecefvx":-0.12,"ecefvy":0.00,"ecefvz":0.00,"eph":45.600,"sep":79.954}
$GPGSV,2,1,08,23,06,084,00,28,07,160,00,08,65,189,43,29,13,273,00*70
$GPGSV,2,2,08,10,50,304,36,04,16,199,36,02,34,241,44,27,71,076,43*77
{"class":"SKY","time":"2025-01-23T14:34:12.280Z","xdop":1.68,"ydop":1.65,"vdop":3.49,"tdop":3.10,"hdop":2.40,"gdop":5.23,"pdop":4.21,"satellites":[{"PRN":23,"el":6,"az":84,"ss":0,"used":false,"gnssid":0,"svid":23},{"PRN":28,"el":7,"az":160,"ss":0,"used":false,"gnssid":0,"svid":28},{"PRN":8,"el":65,"az":189,"ss":43,"used":true,"gnssid":0,"svid":8},{"PRN":29,"el":13,"az":273,"ss":0,"used":false,"gnssid":0,"svid":29},{"PRN":10,"el":50,"az":304,"ss":36,"used":true,"gnssid":0,"svid":10},{"PRN":4,"el":16,"az":199,"ss":36,"used":true,"gnssid":0,"svid":4},{"PRN":2,"el":34,"az":241,"ss":44,"used":true,"gnssid":0,"svid":2},{"PRN":27,"el":71,"az":76,"ss":43,"used":true,"gnssid":0,"svid":27}]}
$GPZDA,143412.28,23,01,2025,00,00*68
$GPGGA,143412.28,4629.8905,N,00734.0473,E,1,05,2.40,1347.42,M,48.183,M,,*58
$GPRMC,143412.28,A,4629.8905,N,00734.0473,E,0.1776,10.379,230125,,*39
$GPGSA,A,3,8,10,4,2,27,,,,,,,,4.2,2.4,3.5*0E
$GPGBS,143412.28,25.195,24.691,80.261,,,,*75
{"class":"TPV","mode":3,"time":"2025-01-23T14:34:12.280Z","ept":0.005,"lat":46.498174322,"lon":7.567455643,"alt":1347.417,"epx":25.195,"epy":24.691,"epv":80.261,"track":10.3789,"speed":0.091,"climb":-0.085,"eps":50.39,"epc":160.52,"ecefx":4360965.00,"ecefy":579356.00,"ecefz":4604553.00,"ecefvx":-0.12,"ecefvy":0.00,"ecefvz":0.00,"eph":45.600,"sep":79.954}
$GPGSV,2,1,08,23,06,084,00,28,07,160,00,08,65,189,44,29,13,273,00*77
$GPGSV,2,2,08,10,50,304,38,04,16,199,35,02,34,241,44,27,71,076,42*7B
{"class":"SKY","time":"2025-01-23T14:34:13.280Z","xdop":1.68,"ydop":1.65,"vdop":3.49,"tdop":3.10,"hdop":2.40,"gdop":5.23,"pdop":4.21,"satellites":[{"PRN":23,"el":6,"az":84,"ss":0,"used":false,"gnssid":0,"svid":23},{"PRN":28,"el":7,"az":160,"ss":0,"used":false,"gnssid":0,"svid":28},{"PRN":8,"el":65,"az":189,"ss":44,"used":true,"gnssid":0,"svid":8},{"PRN":29,"el":13,"az":273,"ss":0,"used":false,"gnssid":0,"svid":29},{"PRN":10,"el":50,"az":304,"ss":38,"used":true,"gnssid":0,"svid":10},{"PRN":4,"el":16,"az":199,"ss":35,"used":true,"gnssid":0,"svid":4},{"PRN":2,"el":34,"az":241,"ss":44,"used":true,"gnssid":0,"svid":2},{"PRN":27,"el":71,"az":76,"ss":42,"used":true,"gnssid":0,"svid":27}]}
$GPZDA,143413.28,23,01,2025,00,00*69
$GPGGA,143413.28,4629.8908,N,00734.0474,E,1,05,2.40,1346.73,M,48.183,M,,*50
$GPRMC,143413.28,A,4629.8908,N,00734.0474,E,0.0000,0.000,230125,,*09
$GPGSA,A,3,8,10,4,2,27,,,,,,,,4.2,2.4,3.5*0E
$GPGBS,143413.28,25.195,24.691,80.261,,,,*74
{"class":"TPV","mode":3,"time":"2025-01-23T14:34:13.280Z","ept":0.005,"lat":46.498180789,"lon":7.567457358,"alt":1346.734,"epx":25.195,"epy":24.691,"epv":80.261,"track":0.0000,"speed":0.000,"climb":0.000,"eps":50.39,"epc":160.52,"ecefx":4360964.00,"ecefy":579356.00,"ecefz":4604553.00,"ecefvx":0.00,"ecefvy":0.00,"ecefvz":0.00,"eph":45.600,"sep":79.954}
$GPGSV,2,1,08,23,06,084,00,28,07,160,00,08,65,189,45,29,13,273,00*76
$GPGSV,2,2,08,10,50,304,38,04,16,199,35,02,34,241,43,27,71,076,43*7D
{"class":"SKY","time":"2025-01-23T14:34:14.280Z","xdop":1.68,"ydop":1.65,"vdop":3.49,"tdop":3.10,"hdop":2.40,"gdop":5.23,"pdop":4.21,"satellites":[{"PRN":23,"el":6,"az":84,"ss":0,"used":false,"gnssid":0,"svid":23},{"PRN":28,"el":7,"az":160,"ss":0,"used":false,"gnssid":0,"svid":28},{"PRN":8,"el":65,"az":189,"ss":45,"used":true,"gnssid":0,"svid":8},{"PRN":29,"el":13,"az":273,"ss":0,"used":false,"gnssid":0,"svid":29},{"PRN":10,"el":50,"az":304,"ss":38,"used":true,"gnssid":0,"svid":10},{"PRN":4,"el":16,"az":199,"ss":35,"used":true,"gnssid":0,"svid":4},{"PRN":2,"el":34,"az":241,"ss":43,"used":true,"gnssid":0,"svid":2},{"PRN":27,"el":71,"az":76,"ss":43,"used":true,"gnssid":0,"svid":27}]}
$GPZDA,143414.28,23,01,2025,00,00*6E
$GPGGA,143414.28,4629.8912,N,00734.0475,E,1,05,2.40,1346.05,M,48.183,M,,*5C
$GPRMC,143414.28,A,4629.8912,N,00734.0475,E,0.1776,10.379,230125,,*3F
$GPGSA,A,3,8,10,4,2,27,,,,,,,,4.2,2.4,3.5*0E
$GPGBS,143414.28,25.195,24.691,80.261,,,,*73
{"class":"TPV","mode":3,"time":"2025-01-23T14:34:14.280Z","ept":0.005,"lat":46.498187256,"lon":7.567459073,"alt":1346.052,"epx":25.195,"epy":24.691,"epv":80.261,"track":10.3789,"speed":0.091,"climb":-0.085,"eps":50.39,"epc":160.52,"ecefx":4360963.00,"ecefy":579356.00,"ecefz":4604553.00,"ecefvx":-0.12,"ecefvy":0.00,"ecefvz":0.00,"eph":45.600,"sep":79.954}
$GPGSV,2,1,08,23,06,084,00,28,07,160,00,08,65,189,44,29,13,273,00*77
$GPGSV,2,2,08,10,50,304,36,04,16,199,32,02,34,241,39,27,71,076,41*7B
{"class":"SKY","time":"2025-01-23T14:34:15.280Z","xdop":1.68,"ydop":1.65,"vdop":3.49,"tdop":3.10,"hdop":2.40,"gdop":5.23,"pdop":4.21,"satellites":[{"PRN":23,"el":6,"az":84,"ss":0,"used":false,"gnssid":0,"svid":23},{"PRN":28,"el":7,"az":160,"ss":0,"used":false,"gnssid":0,"svid":28},{"PRN":8,"el":65,"az":189,"ss":44,"used":true,"gnssid":0,"svid":8},{"PRN":29,"el":13,"az":273,"ss":0,"used":false,"gnssid":0,"svid":29},{"PRN":10,"el":50,"az":304,"ss":36,"used":true,"gnssid":0,"svid":10},{"PRN":4,"el":16,"az":199,"ss":32,"used":true,"gnssid":0,"svid":4},{"PRN":2,"el":34,"az":241,"ss":39,"used":true,"gnssid":0,"svid":2},{"PRN":27,"el":71,"az":76,"ss":41,"used":true,"gnssid":0,"svid":27}]}
$GPZDA,143415.28,23,01,2025,00,00*6F
$GPGGA,143415.28,4629.8909,N,00734.0475,E,1,05,2.40,1345.33,M,48.183,M,,*51
$GPRMC,143415.28,A,4629.8909,N,00734.0475,E,0.1776,10.379,230125,,*34
$GPGSA,A,3,8,10,4,2,27,,,,,,,,4.2,2.4,3.5*0E
$GPGBS,143415.28,25.195,24.691,80.261,,,,*72
{"class":"TPV","mode":3,"time":"2025-01-23T14:34:15.280Z","ept":0.005,"lat":46.498181065,"lon":7.567459073,"alt":1345.327,"epx":25.195,"epy":24.691,"epv":80.261,"track":10.3789,"speed":0.091,"climb":-0.085,"eps":50.39,"epc":160.52,"ecefx":4360963.00,"ecefy":579356.00,"ecefz":4604552.00,"ecefvx":-0.12,"ecefvy":0.00,"ecefvz":0.00,"eph":45.600,"sep":79.954}
$GPGSV,2,1,08,23,06,084,00,28,07,160,00,08,65,189,46,29,13,273,00*75
$GPGSV,2,2,08,10,50,304,38,04,16,199,34,02,34,241,41,27,71,076,41*7C
{"class":"SKY","time":"2025-01-23T14:34:16.280Z","xdop":1.68,"ydop":1.65,"vdop":3.49,"tdop":3.10,"hdop":2.40,"gdop":5.23,"pdop":4.21,"satellites":[{"PRN":23,"el":6,"az":84,"ss":0,"used":false,"gnssid":0,"svid":23},{"PRN":28,"el":7,"az":160,"ss":0,"used":false,"gnssid":0,"svid":28},{"PRN":8,"el":65,"az":189,"ss":46,"used":true,"gnssid":0,"svid":8},{"PRN":29,"el":13,"az":273,"ss":0,"used":false,"gnssid":0,"svid":29},{"PRN":10,"el":50,"az":304,"ss":38,"used":true,"gnssid":0,"svid":10},{"PRN":4,"el":16,"az":199,"ss":34,"used":true,"gnssid":0,"svid":4},{"PRN":2,"el":34,"az":241,"ss":41,"used":true,"gnssid":0,"svid":2},{"PRN":27,"el":71,"az":76,"ss":41,"used":true,"gnssid":0,"svid":27}]}
$GPZDA,143416.28,23,01,2025,00,00*6C
$GPGGA,143416.28,4629.8913,N,00734.0476,E,1,05,2.40,1344.64,M,48.183,M,,*59
$GPRMC,143416.28,A,4629.8913,N,00734.0476,E,0.1673,180.000,230125,,*0E
$GPGSA,A,3,8,10,4,2,27,,,,,,,,4.2,2.4,3.5*0E
$GPGBS,143416.28,25.195,24.691,80.261,,,,*71
{"class":"TPV","mode":3,"time":"2025-01-23T14:34:16.280Z","ept":0.005,"lat":46.498187532,"lon":7.567460788,"alt":1344.644,"epx":25.195,"epy":24.691,"epv":80.261,"track":180.0000,"speed":0.086,"climb":-0.091,"eps":50.39,"epc":160.52,"ecefx":4360962.00,"ecefy":579356.00,"ecefz":4604552.00,"ecefvx":0.00,"ecefvy":0.00,"ecefvz":-0.12,"eph":45.600,"sep":79.954}
$GPGSV,2,1,08,23,06,084,00,28,07,160,00,08,65,189,46,29,13,273,00*75
$GPGSV,2,2,08,10,50,304,37,04,16,199,36,02,34,241,43,27,71,076,41*73
{"class":"SKY","time":"2025-01-23T14:34:17.280Z","xdop":1.68,"ydop":1.65,"vdop":3.49,"tdop":3.10,"hdop":2.40,"gdop":5.23,"pdop":4.21,"satellites":[{"PRN":23,"el":6,"az":84,"ss":0,"used":false,"gnssid":0,"svid":23},{"PRN":28,"el":7,"az":160,"ss":0,"used":false,"gnssid":0,"svid":28},{"PRN":8,"el":65,"az":189,"ss":46,"used":true,"gnssid":0,"svid":8},{"PRN":29,"el":13,"az":273,"ss":0,"used":false,"gnssid":0,"svid":29},{"PRN":10,"el":50,"az":304,"ss":37,"used":true,"gnssid":0,"svid":10},{"PRN":4,"el":16,"az":199,"ss":36,"used":true,"gnssid":0,"svid":4},{"PRN":2,"el":34,"az":241,"ss":43,"used":true,"gnssid":0,"svid":2},{"PRN":27,"el":71,"az":76,"ss":41,"used":true,"gnssid":0,"svid":27}]}
$GPZDA,143417.28,23,01,2025,00,00*6D
$GPGGA,143417.28,4629.8916,N,00734.0478,E,1,05,2.40,1343.96,M,48.183,M,,*59
$GPRMC,143417.28,A,4629.8916,N,00734.0478,E,0.1776,10.379,230125,,*35
$GPGSA,A,3,8,10,4,2,27,,,,,,,,4.2,2.4,3.5*0E
$GPGBS,143417.28,25.195,24.691,80.261,,,,*70
{"class":"TPV","mode":3,"time":"2025-01-23T14:34:17.280Z","ept":0.005,"lat":46.498193999,"lon":7.567462504,"alt":1343.962,"epx":25.195,"epy":24.691,"epv":80.261,"track":10.3789,"speed":0.091,"climb":-0.085,"eps":50.39,"epc":160.52,"ecefx":4360961.00,"ecefy":579356.00,"ecefz":4604552.00,"ecefvx":-0.12,"ecefvy":0.00,"ecefvz":0.00,"eph":45.600,"sep":79.954}
$GPGSV,2,1,08,23,06,084,00,28,07,160,00,08,65,189,45,29,13,273,00*76
$GPGSV,2,2,08,10,50,304,38,04,16,199,36,02,34,241,42,27,71,076,42*7E
{"class":"SKY","time":"2025-01-23T14:34:18.280Z","xdop":1.68,"ydop":1.65,"vdop":3.49,"tdop":3.10,"hdop":2.40,"gdop":5.23,"pdop":4.21,"satellites":[{"PRN":23,"el":6,"az":84,"ss":0,"used":false,"gnssid":0,"svid":23},{"PRN":28,"el":7,"az":160,"ss":0,"used":false,"gnssid":0,"svid":28},{"PRN":8,"el":65,"az":189,"ss":45,"used":true,"gnssid":0,"svid":8},{"PRN":29,"el":13,"az":273,"ss":0,"used":false,"gnssid":0,"svid":29},{"PRN":10,"el":50,"az":304,"ss":38,"used":true,"gnssid":0,"svid":10},{"PRN":4,"el":16,"az":199,"ss":36,"used":true,"gnssid":0,"svid":4},{"PRN":2,"el":34,"az":241,"ss":42,"used":true,"gnssid":0,"svid":2},{"PRN":27,"el":71,"az":76,"ss":42,"used":true,"gnssid":0,"svid":27}]}
$GPZDA,143418.28,23,01,2025,00,00*62
$GPGGA,143418.28,4629.8916,N,00734.0478,E,1,05,2.40,1343.96,M,48.183,M,,*56
$GPRMC,143418.28,A,4629.8916,N,00734.0478,E,0.0000,0.000,230125,,*01
$GPGSA,A,3,8,10,4,2,27,,,,,,,,4.2,2.4,3.5*0E
$GPGBS,143418.28,25.195,24.691,80.261,,,,*7F
{"class":"TPV","mode":3,"time":"2025-01-23T14:34:18.280Z","ept":0.005,"lat":46.498193999,"lon":7.567462504,"alt":1343.962,"epx":25.195,"epy":24.691,"epv":80.261,"track":0.0000,"speed":0.000,"climb":0.000,"eps":50.39,"epc":160.52,"ecefx":4360961.00,"ecefy":579356.00,"ecefz":4604552.00,"ecefvx":0.00,"ecefvy":0.00,"ecefvz":0.00,"eph":45.600,"sep":79.954}
$GPGSV,2,1,08,23,06,084,00,28,07,160,00,08,65,189,45,29,13,273,00*76
$GPGSV,2,2,08,10,50,304,37,04,16,199,36,02,34,241,42,27,71,076,43*70
{"class":"SKY","time":"2025-01-23T14:34:19.280Z","xdop":1.68,"ydop":1.65,"vdop":3.49,"tdop":3.10,"hdop":2.40,"gdop":5.23,"pdop":4.21,"satellites":[{"PRN":23,"el":6,"az":84,"ss":0,"used":false,"gnssid":0,"svid":23},{"PRN":28,"el":7,"az":160,"ss":0,"used":false,"gnssid":0,"svid":28},{"PRN":8,"el":65,"az":189,"ss":45,"used":true,"gnssid":0,"svid":8},{"PRN":29,"el":13,"az":273,"ss":0,"used":false,"gnssid":0,"svid":29},{"PRN":10,"el":50,"az":304,"ss":37,"used":true,"gnssid":0,"svid":10},{"PRN":4,"el":16,"az":199,"ss":36,"used":true,"gnssid":0,"svid":4},{"PRN":2,"el":34,"az":241,"ss":42,"used":true,"gnssid":0,"svid":2},{"PRN":27,"el":71,"az":76,"ss":43,"used":true,"gnssid":0,"svid":27}]}
$GPZDA,143419.28,23,01,2025,00,00*63
$GPGGA,143419.28,4629.8917,N,00734.0470,E,1,05,2.40,1343.87,M,48.183,M,,*5E
$GPRMC,143419.28,A,4629.8917,N,00734.0470,E,0.0000,0.000,230125,,*09
$GPGSA,A,3,8,10,4,2,27,,,,,,,,4.2,2.4,3.5*0E
$GPGBS,143419.28,25.195,24.691,80.261,,,,*7E
{"class":"TPV","mode":3,"time":"2025-01-23T14:34:19.280Z","ept":0.005,"lat":46.498194858,"lon":7.567449593,"alt":1343.871,"epx":25.195,"epy":24.691,"epv":80.261,"track":0.0000,"speed":0.000,"climb":0.000,"eps":50.39,"epc":160.52,"ecefx":4360961.00,"ecefy":579355.00,"ecefz":4604552.00,"ecefvx":0.00,"ecefvy":0.00,"ecefvz":0.00,"eph":45.600,"sep":79.954}
$GPGSV,2,1,08,23,06,084,00,28,07,160,00,08,65,189,46,29,13,273,00*75
$GPGSV,2,2,08,10,50,304,36,04,16,199,36,02,34,241,42,27,71,076,42*70
{"class":"SKY","time":"2025-01-23T14:34:20.280Z","xdop":1.68,"ydop":1.65,"vdop":3.49,"tdop":3.10,"hdop":2.40,"gdop":5.23,"pdop":4.21,"satellites":[{"PRN":23,"el":6,"az":84,"ss":0,"used":false,"gnssid":0,"svid":23},{"PRN":28,"el":7,"az":160,"ss":0,"used":false,"gnssid":0,"svid":28},{"PRN":8,"el":65,"az":189,"ss":46,"used":true,"gnssid":0,"svid":8},{"PRN":29,"el":13,"az":273,"ss":0,"used":false,"gnssid":0,"svid":29},{"PRN":10,"el":50,"az":304,"ss":36,"used":true,"gnssid":0,"svid":10},{"PRN":4,"el":16,"az":199,"ss":36,"used":true,"gnssid":0,"svid":4},{"PRN":2,"el":34,"az":241,"ss":42,"used":true,"gnssid":0,"svid":2},{"PRN":27,"el":71,"az":76,"ss":42,"used":true,"gnssid":0,"svid":27}]}
$GPZDA,143420.28,23,01,2025,00,00*69
$GPGGA,143420.28,4629.8921,N,00734.0471,E,1,05,2.40,1343.19,M,48.183,M,,*57
$GPRMC,143420.28,A,4629.8921,N,00734.0471,E,0.1776,10.379,230125,,*3C
$GPGSA,A,3,8,10,4,2,27,,,,,,,,4.2,2.4,3.5*0E
$GPGBS,143420.28,25.195,24.691,80.261,,,,*74
{"class":"TPV","mode":3,"time":"2025-01-23T14:34:20.280Z","ept":0.005,"lat":46.498201325,"lon":7.567451308,"alt":1343.189,"epx":25.195,"epy":24.691,"epv":80.261,"track":10.3788,"speed":0.091,"climb":-0.085,"eps":50.39,"epc":160.52,"ecefx":4360960.00,"ecefy":579355.00,"ecefz":4604552.00,"ecefvx":-0.12,"ecefvy":0.00,"ecefvz":0.00,"eph":45.600,"sep":79.954}
$GPGSV,2,1,08,23,06,084,00,28,07,160,00,08,65,189,46,29,13,273,00*75
$GPGSV,2,2,08,10,50,304,36,04,16,199,37,02,34,241,42,27,71,076,42*71
{"class":"SKY","time":"2025-01-23T14:34:21.280Z","xdop":1.68,"ydop":1.65,"vdop":3.49,"tdop":3.10,"hdop":2.40,"gdop":5.23,"pdop":4.21,"satellites":[{"PRN":23,"el":6,"az":84,"ss":0,"used":false,"gnssid":0,"svid":23},{"PRN":28,"el":7,"az":160,"ss":0,"used":false,"gnssid":0,"svid":28},{"PRN":8,"el":65,"az":189,"ss":46,"used":true,"gnssid":0,"svid":8},{"PRN":29,"el":13,"az":273,"ss":0,"used":false,"gnssid":0,"svid":29},{"PRN":10,"el":50,"az":304,"ss":36,"used":true,"gnssid":0,"svid":10},{"PRN":4,"el":16,"az":199,"ss":37,"used":true,"gnssid":0,"svid":4},{"PRN":2,"el":34,"az":241,"ss":42,"used":true,"gnssid":0,"svid":2},{"PRN":27,"el":71,"az":76,"ss":42,"used":true,"gnssid":0,"svid":27}]}
$GPZDA,143421.28,23,01,2025,00,00*68
$GPGGA,143421.28,4629.8921,N,00734.0471,E,1,05,2.40,1343.19,M,48.183,M,,*56
$GPRMC,143421.28,A,4629.8921,N,00734.0471,E,0.1776,10.379,230125,,*3D
$GPGSA,A,3,8,10,4,2,27,,,,,,,,4.2,2.4,3.5*0E
$GPGBS,143421.28,25.195,24.691,80.261,,,,*75
{"class":"TPV","mode":3,"time":"2025-01-23T14:34:21.280Z","ept":0.005,"lat":46.498201325,"lon":7.567451308,"alt":1343.189,"epx":25.195,"epy":24.691,"epv":80.261,"track":10.3788,"speed":0.091,"climb":-0.085,"eps":50.39,"epc":160.52,"ecefx":4360960.00,"ecefy":579355.00,"ecefz":4604552.00,"ecefvx":-0.12,"ecefvy":0.00,"ecefvz":0.00,"eph":45.600,"sep":79.954}
