$GPGSV,2,1,07,10,46,196,10,29,68,310,42,28,59,108,40,26,51,304,44*7C
$GPGSV,2,2,07,08,44,058,43,27,16,066,37,21,10,302,00*49
{"class":"SKY","time":"2025-02-02T16:12:22.890Z","xdop":1.02,"ydop":1.09,"vdop":2.58,"tdop":1.99,"hdop":1.49,"gdop":3.59,"pdop":2.98,"satellites":[{"PRN":10,"el":45.5,"az":196.5,"ss":10.0,"used":true,"gnssid":0,"svid":10},{"PRN":29,"el":67.5,"az":310.5,"ss":41.6,"used":true,"gnssid":0,"svid":29},{"PRN":28,"el":59.0,"az":108.0,"ss":40.4,"used":true,"gnssid":0,"svid":28},{"PRN":26,"el":51.0,"az":304.5,"ss":44.1,"used":true,"gnssid":0,"svid":26},{"PRN":8,"el":44.5,"az":58.5,"ss":43.4,"used":true,"gnssid":0,"svid":8},{"PRN":27,"el":16.5,"az":66.0,"ss":37.1,"used":true,"gnssid":0,"svid":27},{"PRN":21,"el":10.0,"az":301.5,"ss":0.0,"used":false,"gnssid":0,"svid":21}]}
$GPZDA,161222.89,02,02,2025,00,00*66
$GPGGA,161222.89,4629.8923,N,00734.0837,E,1,06,3.20,1330.28,M,45.589,M,,*55
$GPRMC,161222.89,A,4629.8923,N,00734.0837,E,0.1673,180.000,020225,2.3,E*64
$GPGSA,A,3,10,29,28,26,8,27,,,,,,,3.0,3.2,2.6*0D
$GPGBS,161222.89,15.294,16.316,59.401,,,,*75
{"class":"TPV","mode":3,"time":"2025-02-02T16:12:22.890Z","ept":0.005,"lat":46.498204496,"lon":7.568061439,"altHAE":1375.872,"altMSL":1330.283,"epx":15.294,"epy":16.316,"epv":59.401,"track":180.0000,"magtrack":182.3219,"magvar":2.3,"speed":0.086,"climb":-0.091,"ecefx":4360943.00,"ecefy":579400.00,"ecefz":4604541.00,"ecefvx":0.00,"ecefvy":0.00,"ecefvz":-0.12,"velN":-0.086,"velE":0.000,"velD":0.091,"geoidSep":45.589,"eph":60.800,"sep":56.659}
$GPGSV,2,1,07,10,46,196,08,29,68,310,41,28,59,108,40,26,51,304,43*71
$GPGSV,2,2,07,08,44,058,42,27,16,066,36,21,10,302,00*49
{"class":"SKY","time":"2025-02-02T16:12:23.890Z","xdop":1.02,"ydop":1.09,"vdop":2.58,"tdop":1.99,"hdop":3.20,"gdop":3.59,"pdop":2.98,"satellites":[{"PRN":10,"el":45.5,"az":196.5,"ss":8.1,"used":true,"gnssid":0,"svid":10},{"PRN":29,"el":67.5,"az":310.5,"ss":41.4,"used":true,"gnssid":0,"svid":29},{"PRN":28,"el":59.0,"az":108.0,"ss":39.6,"used":true,"gnssid":0,"svid":28},{"PRN":26,"el":51.0,"az":304.5,"ss":43.4,"used":true,"gnssid":0,"svid":26},{"PRN":8,"el":44.5,"az":58.5,"ss":42.3,"used":true,"gnssid":0,"svid":8},{"PRN":27,"el":16.5,"az":66.0,"ss":36.0,"used":true,"gnssid":0,"svid":27},{"PRN":21,"el":10.0,"az":301.5,"ss":0.0,"used":false,"gnssid":0,"svid":21}]}
$GPZDA,161223.89,02,02,2025,00,00*67
$GPGGA,161223.89,4629.8923,N,00734.0837,E,1,06,3.20,1330.28,M,45.589,M,,*54
$GPRMC,161223.89,A,4629.8923,N,00734.0837,E,0.1776,10.380,020225,2.3,E*52
$GPGSA,A,3,10,29,28,26,8,27,,,,,,,3.0,3.2,2.6*0D
$GPGBS,161223.89,15.294,16.316,59.401,,,,*74
{"class":"TPV","mode":3,"time":"2025-02-02T16:12:23.890Z","ept":0.005,"lat":46.498204496,"lon":7.568061439,"altHAE":1375.872,"altMSL":1330.283,"epx":15.294,"epy":16.316,"epv":59.401,"track":10.3797,"magtrack":12.7016,"magvar":2.3,"speed":0.091,"climb":-0.085,"eps":32.63,"epc":118.80,"ecefx":4360943.00,"ecefy":579400.00,"ecefz":4604541.00,"ecefvx":-0.12,"ecefvy":0.00,"ecefvz":0.00,"velN":0.090,"velE":0.016,"velD":0.085,"geoidSep":45.589,"eph":60.800,"sep":56.659}
$GPGSV,2,1,07,10,46,196,33,29,68,310,42,28,59,108,42,26,51,304,43*78
$GPGSV,2,2,07,08,44,058,44,27,16,066,36,21,10,302,00*4F
{"class":"SKY","time":"2025-02-02T16:12:24.890Z","xdop":1.02,"ydop":1.09,"vdop":2.58,"tdop":1.99,"hdop":3.20,"gdop":3.59,"pdop":2.98,"satellites":[{"PRN":10,"el":45.5,"az":196.5,"ss":33.4,"used":true,"gnssid":0,"svid":10},{"PRN":29,"el":67.5,"az":310.5,"ss":42.4,"used":true,"gnssid":0,"svid":29},{"PRN":28,"el":59.0,"az":108.0,"ss":42.4,"used":true,"gnssid":0,"svid":28},{"PRN":26,"el":51.0,"az":304.5,"ss":43.1,"used":true,"gnssid":0,"svid":26},{"PRN":8,"el":44.5,"az":58.5,"ss":43.5,"used":true,"gnssid":0,"svid":8},{"PRN":27,"el":16.5,"az":66.0,"ss":36.2,"used":true,"gnssid":0,"svid":27},{"PRN":21,"el":10.0,"az":301.5,"ss":0.0,"used":false,"gnssid":0,"svid":21}]}
$GPZDA,161224.89,02,02,2025,00,00*60
$GPGGA,161224.89,4629.8923,N,00734.0837,E,1,06,1.40,1330.28,M,45.589,M,,*57
$GPRMC,161224.89,A,4629.8923,N,00734.0837,E,0.1673,180.000,020225,2.3,E*62
$GPGSA,A,3,10,29,28,26,8,27,,,,,,,3.0,1.4,2.6*09
$GPGBS,161224.89,15.294,16.316,59.401,,,,*73
{"class":"TPV","mode":3,"time":"2025-02-02T16:12:24.890Z","ept":0.005,"lat":46.498204496,"lon":7.568061439,"altHAE":1375.872,"altMSL":1330.283,"epx":15.294,"epy":16.316,"epv":59.401,"track":180.0000,"magtrack":182.3219,"magvar":2.3,"speed":0.086,"climb":-0.091,"eps":32.63,"epc":118.80,"ecefx":4360943.00,"ecefy":579400.00,"ecefz":4604541.00,"ecefvx":0.00,"ecefvy":0.00,"ecefvz":-0.12,"velN":-0.086,"velE":0.000,"velD":0.091,"geoidSep":45.589,"eph":26.600,"sep":56.659}
$GPGSV,2,1,07,10,46,196,31,29,68,310,43,28,59,108,42,26,51,304,45*7D
$GPGSV,2,2,07,08,44,058,46,27,16,066,42,21,10,302,00*4E
{"class":"SKY","time":"2025-02-02T16:12:25.890Z","xdop":1.02,"ydop":1.09,"vdop":2.58,"tdop":1.99,"hdop":1.40,"gdop":3.59,"pdop":2.98,"satellites":[{"PRN":10,"el":45.5,"az":196.5,"ss":30.8,"used":true,"gnssid":0,"svid":10},{"PRN":29,"el":67.5,"az":310.5,"ss":42.6,"used":true,"gnssid":0,"svid":29},{"PRN":28,"el":59.0,"az":108.0,"ss":42.5,"used":true,"gnssid":0,"svid":28},{"PRN":26,"el":51.0,"az":304.5,"ss":45.4,"used":true,"gnssid":0,"svid":26},{"PRN":8,"el":44.5,"az":58.5,"ss":45.7,"used":true,"gnssid":0,"svid":8},{"PRN":27,"el":16.5,"az":66.0,"ss":41.8,"used":true,"gnssid":0,"svid":27},{"PRN":21,"el":10.0,"az":301.5,"ss":0.0,"used":false,"gnssid":0,"svid":21}]}
$GPZDA,161225.89,02,02,2025,00,00*61
$GPGGA,161225.89,4629.8923,N,00734.0837,E,1,06,1.40,1330.28,M,45.589,M,,*56
$GPRMC,161225.89,A,4629.8923,N,00734.0837,E,0.0000,0.000,020225,2.3,E*69
$GPGSA,A,3,10,29,28,26,8,27,,,,,,,3.0,1.4,2.6*09
$GPGBS,161225.89,15.294,16.316,59.401,,,,*72
{"class":"TPV","mode":3,"time":"2025-02-02T16:12:25.890Z","ept":0.005,"lat":46.498204496,"lon":7.568061439,"altHAE":1375.872,"altMSL":1330.283,"epx":15.294,"epy":16.316,"epv":59.401,"track":0.0000,"magtrack":2.3219,"magvar":2.3,"speed":0.000,"climb":0.000,"eps":32.63,"epc":118.80,"ecefx":4360943.00,"ecefy":579400.00,"ecefz":4604541.00,"ecefvx":0.00,"ecefvy":0.00,"ecefvz":0.00,"velN":0.000,"velE":0.000,"velD":-0.000,"geoidSep":45.589,"eph":26.600,"sep":56.659}
$GPGSV,2,1,07,10,46,196,33,29,68,310,40,28,59,108,41,26,51,304,43*79
$GPGSV,2,2,07,08,44,058,44,27,16,066,40,21,10,302,00*4E
{"class":"SKY","time":"2025-02-02T16:12:26.890Z","xdop":1.02,"ydop":1.09,"vdop":2.58,"tdop":1.99,"hdop":1.40,"gdop":3.59,"pdop":2.98,"satellites":[{"PRN":10,"el":45.5,"az":196.5,"ss":33.4,"used":true,"gnssid":0,"svid":10},{"PRN":29,"el":67.5,"az":310.5,"ss":39.8,"used":true,"gnssid":0,"svid":29},{"PRN":28,"el":59.0,"az":108.0,"ss":41.1,"used":true,"gnssid":0,"svid":28},{"PRN":26,"el":51.0,"az":304.5,"ss":42.8,"used":true,"gnssid":0,"svid":26},{"PRN":8,"el":44.5,"az":58.5,"ss":43.9,"used":true,"gnssid":0,"svid":8},{"PRN":27,"el":16.5,"az":66.0,"ss":40.2,"used":true,"gnssid":0,"svid":27},{"PRN":21,"el":10.0,"az":301.5,"ss":0.0,"used":false,"gnssid":0,"svid":21}]}
$GPZDA,161226.89,02,02,2025,00,00*62
$GPGGA,161226.89,4629.8919,N,00734.0837,E,1,06,1.40,1329.56,M,45.589,M,,*5D
$GPRMC,161226.89,A,4629.8919,N,00734.0837,E,0.1673,180.000,020225,2.3,E*69
$GPGSA,A,3,10,29,28,26,8,27,,,,,,,3.0,1.4,2.6*09
$GPGBS,161226.89,15.294,16.316,59.401,,,,*71
{"class":"TPV","mode":3,"time":"2025-02-02T16:12:26.890Z","ept":0.005,"lat":46.498198305,"lon":7.568061439,"altHAE":1375.146,"altMSL":1329.558,"epx":15.294,"epy":16.316,"epv":59.401,"track":180.0000,"magtrack":182.3219,"magvar":2.3,"speed":0.086,"climb":-0.091,"eps":32.63,"epc":118.80,"ecefx":4360943.00,"ecefy":579400.00,"ecefz":4604540.00,"ecefvx":0.00,"ecefvy":0.00,"ecefvz":-0.12,"velN":-0.086,"velE":0.000,"velD":0.091,"geoidSep":45.589,"eph":26.600,"sep":56.659}
$GPGSV,2,1,07,10,46,196,34,29,68,310,40,28,59,108,43,26,51,304,43*7C
$GPGSV,2,2,07,08,44,058,42,27,16,066,39,21,10,302,00*46
{"class":"SKY","time":"2025-02-02T16:12:27.890Z","xdop":1.02,"ydop":1.09,"vdop":2.58,"tdop":1.99,"hdop":1.40,"gdop":3.59,"pdop":2.98,"satellites":[{"PRN":10,"el":45.5,"az":196.5,"ss":34.3,"used":true,"gnssid":0,"svid":10},{"PRN":29,"el":67.5,"az":310.5,"ss":39.9,"used":true,"gnssid":0,"svid":29},{"PRN":28,"el":59.0,"az":108.0,"ss":43.1,"used":true,"gnssid":0,"svid":28},{"PRN":26,"el":51.0,"az":304.5,"ss":42.7,"used":true,"gnssid":0,"svid":26},{"PRN":8,"el":44.5,"az":58.5,"ss":42.1,"used":true,"gnssid":0,"svid":8},{"PRN":27,"el":16.5,"az":66.0,"ss":38.6,"used":true,"gnssid":0,"svid":27},{"PRN":21,"el":10.0,"az":301.5,"ss":0.0,"used":false,"gnssid":0,"svid":21}]}
$GPZDA,161227.89,02,02,2025,00,00*63
$GPGGA,161227.89,4629.8919,N,00734.0837,E,1,06,1.40,1329.56,M,45.589,M,,*5C
$GPRMC,161227.89,A,4629.8919,N,00734.0837,E,0.0000,0.000,020225,2.3,E*62
$GPGSA,A,3,10,29,28,26,8,27,,,,,,,3.0,1.4,2.6*09
$GPGBS,161227.89,15.294,16.316,59.401,,,,*70
{"class":"TPV","mode":3,"time":"2025-02-02T16:12:27.890Z","ept":0.005,"lat":46.498198305,"lon":7.568061439,"altHAE":1375.146,"altMSL":1329.558,"epx":15.294,"epy":16.316,"epv":59.401,"track":0.0000,"magtrack":2.3219,"magvar":2.3,"speed":0.000,"climb":0.000,"eps":32.63,"epc":118.80,"ecefx":4360943.00,"ecefy":579400.00,"ecefz":4604540.00,"ecefvx":0.00,"ecefvy":0.00,"ecefvz":0.00,"velN":0.000,"velE":0.000,"velD":-0.000,"geoidSep":45.589,"eph":26.600,"sep":56.659}
$GPGSV,2,1,07,10,46,196,35,29,68,310,39,28,59,108,43,26,51,304,43*73
$GPGSV,2,2,07,08,44,058,42,27,16,066,38,21,10,302,00*47
{"class":"SKY","time":"2025-02-02T16:12:28.890Z","xdop":1.02,"ydop":1.09,"vdop":2.58,"tdop":1.99,"hdop":1.40,"gdop":3.59,"pdop":2.98,"satellites":[{"PRN":10,"el":45.5,"az":196.5,"ss":35.4,"used":true,"gnssid":0,"svid":10},{"PRN":29,"el":67.5,"az":310.5,"ss":39.0,"used":true,"gnssid":0,"svid":29},{"PRN":28,"el":59.0,"az":108.0,"ss":43.1,"used":true,"gnssid":0,"svid":28},{"PRN":26,"el":51.0,"az":304.5,"ss":43.2,"used":true,"gnssid":0,"svid":26},{"PRN":8,"el":44.5,"az":58.5,"ss":42.0,"used":true,"gnssid":0,"svid":8},{"PRN":27,"el":16.5,"az":66.0,"ss":37.5,"used":true,"gnssid":0,"svid":27},{"PRN":21,"el":10.0,"az":301.5,"ss":0.0,"used":false,"gnssid":0,"svid":21}]}
$GPZDA,161228.89,02,02,2025,00,00*6C
$GPGGA,161228.89,4629.8919,N,00734.0837,E,1,06,1.40,1329.56,M,45.589,M,,*53
$GPRMC,161228.89,A,4629.8919,N,00734.0837,E,0.0000,0.000,020225,2.3,E*6D
$GPGSA,A,3,10,29,28,26,8,27,,,,,,,3.0,1.4,2.6*09
$GPGBS,161228.89,15.294,16.316,59.401,,,,*7F
{"class":"TPV","mode":3,"time":"2025-02-02T16:12:28.890Z","ept":0.005,"lat":46.498198305,"lon":7.568061439,"altHAE":1375.146,"altMSL":1329.558,"epx":15.294,"epy":16.316,"epv":59.401,"track":0.0000,"magtrack":2.3219,"magvar":2.3,"speed":0.000,"climb":0.000,"eps":32.63,"epc":118.80,"ecefx":4360943.00,"ecefy":579400.00,"ecefz":4604540.00,"ecefvx":0.00,"ecefvy":0.00,"ecefvz":0.00,"velN":0.000,"velE":0.000,"velD":-0.000,"geoidSep":45.589,"eph":26.600,"sep":56.659}
$GPGSV,2,1,07,10,46,196,37,29,68,310,40,28,59,108,45,26,51,304,42*78
$GPGSV,2,2,07,08,44,058,42,27,16,066,38,21,10,302,00*47
{"class":"SKY","time":"2025-02-02T16:12:29.890Z","xdop":1.02,"ydop":1.09,"vdop":2.58,"tdop":1.99,"hdop":1.40,"gdop":3.59,"pdop":2.98,"satellites":[{"PRN":10,"el":45.5,"az":196.5,"ss":36.8,"used":true,"gnssid":0,"svid":10},{"PRN":29,"el":67.5,"az":310.5,"ss":40.1,"used":true,"gnssid":0,"svid":29},{"PRN":28,"el":59.0,"az":108.0,"ss":44.7,"used":true,"gnssid":0,"svid":28},{"PRN":26,"el":51.0,"az":304.5,"ss":42.4,"used":true,"gnssid":0,"svid":26},{"PRN":8,"el":44.5,"az":58.5,"ss":42.4,"used":true,"gnssid":0,"svid":8},{"PRN":27,"el":16.5,"az":66.0,"ss":37.9,"used":true,"gnssid":0,"svid":27},{"PRN":21,"el":10.0,"az":301.5,"ss":0.0,"used":false,"gnssid":0,"svid":21}]}
$GPZDA,161229.89,02,02,2025,00,00*6D
$GPGGA,161229.89,4629.8919,N,00734.0837,E,1,06,1.40,1329.56,M,45.589,M,,*52
$GPRMC,161229.89,A,4629.8919,N,00734.0837,E,0.0000,0.000,020225,2.3,E*6C
$GPGSA,A,3,10,29,28,26,8,27,,,,,,,3.0,1.4,2.6*09
$GPGBS,161229.89,15.294,16.316,59.401,,,,*7E
{"class":"TPV","mode":3,"time":"2025-02-02T16:12:29.890Z","ept":0.005,"lat":46.498198305,"lon":7.568061439,"altHAE":1375.146,"altMSL":1329.558,"epx":15.294,"epy":16.316,"epv":59.401,"track":0.0000,"magtrack":2.3219,"magvar":2.3,"speed":0.000,"climb":0.000,"eps":32.63,"epc":118.80,"ecefx":4360943.00,"ecefy":579400.00,"ecefz":4604540.00,"ecefvx":0.00,"ecefvy":0.00,"ecefvz":0.00,"velN":0.000,"velE":0.000,"velD":-0.000,"geoidSep":45.589,"eph":26.600,"sep":56.659}
