# Name: GlobalSat BU-353-S4
# Chipset = SiRF-IV
# Firmware = ?-GSD4e_4.0.4-P1_RPATCH.07-GS008-F-GPS-4R-1201128 01/12/2012 012
# Date = 2014-12-31
# Submitter = Paul Beard <paulbeard@paulbeard.name>
# Location = Hamilton, Waikato, 37.8S 175.3E
$GPGGA,030719.000,3747.0873,S,17518.8938,E,1,08,1.1,59.9,M,23.7,M,,0000*7D
$GPGSA,A,3,17,28,06,01,30,20,26,13,,,,,1.8,1.1,1.5*33
$GPRMC,030719.000,A,3747.0873,S,17518.8938,E,0.69,181.39,311214,,,A*7D
$GPGGA,030720.000,3747.0875,S,17518.8938,E,1,08,1.1,59.8,M,23.7,M,,0000*70
$GPGSA,A,3,17,28,06,01,30,20,26,13,,,,,1.8,1.1,1.5*33
$GPRMC,030720.000,A,3747.0875,S,17518.8938,E,1.15,181.39,311214,,,A*7B
$GPGGA,030721.000,3747.0876,S,17518.8934,E,1,08,1.1,60.1,M,23.7,M,,0000*7D
$GPGSA,A,3,17,28,06,01,30,20,26,13,,,,,1.8,1.1,1.5*33
$GPGSV,3,1,12,17,72,207,32,28,59,095,31,06,35,347,25,01,29,132,23*7B
$GPGSV,3,2,12,30,23,011,29,20,17,069,20,26,09,293,23,13,07,304,10*7C
$GPGSV,3,3,12,11,12,132,04,08,38,008,,02,35,348,,03,14,091,*73
$GPRMC,030721.000,A,3747.0876,S,17518.8934,E,0.89,181.39,311214,,,A*71
$GPGGA,030722.000,3747.0877,S,17518.8933,E,1,08,1.1,60.1,M,23.7,M,,0000*78
$GPGSA,A,3,17,28,06,01,30,20,26,13,,,,,1.8,1.1,1.5*33
$GPRMC,030722.000,A,3747.0877,S,17518.8933,E,0.12,181.39,311214,,,A*76
$GPGGA,030723.000,3747.0878,S,17518.8935,E,1,08,1.1,60.0,M,23.7,M,,0000*71
$GPGSA,A,3,17,28,06,01,30,20,26,13,,,,,1.8,1.1,1.5*33
$GPRMC,030723.000,A,3747.0878,S,17518.8935,E,0.66,181.39,311214,,,A*7D
$GPGGA,030724.000,3747.0878,S,17518.8936,E,1,08,1.1,60.1,M,23.7,M,,0000*74
$GPGSA,A,3,17,28,06,01,30,20,26,13,,,,,1.8,1.1,1.5*33
$GPRMC,030724.000,A,3747.0878,S,17518.8936,E,0.32,181.39,311214,,,A*78
$GPGGA,030725.000,3747.0878,S,17518.8936,E,1,08,1.1,60.2,M,23.7,M,,0000*76
$GPGSA,A,3,17,28,06,01,30,20,26,13,,,,,1.8,1.1,1.5*33
$GPRMC,030725.000,A,3747.0878,S,17518.8936,E,0.00,181.39,311214,,,A*78
$GPGGA,030726.000,3747.0877,S,17518.8936,E,1,08,1.1,60.6,M,23.7,M,,0000*7E
$GPGSA,A,3,17,28,06,01,30,20,26,13,,,,,1.8,1.1,1.5*33
$GPGSV,3,1,12,17,72,207,32,28,59,095,30,06,35,347,25,01,29,132,23*7A
$GPGSV,3,2,12,30,23,011,29,20,17,069,20,26,09,293,23,13,07,304,10*7C
$GPGSV,3,3,12,11,12,132,04,08,38,008,,02,35,348,,03,14,091,*73
$GPRMC,030726.000,A,3747.0877,S,17518.8936,E,0.59,181.39,311214,,,A*78
$GPGGA,030727.000,3747.0877,S,17518.8938,E,1,08,1.1,60.8,M,23.7,M,,0000*7F
$GPGSA,A,3,17,28,06,01,30,20,26,13,,,,,1.8,1.1,1.5*33
$GPRMC,030727.000,A,3747.0877,S,17518.8938,E,0.29,181.39,311214,,,A*70
$GPGGA,030728.000,3747.0878,S,17518.8940,E,1,08,1.1,60.5,M,23.7,M,,0000*7D
$GPGSA,A,3,17,28,06,01,30,20,26,13,,,,,1.8,1.1,1.5*33
$GPRMC,030728.000,A,3747.0878,S,17518.8940,E,0.52,181.39,311214,,,A*73
$GPGGA,030729.000,3747.0879,S,17518.8942,E,1,08,1.1,60.7,M,23.7,M,,0000*7D
$GPGSA,A,3,17,28,06,01,30,20,26,13,,,,,1.8,1.1,1.5*33
$GPRMC,030729.000,A,3747.0879,S,17518.8942,E,0.48,181.39,311214,,,A*7A
$GPGGA,030730.000,3747.0878,S,17518.8942,E,1,07,1.1,60.5,M,23.7,M,,0000*79
$GPGSA,A,3,17,28,06,01,30,20,26,,,,,,1.9,1.1,1.6*33
$GPRMC,030730.000,A,3747.0878,S,17518.8942,E,0.72,181.39,311214,,,A*7A
$GPGGA,030731.000,3747.0877,S,17518.8941,E,1,07,1.1,60.5,M,23.7,M,,0000*74
$GPGSA,A,3,17,28,06,01,30,20,26,,,,,,1.9,1.1,1.6*33
$GPGSV,3,1,12,17,71,207,32,28,59,095,30,06,36,347,25,01,29,132,23*7A
$GPGSV,3,2,12,30,23,011,29,20,17,070,19,26,08,293,24,13,07,305,07*7F
$GPGSV,3,3,12,08,38,008,,02,35,348,,03,15,091,,24,12,219,*7A
$GPRMC,030731.000,A,3747.0877,S,17518.8941,E,0.47,181.39,311214,,,A*71
$GPGGA,030732.000,3747.0876,S,17518.8940,E,1,07,1.1,60.4,M,23.7,M,,0000*76
$GPGSA,A,3,17,28,06,01,30,20,26,,,,,,1.9,1.1,1.6*33
$GPRMC,030732.000,A,3747.0876,S,17518.8940,E,0.43,181.39,311214,,,A*76
$GPGGA,030733.000,3747.0876,S,17518.8941,E,1,07,1.1,60.2,M,23.7,M,,0000*70
$GPGSA,A,3,17,28,06,01,30,20,26,,,,,,1.9,1.1,1.6*33
$GPRMC,030733.000,A,3747.0876,S,17518.8941,E,0.23,181.39,311214,,,A*70
$GPGGA,030734.000,3747.0876,S,17518.8941,E,1,07,1.1,60.0,M,23.7,M,,0000*75
$GPGSA,A,3,17,28,06,01,30,20,26,,,,,,1.9,1.1,1.6*33
$GPRMC,030734.000,A,3747.0876,S,17518.8941,E,0.51,181.39,311214,,,A*72
$GPGGA,030735.000,3747.0876,S,17518.8941,E,1,07,1.1,60.0,M,23.7,M,,0000*74
$GPGSA,A,3,17,28,06,01,30,20,26,,,,,,1.9,1.1,1.6*33
$GPRMC,030735.000,A,3747.0876,S,17518.8941,E,0.00,181.39,311214,,,A*77
$GPGGA,030736.000,3747.0876,S,17518.8941,E,1,07,1.1,60.0,M,23.7,M,,0000*77
$GPGSA,A,3,17,28,06,01,30,20,26,,,,,,1.9,1.1,1.6*33
$GPGSV,3,1,12,17,71,207,32,28,59,095,30,06,36,347,25,01,29,132,23*7A
$GPGSV,3,2,12,30,23,011,29,20,17,070,19,26,08,293,24,13,07,305,04*7C
$GPGSV,3,3,12,08,38,008,,02,35,348,,03,15,091,,24,12,219,*7A
$GPRMC,030736.000,A,3747.0876,S,17518.8941,E,0.00,181.39,311214,,,A*74
$GPGGA,030737.000,3747.0877,S,17518.8942,E,1,07,1.1,60.0,M,23.7,M,,0000*74
$GPGSA,A,3,17,28,06,01,30,20,26,,,,,,1.9,1.1,1.6*33
$GPRMC,030737.000,A,3747.0877,S,17518.8942,E,0.25,181.39,311214,,,A*70
$GPGGA,030738.000,3747.0877,S,17518.8942,E,1,07,1.1,60.0,M,23.7,M,,0000*7B
$GPGSA,A,3,17,28,06,01,30,20,26,,,,,,1.9,1.1,1.6*33
$GPRMC,030738.000,A,3747.0877,S,17518.8942,E,0.00,181.39,311214,,,A*78
$GPGGA,030739.000,3747.0877,S,17518.8942,E,1,07,1.1,60.0,M,23.7,M,,0000*7A
$GPGSA,A,3,17,28,06,01,30,20,26,,,,,,1.9,1.1,1.6*33
$GPRMC,030739.000,A,3747.0877,S,17518.8942,E,0.00,181.39,311214,,,A*79
$GPGGA,030740.000,3747.0877,S,17518.8942,E,1,07,1.1,60.2,M,23.7,M,,0000*76
$GPGSA,A,3,17,28,06,01,30,20,26,,,,,,1.9,1.1,1.6*33
$GPRMC,030740.000,A,3747.0877,S,17518.8942,E,0.26,181.39,311214,,,A*73
$GPGGA,030741.000,3747.0877,S,17518.8941,E,1,07,1.1,60.2,M,23.7,M,,0000*74
$GPGSA,A,3,17,28,06,01,30,20,26,,,,,,1.9,1.1,1.6*33
$GPGSV,3,1,12,17,71,207,31,28,59,095,30,06,36,347,26,01,29,132,23*7A
$GPGSV,3,2,12,30,23,011,29,20,17,070,18,26,08,293,24,13,07,305,04*7D
$GPGSV,3,3,12,08,38,008,,02,35,348,,03,15,091,,24,12,219,*7A
$GPRMC,030741.000,A,3747.0877,S,17518.8941,E,0.00,181.39,311214,,,A*75
$GPGGA,030742.000,3747.0877,S,17518.8941,E,1,07,1.1,60.2,M,23.7,M,,0000*77
$GPGSA,A,3,17,28,06,01,30,20,26,,,,,,1.9,1.1,1.6*33
$GPRMC,030742.000,A,3747.0877,S,17518.8941,E,0.00,181.39,311214,,,A*76
$GPGGA,030743.000,3747.0877,S,17518.8941,E,1,07,1.1,60.2,M,23.7,M,,0000*76
$GPGSA,A,3,17,28,06,01,30,20,26,,,,,,1.9,1.1,1.6*33
$GPRMC,030743.000,A,3747.0877,S,17518.8941,E,0.00,181.39,311214,,,A*77
$GPGGA,030744.000,3747.0874,S,17518.8940,E,1,07,1.1,60.5,M,23.7,M,,0000*74
$GPGSA,A,3,17,28,06,01,30,20,26,,,,,,1.9,1.1,1.6*33
$GPRMC,030744.000,A,3747.0874,S,17518.8940,E,0.67,181.39,311214,,,A*73
$GPGGA,030745.000,3747.0874,S,17518.8940,E,1,07,1.1,60.5,M,23.7,M,,0000*75
$GPGSA,A,3,17,28,06,01,30,20,26,,,,,,1.9,1.1,1.6*33
$GPRMC,030745.000,A,3747.0874,S,17518.8940,E,0.00,181.39,311214,,,A*73
$GPGGA,030746.000,3747.0874,S,17518.8940,E,1,07,1.1,60.6,M,23.7,M,,0000*75
$GPGSA,A,3,17,28,06,01,30,20,26,,,,,,1.9,1.1,1.6*33
$GPGSV,3,1,12,17,71,207,31,28,59,095,30,06,36,347,25,01,29,132,23*79
$GPGSV,3,2,12,30,23,011,29,20,17,070,18,26,08,293,24,13,07,305,05*7C
$GPGSV,3,3,12,08,38,008,,02,35,348,,03,15,091,,24,12,219,*7A
$GPRMC,030746.000,A,3747.0874,S,17518.8940,E,0.46,181.39,311214,,,A*72
$GPGGA,030747.000,3747.0873,S,17518.8940,E,1,07,1.1,60.7,M,23.7,M,,0000*72
$GPGSA,A,3,17,28,06,01,30,20,26,,,,,,1.9,1.1,1.6*33
$GPRMC,030747.000,A,3747.0873,S,17518.8940,E,0.59,181.39,311214,,,A*7A
$GPGGA,030748.000,3747.0872,S,17518.8939,E,1,07,1.1,60.8,M,23.7,M,,0000*7D
$GPGSA,A,3,17,28,06,01,30,20,26,,,,,,1.9,1.1,1.6*33
$GPRMC,030748.000,A,3747.0872,S,17518.8939,E,0.54,181.39,311214,,,A*77
$GPGGA,030749.000,3747.0871,S,17518.8937,E,1,07,1.1,61.3,M,23.7,M,,0000*7B
$GPGSA,A,3,17,28,06,01,30,20,26,,,,,,1.9,1.1,1.6*33
$GPRMC,030749.000,A,3747.0871,S,17518.8937,E,0.20,181.39,311214,,,A*78
$GPGGA,030750.000,3747.0869,S,17518.8937,E,1,07,1.1,61.7,M,23.7,M,,0000*7E
$GPGSA,A,3,17,28,06,01,30,20,26,,,,,,1.9,1.1,1.6*33
$GPRMC,030750.000,A,3747.0869,S,17518.8937,E,0.29,181.39,311214,,,A*70
$GPGGA,030751.000,3747.0867,S,17518.8935,E,1,07,1.1,62.0,M,23.7,M,,0000*77
$GPGSA,A,3,17,28,06,01,30,20,26,,,,,,1.9,1.1,1.6*33
$GPGSV,3,1,12,17,71,207,31,28,59,095,30,06,36,347,25,01,29,132,24*7E
$GPGSV,3,2,12,30,23,011,29,20,17,070,19,26,08,293,24,13,07,305,05*7D
$GPGSV,3,3,12,08,38,008,,02,35,348,,03,15,091,,24,12,219,*7A
$GPRMC,030751.000,A,3747.0867,S,17518.8935,E,0.63,181.39,311214,,,A*73
$GPGGA,030752.000,3747.0866,S,17518.8933,E,1,07,1.1,62.2,M,23.7,M,,0000*71
$GPGSA,A,3,17,28,06,01,30,20,26,,,,,,1.9,1.1,1.6*33
$GPRMC,030752.000,A,3747.0866,S,17518.8933,E,0.87,181.39,311214,,,A*7D
$GPGGA,030753.000,3747.0865,S,17518.8931,E,1,07,1.1,62.4,M,23.7,M,,0000*77
$GPGSA,A,3,17,28,06,01,30,20,26,,,,,,1.9,1.1,1.6*33
$GPRMC,030753.000,A,3747.0865,S,17518.8931,E,0.30,181.39,311214,,,A*71
$GPGGA,030754.000,3747.0864,S,17518.8928,E,1,08,1.1,62.4,M,23.7,M,,0000*76
$GPGSA,A,3,17,28,06,01,30,20,26,13,,,,,1.8,1.1,1.5*33
$GPRMC,030754.000,A,3747.0864,S,17518.8928,E,1.30,234.26,311214,,,A*7D
$GPGGA,030755.000,3747.0863,S,17518.8927,E,1,08,1.1,62.6,M,23.7,M,,0000*7D
$GPGSA,A,3,17,28,06,01,30,20,26,13,,,,,1.8,1.1,1.5*33
$GPRMC,030755.000,A,3747.0863,S,17518.8927,E,0.41,234.26,311214,,,A*73
$GPGGA,030756.000,3747.0864,S,17518.8928,E,1,08,1.1,62.4,M,23.7,M,,0000*74
$GPGSA,A,3,17,28,06,01,30,20,26,13,,,,,1.8,1.1,1.5*33
$GPGSV,3,1,12,17,71,207,31,28,59,095,30,06,36,347,25,01,29,132,24*7E
$GPGSV,3,2,12,30,23,011,29,20,17,070,20,26,08,293,24,13,07,305,09*7B
$GPGSV,3,3,12,08,38,008,,02,35,348,,03,15,091,,24,12,219,*7A
$GPRMC,030756.000,A,3747.0864,S,17518.8928,E,0.47,234.26,311214,,,A*7E
$GPGGA,030757.000,3747.0868,S,17518.8933,E,1,08,1.1,62.0,M,23.7,M,,0000*77
$GPGSA,A,3,17,28,06,01,30,20,26,13,,,,,1.8,1.1,1.5*33
$GPRMC,030757.000,A,3747.0868,S,17518.8933,E,2.87,172.78,311214,,,A*7D
$GPGGA,030758.000,3747.0872,S,17518.8945,E,1,08,1.1,61.8,M,23.7,M,,0000*79
$GPGSA,A,3,17,28,06,01,30,20,26,13,,,,,1.8,1.1,1.5*33
$GPRMC,030758.000,A,3747.0872,S,17518.8945,E,3.45,125.35,311214,,,A*7C
$GPGGA,030759.000,3747.0871,S,17518.8960,E,1,07,1.2,61.6,M,23.7,M,,0000*7E
$GPGSA,A,3,17,28,06,01,30,26,13,,,,,,2.1,1.2,1.7*3A
$GPRMC,030759.000,A,3747.0871,S,17518.8960,E,5.73,102.76,311214,,,A*78
$GPGGA,030800.000,3747.0861,S,17518.8981,E,1,07,1.2,61.5,M,23.7,M,,0000*70
$GPGSA,A,3,17,28,06,01,30,26,13,,,,,,2.1,1.2,1.7*3A
$GPRMC,030800.000,A,3747.0861,S,17518.8981,E,7.48,86.09,311214,,,A*4A
$GPGGA,030801.000,3747.0849,S,17518.9003,E,1,08,1.1,61.6,M,23.7,M,,0000*76
$GPGSA,A,3,17,28,06,01,30,20,26,13,,,,,1.8,1.1,1.5*33
$GPGSV,3,1,12,17,71,207,28,28,59,095,26,06,36,347,28,01,29,132,16*7D
$GPGSV,3,2,12,30,23,011,25,20,17,070,12,26,08,293,24,13,07,305,26*7B
$GPGSV,3,3,12,08,38,008,,02,35,348,,03,15,091,,24,12,219,*7A
$GPRMC,030801.000,A,3747.0849,S,17518.9003,E,8.01,75.33,311214,,,A*44
$GPGGA,030802.000,3747.0835,S,17518.9021,E,1,08,1.1,61.4,M,23.7,M,,0000*7C
$GPGSA,A,3,17,28,06,01,30,20,26,13,,,,,1.8,1.1,1.5*33
$GPRMC,030802.000,A,3747.0835,S,17518.9021,E,7.53,65.51,311214,,,A*41
$GPGGA,030803.000,3747.0820,S,17518.9040,E,1,07,1.2,61.4,M,23.7,M,,0000*72
$GPGSA,A,3,17,28,06,01,30,26,13,,,,,,2.1,1.2,1.7*3A
$GPRMC,030803.000,A,3747.0820,S,17518.9040,E,8.02,58.56,311214,,,A*41
$GPGGA,030804.000,3747.0805,S,17518.9057,E,1,07,1.2,61.3,M,23.7,M,,0000*73
$GPGSA,A,3,17,28,06,01,30,26,13,,,,,,2.1,1.2,1.7*3A
$GPRMC,030804.000,A,3747.0805,S,17518.9057,E,6.63,54.54,311214,,,A*40
$GPGGA,030805.000,3747.0792,S,17518.9070,E,1,07,1.2,61.3,M,23.7,M,,0000*76
$GPGSA,A,3,17,28,06,01,30,26,13,,,,,,2.1,1.2,1.7*3A
$GPRMC,030805.000,A,3747.0792,S,17518.9070,E,6.02,53.14,311214,,,A*41
$GPGGA,030806.000,3747.0776,S,17518.9075,E,1,06,2.2,61.3,M,23.7,M,,0000*78
$GPGSA,A,3,17,28,06,30,26,13,,,,,,,3.9,2.2,3.2*36
$GPGSV,3,1,12,17,71,207,26,28,59,095,27,06,36,347,27,30,23,011,21*71
$GPGSV,3,2,12,26,08,293,19,13,07,305,17,01,29,132,07,20,17,070,04*78
$GPGSV,3,3,12,24,12,219,21,08,38,008,,02,35,348,,03,15,091,*79
$GPRMC,030806.000,A,3747.0776,S,17518.9075,E,6.23,50.79,311214,,,A*46
$GPGGA,030807.000,3747.0760,S,17518.9069,E,1,07,1.2,61.3,M,23.7,M,,0000*71
$GPGSA,A,3,17,28,06,01,30,26,13,,,,,,2.1,1.2,1.7*3A
$GPRMC,030807.000,A,3747.0760,S,17518.9069,E,6.61,43.60,311214,,,A*41
$GPGGA,030808.000,3747.0744,S,17518.9054,E,1,07,1.2,61.1,M,23.7,M,,0000*74
$GPGSA,A,3,17,28,06,01,30,26,13,,,,,,2.1,1.2,1.7*3A
$GPRMC,030808.000,A,3747.0744,S,17518.9054,E,6.80,23.66,311214,,,A*49
$GPGGA,030809.000,3747.0731,S,17518.9039,E,1,08,1.1,60.5,M,23.7,M,,0000*75
$GPGSA,A,3,17,28,06,01,30,20,26,13,,,,,1.8,1.1,1.5*33
$GPRMC,030809.000,A,3747.0731,S,17518.9039,E,6.40,354.34,311214,,,A*79
$GPGGA,030810.000,3747.0721,S,17518.9024,E,1,08,1.1,60.3,M,23.7,M,,0000*76
$GPGSA,A,3,17,28,06,01,30,20,26,13,,,,,1.8,1.1,1.5*33
$GPRMC,030810.000,A,3747.0721,S,17518.9024,E,5.85,340.71,311214,,,A*72
$GPGGA,030811.000,3747.0713,S,17518.9010,E,1,08,1.1,59.8,M,23.7,M,,0000*70
$GPGSA,A,3,17,28,06,01,30,20,26,13,,,,,1.8,1.1,1.5*33
$GPGSV,3,1,12,17,71,207,28,28,59,095,33,06,36,347,25,01,29,132,27*76
$GPGSV,3,2,12,30,23,011,30,20,17,070,24,26,08,293,27,13,07,305,16*7A
$GPGSV,3,3,12,24,12,219,23,08,38,008,,02,35,348,,03,15,091,*7B
$GPRMC,030811.000,A,3747.0713,S,17518.9010,E,5.52,335.07,311214,,,A*7C
$GPGGA,030812.000,3747.0699,S,17518.8995,E,1,08,1.1,59.9,M,23.7,M,,0000*74
$GPGSA,A,3,17,28,06,01,30,20,26,13,,,,,1.8,1.1,1.5*33
$GPRMC,030812.000,A,3747.0699,S,17518.8995,E,6.69,328.59,311214,,,A*75
$GPGGA,030813.000,3747.0688,S,17518.8980,E,1,08,1.1,59.7,M,23.7,M,,0000*7F
$GPGSA,A,3,17,28,06,01,30,20,26,13,,,,,1.8,1.1,1.5*33
$GPRMC,030813.000,A,3747.0688,S,17518.8980,E,5.64,325.45,311214,,,A*7E
$GPGGA,030814.000,3747.0679,S,17518.8964,E,1,08,1.1,59.3,M,23.7,M,,0000*78
$GPGSA,A,3,17,28,06,01,30,20,26,13,,,,,1.8,1.1,1.5*33
$GPRMC,030814.000,A,3747.0679,S,17518.8964,E,6.47,320.88,311214,,,A*7B
$GPGGA,030815.000,3747.0668,S,17518.8949,E,1,08,1.1,59.2,M,23.7,M,,0000*77
$GPGSA,A,3,17,28,06,01,30,20,26,13,,,,,1.8,1.1,1.5*33
$GPRMC,030815.000,A,3747.0668,S,17518.8949,E,6.37,318.35,311214,,,A*7F
$GPGGA,030816.000,3747.0658,S,17518.8934,E,1,08,1.1,59.4,M,23.7,M,,0000*7B
$GPGSA,A,3,17,28,06,01,30,20,26,13,,,,,1.8,1.1,1.5*33
$GPGSV,3,1,12,17,71,207,29,28,59,095,33,06,36,347,26,01,29,132,27*74
$GPGSV,3,2,12,30,23,011,29,20,17,070,25,26,08,293,19,13,07,305,15*7D
$GPGSV,3,3,12,24,12,219,24,08,38,008,,02,35,348,,03,15,091,*7C
$GPRMC,030816.000,A,3747.0658,S,17518.8934,E,5.89,318.33,311214,,,A*75
$GPGGA,030817.000,3747.0646,S,17518.8916,E,1,08,1.1,59.4,M,23.7,M,,0000*75
$GPGSA,A,3,17,28,06,01,30,20,26,13,,,,,1.8,1.1,1.5*33
$GPRMC,030817.000,A,3747.0646,S,17518.8916,E,7.18,315.58,311214,,,A*71
$GPGGA,030818.000,3747.0631,S,17518.8898,E,1,08,1.1,59.4,M,23.7,M,,0000*7D
$GPGSA,A,3,17,28,06,01,30,20,26,13,,,,,1.8,1.1,1.5*33
$GPRMC,030818.000,A,3747.0631,S,17518.8898,E,7.87,315.24,311214,,,A*74
$GPGGA,030819.000,3747.0615,S,17518.8879,E,1,08,1.1,59.4,M,23.7,M,,0000*75
$GPGSA,A,3,17,28,06,01,30,20,26,13,,,,,1.8,1.1,1.5*33
$GPRMC,030819.000,A,3747.0615,S,17518.8879,E,7.37,316.02,311214,,,A*70
$GPGGA,030820.000,3747.0600,S,17518.8859,E,1,08,1.1,59.2,M,23.7,M,,0000*7F
$GPGSA,A,3,17,28,06,01,30,20,26,13,,,,,1.8,1.1,1.5*33
$GPRMC,030820.000,A,3747.0600,S,17518.8859,E,8.01,313.53,311214,,,A*77
$GPGGA,030821.000,3747.0587,S,17518.8838,E,1,08,1.1,59.1,M,23.7,M,,0000*76
$GPGSA,A,3,17,28,06,01,30,20,26,13,,,,,1.8,1.1,1.5*33
$GPGSV,3,1,12,17,71,207,30,28,59,095,33,06,36,347,26,01,29,132,27*7C
$GPGSV,3,2,12,30,23,011,29,20,17,070,25,26,08,293,19,13,07,305,25*7E
$GPGSV,3,3,12,24,12,219,25,08,38,008,,02,35,348,,03,15,091,*7D
$GPRMC,030821.000,A,3747.0587,S,17518.8838,E,6.47,313.61,311214,,,A*70
$GPGGA,030822.000,3747.0574,S,17518.8822,E,1,08,1.1,59.0,M,23.7,M,,0000*73
$GPGSA,A,3,17,28,06,01,30,20,26,13,,,,,1.8,1.1,1.5*33
$GPRMC,030822.000,A,3747.0574,S,17518.8822,E,6.60,314.62,311214,,,A*75
$GPGGA,030823.000,3747.0561,S,17518.8803,E,1,08,1.1,58.6,M,23.7,M,,0000*72
$GPGSA,A,3,17,28,06,01,30,20,26,13,,,,,1.8,1.1,1.5*33
$GPRMC,030823.000,A,3747.0561,S,17518.8803,E,7.85,313.12,311214,,,A*79
$GPGGA,030824.000,3747.0547,S,17518.8785,E,1,08,1.1,58.5,M,23.7,M,,0000*73
$GPGSA,A,3,17,28,06,01,30,20,26,13,,,,,1.8,1.1,1.5*33
$GPRMC,030824.000,A,3747.0547,S,17518.8785,E,7.55,312.96,311214,,,A*7B
$GPGGA,030825.000,3747.0533,S,17518.8765,E,1,08,1.1,58.3,M,23.7,M,,0000*79
$GPGSA,A,3,17,28,06,01,30,20,26,13,,,,,1.8,1.1,1.5*33
$GPRMC,030825.000,A,3747.0533,S,17518.8765,E,7.63,313.74,311214,,,A*7F
$GPGGA,030826.000,3747.0523,S,17518.8744,E,1,09,0.9,58.1,M,23.7,M,,0000*72
$GPGSA,A,3,17,28,06,01,30,20,11,26,13,,,,1.6,0.9,1.2*33
$GPGSV,3,1,12,17,71,207,30,28,59,095,33,06,36,347,22,01,29,132,27*78
$GPGSV,3,2,12,30,23,011,30,20,17,070,25,11,12,131,18,26,08,293,19*7B
$GPGSV,3,3,12,13,07,305,25,24,12,219,25,08,38,008,,02,35,348,*76
$GPRMC,030826.000,A,3747.0523,S,17518.8744,E,7.07,310.62,311214,,,A*78
$GPGGA,030827.000,3747.0513,S,17518.8725,E,1,09,0.9,57.7,M,23.7,M,,0000*7E
$GPGSA,A,3,17,28,06,01,30,20,11,26,13,,,,1.6,0.9,1.2*33
$GPRMC,030827.000,A,3747.0513,S,17518.8725,E,6.35,309.17,311214,,,A*77
$GPGGA,030828.000,3747.0504,S,17518.8704,E,1,09,0.9,57.5,M,23.7,M,,0000*76
$GPGSA,A,3,17,28,06,01,30,20,11,26,13,,,,1.6,0.9,1.2*33
$GPRMC,030828.000,A,3747.0504,S,17518.8704,E,8.02,306.80,311214,,,A*76
$GPGGA,030829.000,3747.0491,S,17518.8678,E,1,09,0.9,57.6,M,23.7,M,,0000*73
$GPGSA,A,3,17,28,06,01,30,20,11,26,13,,,,1.6,0.9,1.2*33
$GPRMC,030829.000,A,3747.0491,S,17518.8678,E,9.06,305.87,311214,,,A*71
$GPGGA,030830.000,3747.0479,S,17518.8651,E,1,09,0.9,57.6,M,23.7,M,,0000*76
$GPGSA,A,3,17,28,06,01,30,20,11,26,13,,,,1.6,0.9,1.2*33
$GPRMC,030830.000,A,3747.0479,S,17518.8651,E,9.65,303.72,311214,,,A*7D
$GPGGA,030831.000,3747.0469,S,17518.8624,E,1,09,0.9,57.3,M,23.7,M,,0000*71
$GPGSA,A,3,17,28,06,01,30,20,11,26,13,,,,1.6,0.9,1.2*33
$GPGSV,3,1,12,17,71,207,26,28,59,095,33,06,36,347,23,01,29,132,27*7E
$GPGSV,3,2,12,30,23,011,20,20,17,070,21,11,12,131,25,26,08,293,24*7E
$GPGSV,3,3,12,13,07,305,21,03,15,091,22,08,38,008,,02,35,348,*75
$GPRMC,030831.000,A,3747.0469,S,17518.8624,E,8.36,302.74,311214,,,A*7F
$GPGGA,030832.000,3747.0460,S,17518.8603,E,1,09,0.9,57.0,M,23.7,M,,0000*7D
$GPGSA,A,3,17,28,06,01,30,20,11,26,13,,,,1.6,0.9,1.2*33
$GPRMC,030832.000,A,3747.0460,S,17518.8603,E,6.55,302.34,311214,,,A*7F
$GPGGA,030833.000,3747.0453,S,17518.8585,E,1,09,0.9,56.9,M,23.7,M,,0000*79
$GPGSA,A,3,17,28,06,01,30,20,11,26,13,,,,1.6,0.9,1.2*33
$GPRMC,030833.000,A,3747.0453,S,17518.8585,E,5.58,301.07,311214,,,A*7E
$GPGGA,030834.000,3747.0447,S,17518.8568,E,1,08,1.1,56.9,M,23.7,M,,0000*70
$GPGSA,A,3,17,28,06,01,30,20,26,13,,,,,1.8,1.1,1.5*33
$GPRMC,030834.000,A,3747.0447,S,17518.8568,E,4.68,300.00,311214,,,A*7B
$GPGGA,030835.000,3747.0446,S,17518.8548,E,1,08,1.1,56.8,M,23.7,M,,0000*73
$GPGSA,A,3,17,28,06,01,30,20,11,13,,,,,1.7,1.1,1.3*3E
$GPRMC,030835.000,A,3747.0446,S,17518.8548,E,6.01,294.71,311214,,,A*7E
$GPGGA,030836.000,3747.0455,S,17518.8525,E,1,09,0.9,56.8,M,23.7,M,,0000*71
$GPGSA,A,3,17,28,06,01,30,20,11,26,13,,,,1.6,0.9,1.2*33
$GPGSV,3,1,12,17,71,207,30,28,59,095,29,06,36,347,30,01,29,132,18*7C
$GPGSV,3,2,12,30,23,011,23,20,17,070,24,11,12,131,19,26,08,293,12*72
$GPGSV,3,3,12,13,07,305,09,03,15,091,18,08,38,008,,02,35,348,*76
$GPRMC,030836.000,A,3747.0455,S,17518.8525,E,8.13,286.67,311214,,,A*7D
$GPGGA,030837.000,3747.0476,S,17518.8504,E,1,08,1.0,56.8,M,23.7,M,,0000*7B
$GPGSA,A,3,17,28,06,01,30,20,11,26,,,,,1.6,1.0,1.3*38
$GPRMC,030837.000,A,3747.0476,S,17518.8504,E,10.93,265.88,311214,,,A*43
$GPGGA,030838.000,3747.0507,S,17518.8484,E,1,09,0.9,56.9,M,23.7,M,,0000*72
$GPGSA,A,3,17,28,06,01,30,20,11,26,13,,,,1.6,0.9,1.2*33
$GPRMC,030838.000,A,3747.0507,S,17518.8484,E,12.88,233.94,311214,,,A*44
$GPGGA,030839.000,3747.0542,S,17518.8461,E,1,09,0.9,57.0,M,23.7,M,,0000*71
$GPGSA,A,3,17,28,06,01,30,20,11,26,13,,,,1.6,0.9,1.2*33
$GPRMC,030839.000,A,3747.0542,S,17518.8461,E,15.91,224.79,311214,,,A*45
$GPGGA,030839.000,3747.0583,S,17518.8434,E,1,09,0.9,57.1,M,23.7,M,,0000*7D
$GPGSA,A,3,17,28,06,01,30,20,11,26,13,,,,1.6,0.9,1.2*33
$GPRMC,030839.000,A,3747.0583,S,17518.8434,E,18.01,214.96,311214,,,A*4E
$GPGGA,030840.000,3747.0629,S,17518.8402,E,1,09,0.9,57.1,M,23.7,M,,0000*75
$GPGSA,A,3,17,28,06,01,30,20,11,26,13,,,,1.6,0.9,1.2*33
$GPGSV,3,1,12,17,71,207,31,28,59,095,29,06,36,347,25,01,29,132,18*79
$GPGSV,3,2,12,30,23,011,22,20,17,070,10,11,12,131,17,26,08,293,15*7D
$GPGSV,3,3,12,13,07,305,09,03,15,091,21,24,12,219,25,08,38,008,*7F
$GPRMC,030840.000,A,3747.0629,S,17518.8402,E,19.63,212.80,311214,,,A*42
$GPGGA,030841.000,3747.0676,S,17518.8368,E,1,09,0.9,57.3,M,23.7,M,,0000*77
$GPGSA,A,3,17,28,06,01,30,20,11,26,13,,,,1.6,0.9,1.2*33
$GPRMC,030841.000,A,3747.0676,S,17518.8368,E,19.28,211.32,311214,,,A*47
$GPGGA,030842.000,3747.0724,S,17518.8330,E,1,09,0.9,57.2,M,23.7,M,,0000*7E
$GPGSA,A,3,17,28,06,01,30,20,11,26,13,,,,1.6,0.9,1.2*33
$GPRMC,030842.000,A,3747.0724,S,17518.8330,E,20.48,211.58,311214,,,A*4F
$GPGGA,030843.000,3747.0775,S,17518.8295,E,1,08,1.1,57.3,M,23.7,M,,0000*7C
$GPGSA,A,3,17,28,06,01,30,11,26,13,,,,,1.7,1.1,1.3*38
$GPRMC,030843.000,A,3747.0775,S,17518.8295,E,21.37,211.10,311214,,,A*41
$GPGGA,030844.000,3747.0830,S,17518.8260,E,1,09,0.9,57.3,M,23.7,M,,0000*77
$GPGSA,A,3,17,28,06,01,30,20,11,26,13,,,,1.5,0.9,1.2*30
$GPRMC,030844.000,A,3747.0830,S,17518.8260,E,20.92,208.49,311214,,,A*48
$GPGGA,030845.000,3747.0882,S,17518.8227,E,1,09,0.9,57.3,M,23.7,M,,0000*7C
$GPGSA,A,3,17,28,06,01,30,20,11,26,13,,,,1.5,0.9,1.2*30
$GPGSV,3,1,12,17,71,207,31,28,59,095,29,06,36,347,25,01,29,132,18*79
$GPGSV,3,2,12,30,23,011,21,20,17,070,09,11,12,131,15,26,08,293,15*74
$GPGSV,3,3,12,13,07,305,08,03,15,091,20,24,12,219,24,08,38,008,*7E
$GPRMC,030845.000,A,3747.0882,S,17518.8227,E,19.70,208.56,311214,,,A*4B
$GPGGA,030846.000,3747.0932,S,17518.8193,E,1,08,1.0,57.2,M,23.7,M,,0000*71
$GPGSA,A,3,17,28,06,01,30,20,11,26,,,,,1.6,1.0,1.3*38
$GPRMC,030846.000,A,3747.0932,S,17518.8193,E,20.82,209.22,311214,,,A*4B
$GPGGA,030847.000,3747.0984,S,17518.8157,E,1,08,1.0,57.2,M,23.7,M,,0000*75
$GPGSA,A,3,17,28,06,01,30,20,11,26,,,,,1.6,1.0,1.3*38
$GPRMC,030847.000,A,3747.0984,S,17518.8157,E,21.52,209.50,311214,,,A*46
$GPGGA,030848.000,3747.1039,S,17518.8121,E,1,08,1.0,57.1,M,23.7,M,,0000*76
$GPGSA,A,3,17,28,06,01,30,20,11,26,,,,,1.6,1.0,1.3*38
$GPRMC,030848.000,A,3747.1039,S,17518.8121,E,22.51,208.17,311214,,,A*44
$GPGGA,030849.000,3747.1093,S,17518.8086,E,1,08,1.0,56.8,M,23.7,M,,0000*73
$GPGSA,A,3,17,28,06,01,30,20,11,26,,,,,1.6,1.0,1.3*38
$GPRMC,030849.000,A,3747.1093,S,17518.8086,E,21.44,207.42,311214,,,A*41
$GPGGA,030850.000,3747.1145,S,17518.8050,E,1,09,0.9,56.8,M,23.7,M,,0000*73
$GPGSA,A,3,17,28,06,01,30,20,11,26,13,,,,1.5,0.9,1.2*30
$GPGSV,3,1,12,17,71,207,31,28,59,095,29,06,36,347,25,01,29,132,19*78
$GPGSV,3,2,12,30,23,011,21,20,17,070,16,11,12,131,16,26,08,293,16*7A
$GPGSV,3,3,12,13,07,305,14,03,15,091,26,24,12,219,24,08,38,008,*75
$GPRMC,030850.000,A,3747.1145,S,17518.8050,E,20.96,209.21,311214,,,A*4D
$GPGGA,030851.000,3747.1196,S,17518.8014,E,1,09,0.9,56.6,M,23.7,M,,0000*72
$GPGSA,A,3,17,28,06,01,30,20,11,26,13,,,,1.5,0.9,1.2*30
$GPRMC,030851.000,A,3747.1196,S,17518.8014,E,21.05,208.96,311214,,,A*44
$GPGGA,030852.000,3747.1248,S,17518.7980,E,1,09,0.9,56.4,M,23.7,M,,0000*78
$GPGSA,A,3,17,28,06,01,30,20,11,26,13,,,,1.5,0.9,1.2*30
$GPRMC,030852.000,A,3747.1248,S,17518.7980,E,21.15,209.94,311214,,,A*4E
$GPGGA,030853.000,3747.1301,S,17518.7946,E,1,09,0.9,56.3,M,23.7,M,,0000*78
$GPGSA,A,3,17,28,06,01,30,20,11,26,13,,,,1.5,0.9,1.2*30
$GPRMC,030853.000,A,3747.1301,S,17518.7946,E,21.84,209.00,311214,,,A*4C
$GPGGA,030854.000,3747.1355,S,17518.7911,E,1,09,0.9,56.5,M,23.7,M,,0000*7A
$GPGSA,A,3,17,28,06,01,30,20,11,26,13,,,,1.5,0.9,1.2*30
$GPRMC,030854.000,A,3747.1355,S,17518.7911,E,20.94,209.40,311214,,,A*4C
$GPGGA,030855.000,3747.1405,S,17518.7879,E,1,09,0.9,56.7,M,23.7,M,,0000*74
$GPGSA,A,3,17,28,06,01,30,20,11,26,13,,,,1.5,0.9,1.2*30
$GPGSV,3,1,12,17,71,207,32,28,59,095,29,06,36,347,24,01,29,132,19*7A
$GPGSV,3,2,12,30,23,011,20,20,17,070,18,11,12,131,16,26,08,293,15*76
$GPGSV,3,3,12,13,07,305,14,03,15,091,23,24,12,219,24,08,38,008,*70
$GPRMC,030855.000,A,3747.1405,S,17518.7879,E,19.67,209.75,311214,,,A*40
$GPGGA,030856.000,3747.1458,S,17518.7845,E,1,09,0.9,56.5,M,23.7,M,,0000*72
$GPGSA,A,3,17,28,06,01,30,20,11,26,13,,,,1.5,0.9,1.2*30
$GPRMC,030856.000,A,3747.1458,S,17518.7845,E,20.27,208.58,311214,,,A*44
$GPGGA,030857.000,3747.1514,S,17518.7812,E,1,09,0.9,56.4,M,23.7,M,,0000*79
$GPGSA,A,3,17,28,06,01,30,20,11,26,13,,,,1.5,0.9,1.2*30
$GPRMC,030857.000,A,3747.1514,S,17518.7812,E,21.82,208.37,311214,,,A*49
$GPGGA,030858.000,3747.1566,S,17518.7779,E,1,09,0.9,56.3,M,23.7,M,,0000*76
$GPGSA,A,3,17,28,06,01,30,20,11,26,13,,,,1.5,0.9,1.2*30
$GPRMC,030858.000,A,3747.1566,S,17518.7779,E,20.76,207.83,311214,,,A*4B
$GPGGA,030859.000,3747.1617,S,17518.7747,E,1,09,0.9,56.3,M,23.7,M,,0000*7F
$GPGSA,A,3,17,28,06,01,30,20,11,26,13,,,,1.5,0.9,1.2*30
$GPRMC,030859.000,A,3747.1617,S,17518.7747,E,21.03,208.06,311214,,,A*43
$GPGGA,030900.000,3747.1669,S,17518.7711,E,1,09,0.9,56.3,M,23.7,M,,0000*78
$GPGSA,A,3,17,28,06,01,30,20,11,26,13,,,,1.5,0.9,1.2*30
$GPGSV,3,1,12,17,71,207,31,28,59,095,27,06,36,347,25,01,29,132,19*76
$GPGSV,3,2,12,30,23,011,20,20,17,070,21,11,12,131,21,26,08,293,15*78
$GPGSV,3,3,12,13,07,305,14,03,15,091,22,24,12,219,24,08,38,008,*71
$GPRMC,030900.000,A,3747.1669,S,17518.7711,E,22.19,207.64,311214,,,A*47
$GPGGA,030901.000,3747.1721,S,17518.7678,E,1,09,0.9,56.4,M,23.7,M,,0000*7D
$GPGSA,A,3,17,28,06,01,30,20,11,26,13,,,,1.5,0.9,1.2*30
$GPRMC,030901.000,A,3747.1721,S,17518.7678,E,20.73,207.34,311214,,,A*4E
$GPGGA,030902.000,3747.1772,S,17518.7643,E,1,09,0.9,56.5,M,23.7,M,,0000*71
$GPGSA,A,3,17,28,06,01,30,20,11,26,13,,,,1.5,0.9,1.2*30
$GPRMC,030902.000,A,3747.1772,S,17518.7643,E,21.04,208.57,311214,,,A*48
$GPGGA,030903.000,3747.1823,S,17518.7608,E,1,08,1.1,56.7,M,23.7,M,,0000*7E
$GPGSA,A,3,17,28,06,01,30,11,26,13,,,,,1.7,1.1,1.3*38
$GPRMC,030903.000,A,3747.1823,S,17518.7608,E,21.56,208.31,311214,,,A*4A
$GPGGA,030904.000,3747.1876,S,17518.7572,E,1,08,1.1,57.0,M,23.7,M,,0000*71
$GPGSA,A,3,17,28,06,01,30,11,26,13,,,,,1.7,1.1,1.3*38
$GPRMC,030904.000,A,3747.1876,S,17518.7572,E,21.50,208.76,311214,,,A*46
$GPGGA,030905.000,3747.1929,S,17518.7536,E,1,08,1.1,57.3,M,23.7,M,,0000*78
$GPGSA,A,3,17,28,06,01,30,11,26,13,,,,,1.7,1.1,1.3*38
$GPGSV,3,1,12,17,71,207,32,28,59,095,28,06,36,347,25,01,29,132,19*7A
$GPGSV,3,2,12,30,23,011,20,11,12,131,18,26,08,293,17,13,07,305,16*74
$GPGSV,3,3,12,03,15,091,24,20,17,070,07,24,12,219,25,08,38,008,*74
$GPRMC,030905.000,A,3747.1929,S,17518.7536,E,22.11,208.65,311214,,,A*48
$GPGGA,030906.000,3747.1982,S,17518.7501,E,1,09,0.9,57.6,M,23.7,M,,0000*73
$GPGSA,A,3,17,28,06,01,30,20,11,26,13,,,,1.5,0.9,1.2*30
$GPRMC,030906.000,A,3747.1982,S,17518.7501,E,22.39,208.10,311214,,,A*46
$GPGGA,030907.000,3747.2035,S,17518.7464,E,1,09,0.9,57.8,M,23.7,M,,0000*78
$GPGSA,A,3,17,28,06,01,30,20,11,26,13,,,,1.5,0.9,1.2*30
$GPRMC,030907.000,A,3747.2035,S,17518.7464,E,22.34,209.07,311214,,,A*49
$GPGGA,030908.000,3747.2087,S,17518.7429,E,1,09,0.9,57.9,M,23.7,M,,0000*76
$GPGSA,A,3,17,28,06,01,30,20,11,26,13,,,,1.5,0.9,1.2*30
$GPRMC,030908.000,A,3747.2087,S,17518.7429,E,21.51,208.70,311214,,,A*47
$GPGGA,030909.000,3747.2140,S,17518.7393,E,1,09,0.9,57.9,M,23.7,M,,0000*7B
$GPGSA,A,3,17,28,06,01,30,20,11,26,13,,,,1.5,0.9,1.2*30
$GPRMC,030909.000,A,3747.2140,S,17518.7393,E,22.92,208.43,311214,,,A*46
$GPGGA,030910.000,3747.2198,S,17518.7355,E,1,09,0.9,57.9,M,23.7,M,,0000*7C
$GPGSA,A,3,17,28,06,01,30,20,11,26,13,,,,1.5,0.9,1.2*30
$GPGSV,3,1,12,17,71,207,32,28,59,095,29,06,36,347,25,01,29,132,20*71
$GPGSV,3,2,12,30,23,011,20,20,17,070,25,11,12,131,08,26,08,293,17*75
$GPGSV,3,3,12,13,07,305,16,24,12,219,25,08,38,008,,02,35,348,*76
$GPRMC,030910.000,A,3747.2198,S,17518.7355,E,23.08,207.90,311214,,,A*42
$GPGGA,030911.000,3747.2254,S,17518.7316,E,1,09,0.9,57.9,M,23.7,M,,0000*79
$GPGSA,A,3,17,28,06,01,30,20,11,26,13,,,,1.5,0.9,1.2*30
$GPRMC,030911.000,A,3747.2254,S,17518.7316,E,23.13,209.69,311214,,,A*45
$GPGGA,030912.000,3747.2310,S,17518.7274,E,1,08,1.1,57.7,M,23.7,M,,0000*78
$GPGSA,A,3,17,28,06,01,30,20,26,13,,,,,1.8,1.1,1.5*33
$GPRMC,030912.000,A,3747.2310,S,17518.7274,E,23.62,210.29,311214,,,A*48
$GPGGA,030913.000,3747.2365,S,17518.7232,E,1,08,1.1,57.8,M,23.7,M,,0000*76
$GPGSA,A,3,17,28,06,01,30,20,26,13,,,,,1.8,1.1,1.5*33
$GPRMC,030913.000,A,3747.2365,S,17518.7232,E,22.88,210.56,311214,,,A*44
$GPGGA,030914.000,3747.2420,S,17518.7195,E,1,07,1.2,58.1,M,23.7,M,,0000*73
$GPGSA,A,3,17,28,06,01,30,26,13,,,,,,2.1,1.2,1.7*3A
$GPRMC,030914.000,A,3747.2420,S,17518.7195,E,23.28,209.02,311214,,,A*49
$GPGGA,030915.000,3747.2478,S,17518.7156,E,1,07,1.2,58.2,M,23.7,M,,0000*73
$GPGSA,A,3,17,28,06,01,30,26,13,,,,,,2.1,1.2,1.7*3A
$GPGSV,3,1,12,17,71,207,33,28,59,095,29,06,36,347,25,01,29,132,19*7A
$GPGSV,3,2,12,30,23,011,21,26,08,293,16,13,07,305,15,11,12,131,07*79
$GPGSV,3,3,12,20,17,070,06,24,12,219,25,08,38,008,,02,35,348,*77
$GPRMC,030915.000,A,3747.2478,S,17518.7156,E,22.93,207.81,311214,,,A*4E
$GPGGA,030916.000,3747.2535,S,17518.7123,E,1,08,1.1,58.3,M,23.7,M,,0000*77
$GPGSA,A,3,17,28,06,01,30,20,26,13,,,,,1.8,1.1,1.5*33
$GPRMC,030916.000,A,3747.2535,S,17518.7123,E,22.36,205.21,311214,,,A*40
$GPGGA,030917.000,3747.2596,S,17518.7092,E,1,09,0.9,57.7,M,23.7,M,,0000*77
$GPGSA,A,3,17,28,06,01,30,20,11,26,13,,,,1.5,0.9,1.2*30
$GPRMC,030917.000,A,3747.2596,S,17518.7092,E,22.69,205.26,311214,,,A*4E
$GPGGA,030918.000,3747.2652,S,17518.7057,E,1,07,1.2,57.7,M,23.7,M,,0000*7E
$GPGSA,A,3,17,28,06,01,30,26,13,,,,,,2.1,1.2,1.7*3A
$GPRMC,030918.000,A,3747.2652,S,17518.7057,E,22.23,205.87,311214,,,A*46
$GPGGA,030919.000,3747.2709,S,17518.7022,E,1,08,1.1,57.9,M,23.7,M,,0000*70
$GPGSA,A,3,17,28,06,01,30,20,26,13,,,,,1.8,1.1,1.5*33
$GPRMC,030919.000,A,3747.2709,S,17518.7022,E,23.63,206.55,311214,,,A*43
$GPGGA,030920.000,3747.2765,S,17518.6987,E,1,08,1.1,58.3,M,23.7,M,,0000*72
$GPGSA,A,3,17,28,06,01,30,20,26,13,,,,,1.8,1.1,1.5*33
$GPGSV,3,1,12,17,71,207,33,28,59,095,29,06,36,347,25,01,29,132,19*7A
$GPGSV,3,2,12,30,23,011,20,20,17,070,15,26,08,293,17,13,07,305,15*79
$GPGSV,3,3,12,11,12,131,05,24,12,219,25,08,38,008,,02,35,348,*77
$GPRMC,030920.000,A,3747.2765,S,17518.6987,E,21.83,206.29,311214,,,A*43
$GPGGA,030921.000,3747.2819,S,17518.6952,E,1,08,1.1,58.5,M,23.7,M,,0000*79
$GPGSA,A,3,17,28,06,01,30,20,26,13,,,,,1.8,1.1,1.5*33
$GPRMC,030921.000,A,3747.2819,S,17518.6952,E,22.63,207.05,311214,,,A*4C
$GPGGA,030922.000,3747.2873,S,17518.6915,E,1,08,1.1,59.0,M,23.7,M,,0000*71
$GPGSA,A,3,17,28,06,01,30,20,26,13,,,,,1.8,1.1,1.5*33
$GPRMC,030922.000,A,3747.2873,S,17518.6915,E,22.77,207.60,311214,,,A*46
$GPGGA,030923.000,3747.2927,S,17518.6879,E,1,08,1.1,59.5,M,23.7,M,,0000*7E
$GPGSA,A,3,17,28,06,01,30,20,26,13,,,,,1.8,1.1,1.5*33
$GPRMC,030923.000,A,3747.2927,S,17518.6879,E,22.28,207.20,311214,,,A*42
$GPGGA,030924.000,3747.2982,S,17518.6844,E,1,08,1.1,60.1,M,23.7,M,,0000*76
$GPGSA,A,3,17,28,06,01,30,20,26,13,,,,,1.8,1.1,1.5*33
$GPRMC,030924.000,A,3747.2982,S,17518.6844,E,22.41,207.15,311214,,,A*4D
$GPGGA,030925.000,3747.3035,S,17518.6808,E,1,08,1.1,60.8,M,23.7,M,,0000*72
$GPGSA,A,3,17,28,06,01,30,20,26,13,,,,,1.8,1.1,1.5*33
$GPGSV,3,1,12,17,71,207,32,28,59,095,29,06,36,347,25,01,29,132,19*7B
$GPGSV,3,2,12,30,23,011,20,20,17,070,22,26,08,293,16,13,07,305,15*7C
$GPGSV,3,3,12,03,15,091,22,11,12,131,04,24,12,219,26,08,38,008,*71
$GPRMC,030925.000,A,3747.3035,S,17518.6808,E,22.16,207.74,311214,,,A*45
$GPGGA,030926.000,3747.3091,S,17518.6771,E,1,08,1.1,61.3,M,23.7,M,,0000*74
$GPGSA,A,3,17,28,06,01,30,20,26,13,,,,,1.8,1.1,1.5*33
$GPRMC,030926.000,A,3747.3091,S,17518.6771,E,22.74,207.47,311214,,,A*4D
$GPGGA,030927.000,3747.3145,S,17518.6733,E,1,09,0.9,61.6,M,23.7,M,,0000*76
$GPGSA,A,3,17,28,06,01,30,20,11,26,13,,,,1.5,0.9,1.2*30
$GPRMC,030927.000,A,3747.3145,S,17518.6733,E,23.19,207.48,311214,,,A*47
$GPGGA,030928.000,3747.3201,S,17518.6693,E,1,09,0.9,61.9,M,23.7,M,,0000*7E
$GPGSA,A,3,17,28,06,01,30,20,11,26,13,,,,1.5,0.9,1.2*30
$GPRMC,030928.000,A,3747.3201,S,17518.6693,E,23.48,208.87,311214,,,A*48
$GPGGA,030929.000,3747.3257,S,17518.6653,E,1,09,0.9,62.3,M,23.7,M,,0000*79
$GPGSA,A,3,17,28,06,01,30,20,11,26,13,,,,1.5,0.9,1.2*30
$GPRMC,030929.000,A,3747.3257,S,17518.6653,E,22.92,208.51,311214,,,A*4B
$GPGGA,030930.000,3747.3313,S,17518.6618,E,1,09,0.9,62.5,M,23.7,M,,0000*79
$GPGSA,A,3,17,28,06,01,30,20,11,26,13,,,,1.5,0.9,1.2*30
$GPGSV,3,1,12,17,71,207,32,28,59,095,30,06,36,347,25,01,29,132,20*79
$GPGSV,3,2,12,30,23,011,20,20,17,070,23,11,12,131,21,26,08,293,17*78
$GPGSV,3,3,12,13,07,305,16,03,15,091,26,24,12,219,25,08,38,008,*76
$GPRMC,030930.000,A,3747.3313,S,17518.6618,E,22.00,207.49,311214,,,A*40
$GPGGA,030931.000,3747.3366,S,17518.6584,E,1,09,0.9,62.5,M,23.7,M,,0000*7C
$GPGSA,A,3,17,28,06,01,30,20,11,26,13,,,,1.5,0.9,1.2*30
$GPRMC,030931.000,A,3747.3366,S,17518.6584,E,21.09,206.84,311214,,,A*4F
$GPGGA,030932.000,3747.3415,S,17518.6550,E,1,09,0.9,62.5,M,23.7,M,,0000*75
$GPGSA,A,3,17,28,06,01,30,20,11,26,13,,,,1.5,0.9,1.2*30
$GPRMC,030932.000,A,3747.3415,S,17518.6550,E,19.36,206.99,311214,,,A*4D
$GPGGA,030933.000,3747.3461,S,17518.6518,E,1,09,0.9,62.2,M,23.7,M,,0000*7C
$GPGSA,A,3,17,28,06,01,30,20,11,26,13,,,,1.5,0.9,1.2*30
$GPRMC,030933.000,A,3747.3461,S,17518.6518,E,18.88,207.83,311214,,,A*4D
$GPGGA,030934.000,3747.3504,S,17518.6491,E,1,09,0.9,61.9,M,23.7,M,,0000*71
$GPGSA,A,3,17,28,06,01,30,20,11,26,13,,,,1.5,0.9,1.2*30
$GPRMC,030934.000,A,3747.3504,S,17518.6491,E,16.04,206.84,311214,,,A*44
$GPGGA,030935.000,3747.3544,S,17518.6473,E,1,08,1.1,61.2,M,23.7,M,,0000*7B
$GPGSA,A,3,17,28,06,01,30,20,26,13,,,,,1.8,1.1,1.5*33
$GPGSV,3,1,12,17,71,207,32,28,59,095,30,06,36,347,25,01,29,132,25*7C
$GPGSV,3,2,12,30,23,011,25,20,17,070,23,26,08,293,17,13,07,305,17*7B
$GPGSV,3,3,12,03,15,091,26,11,12,131,09,24,12,219,25,08,38,008,*7B
$GPRMC,030935.000,A,3747.3544,S,17518.6473,E,14.84,204.06,311214,,,A*4F
$GPGGA,030936.000,3747.3584,S,17518.6466,E,1,09,0.9,60.4,M,23.7,M,,0000*7F
$GPGSA,A,3,17,28,06,01,30,20,11,26,13,,,,1.5,0.9,1.2*30
$GPRMC,030936.000,A,3747.3584,S,17518.6466,E,13.62,200.30,311214,,,A*4A
$GPGGA,030937.000,3747.3622,S,17518.6470,E,1,09,0.9,60.2,M,23.7,M,,0000*70
$GPGSA,A,3,17,28,06,01,30,20,11,26,13,,,,1.5,0.9,1.2*30
$GPRMC,030937.000,A,3747.3622,S,17518.6470,E,13.61,194.34,311214,,,A*4A
$GPGGA,030938.000,3747.3657,S,17518.6492,E,1,09,0.9,59.7,M,23.7,M,,0000*7E
$GPGSA,A,3,17,28,06,01,30,20,11,26,13,,,,1.5,0.9,1.2*30
$GPRMC,030938.000,A,3747.3657,S,17518.6492,E,14.06,188.67,311214,,,A*46
$GPGGA,030939.000,3747.3686,S,17518.6532,E,1,09,0.9,58.9,M,23.7,M,,0000*77
$GPGSA,A,3,17,28,06,01,30,20,11,26,13,,,,1.5,0.9,1.2*30
$GPRMC,030939.000,A,3747.3686,S,17518.6532,E,15.82,175.85,311214,,,A*43
$GPGGA,030940.000,3747.3713,S,17518.6588,E,1,09,0.9,58.4,M,23.7,M,,0000*78
$GPGSA,A,3,17,28,06,01,30,20,11,26,13,,,,1.5,0.9,1.2*30
$GPGSV,3,1,12,17,71,207,29,28,59,095,30,06,36,347,32,01,29,132,26*73
$GPGSV,3,2,12,30,23,011,23,20,17,070,26,11,12,131,23,26,08,293,18*73
$GPGSV,3,3,12,13,07,305,17,03,15,091,21,24,12,219,18,08,38,008,*7E
$GPRMC,030940.000,A,3747.3713,S,17518.6588,E,18.74,136.08,311214,,,A*47
$GPGGA,030941.000,3747.3740,S,17518.6651,E,1,09,0.9,57.9,M,23.7,M,,0000*7A
$GPGSA,A,3,17,28,06,01,30,20,11,26,13,,,,1.5,0.9,1.2*30
$GPRMC,030941.000,A,3747.3740,S,17518.6651,E,19.03,123.41,311214,,,A*4F
$GPGGA,030942.000,3747.3766,S,17518.6712,E,1,09,0.9,58.0,M,23.7,M,,0000*7D
$GPGSA,A,3,17,28,06,01,30,20,11,26,13,,,,1.5,0.9,1.2*30
$GPRMC,030942.000,A,3747.3766,S,17518.6712,E,19.31,118.56,311214,,,A*41
$GPGGA,030943.000,3747.3792,S,17518.6773,E,1,09,0.9,57.9,M,23.7,M,,0000*76
$GPGSA,A,3,17,28,06,01,30,20,11,26,13,,,,1.5,0.9,1.2*30
$GPRMC,030943.000,A,3747.3792,S,17518.6773,E,19.81,117.63,311214,,,A*4E
$GPGGA,030944.000,3747.3819,S,17518.6834,E,1,09,0.9,57.9,M,23.7,M,,0000*71
$GPGSA,A,3,17,28,06,01,30,20,11,26,13,,,,1.5,0.9,1.2*30
$GPRMC,030944.000,A,3747.3819,S,17518.6834,E,19.62,119.28,311214,,,A*45
$GPGGA,030945.000,3747.3845,S,17518.6898,E,1,09,0.9,57.9,M,23.7,M,,0000*7F
$GPGSA,A,3,17,28,06,01,30,20,11,26,13,,,,1.5,0.9,1.2*30
$GPGSV,3,1,12,17,71,207,29,28,59,095,31,06,36,347,32,01,29,132,26*72
$GPGSV,3,2,12,30,23,011,22,20,17,070,23,11,12,131,24,26,08,293,25*7E
$GPGSV,3,3,12,13,07,305,22,03,15,091,22,32,05,124,16,08,38,008,*79
$GPRMC,030945.000,A,3747.3845,S,17518.6898,E,20.38,120.52,311214,,,A*49
$GPGGA,030946.000,3747.3875,S,17518.6959,E,1,09,0.9,57.9,M,23.7,M,,0000*73
$GPGSA,A,3,17,28,06,01,30,20,11,26,13,,,,1.5,0.9,1.2*30
$GPRMC,030946.000,A,3747.3875,S,17518.6959,E,20.68,123.54,311214,,,A*45
$GPGGA,030947.000,3747.3910,S,17518.7019,E,1,09,0.9,57.7,M,23.7,M,,0000*72
$GPGSA,A,3,17,28,06,01,30,20,11,26,13,,,,1.5,0.9,1.2*30
$GPRMC,030947.000,A,3747.3910,S,17518.7019,E,20.65,124.99,311214,,,A*41
$GPGGA,030948.000,3747.3945,S,17518.7076,E,1,09,0.9,57.4,M,23.7,M,,0000*77
$GPGSA,A,3,17,28,06,01,30,20,11,26,13,,,,1.5,0.9,1.2*30
$GPRMC,030948.000,A,3747.3945,S,17518.7076,E,20.57,126.89,311214,,,A*45
$GPGGA,030949.000,3747.3981,S,17518.7132,E,1,09,0.9,57.4,M,23.7,M,,0000*7F
$GPGSA,A,3,17,28,06,01,30,20,11,26,13,,,,1.5,0.9,1.2*30
$GPRMC,030949.000,A,3747.3981,S,17518.7132,E,20.57,128.60,311214,,,A*44
$GPGGA,030950.000,3747.4018,S,17518.7191,E,1,09,0.9,57.1,M,23.7,M,,0000*75
$GPGSA,A,3,17,28,06,01,30,20,11,26,13,,,,1.5,0.9,1.2*30
$GPGSV,3,1,12,17,71,207,29,28,59,095,30,06,36,347,24,01,29,132,26*74
$GPGSV,3,2,12,30,23,011,27,20,17,070,17,11,12,131,24,26,08,293,18*72
$GPGSV,3,3,12,13,07,305,22,03,15,091,14,32,05,124,23,08,38,008,*7A
$GPRMC,030950.000,A,3747.4018,S,17518.7191,E,22.24,128.10,311214,,,A*4A
$GPGGA,030951.000,3747.4056,S,17518.7251,E,1,09,0.9,57.6,M,23.7,M,,0000*76
$GPGSA,A,3,17,28,06,01,30,20,11,26,13,,,,1.5,0.9,1.2*30
$GPRMC,030951.000,A,3747.4056,S,17518.7251,E,20.88,128.69,311214,,,A*44
$GPGGA,030952.000,3747.4091,S,17518.7310,E,1,08,1.1,57.7,M,23.7,M,,0000*73
$GPGSA,A,3,17,28,06,01,20,11,26,13,,,,,1.6,1.1,1.2*39
$GPRMC,030952.000,A,3747.4091,S,17518.7310,E,20.92,128.70,311214,,,A*4B
$GPGGA,030953.000,3747.4127,S,17518.7368,E,1,09,0.9,57.7,M,23.7,M,,0000*79
$GPGSA,A,3,17,28,06,01,30,20,11,26,13,,,,1.5,0.9,1.2*30
$GPRMC,030953.000,A,3747.4127,S,17518.7368,E,20.71,127.84,311214,,,A*40
$GPGGA,030954.000,3747.4163,S,17518.7424,E,1,09,0.9,57.1,M,23.7,M,,0000*77
$GPGSA,A,3,17,28,06,01,30,20,11,26,13,,,,1.5,0.9,1.2*30
$GPRMC,030954.000,A,3747.4163,S,17518.7424,E,20.07,129.08,311214,,,A*43
$GPGGA,030955.000,3747.4195,S,17518.7478,E,1,09,0.9,57.6,M,23.7,M,,0000*71
$GPGSA,A,3,17,28,06,01,30,20,11,26,13,,,,1.5,0.9,1.2*30
$GPGSV,3,1,12,17,71,207,29,28,59,095,30,06,36,347,25,01,29,132,25*76
$GPGSV,3,2,12,30,23,011,27,20,17,070,20,11,12,131,24,26,08,293,17*79
$GPGSV,3,3,12,13,07,305,24,03,15,091,23,32,05,124,19,08,38,008,*71
$GPRMC,030955.000,A,3747.4195,S,17518.7478,E,19.79,128.18,311214,,,A*41
$GPGGA,030956.000,3747.4229,S,17518.7533,E,1,09,0.9,58.0,M,23.7,M,,0000*71
$GPGSA,A,3,17,28,06,01,30,20,11,26,13,,,,1.5,0.9,1.2*30
$GPRMC,030956.000,A,3747.4229,S,17518.7533,E,20.05,129.41,311214,,,A*44
$GPGGA,030957.000,3747.4264,S,17518.7587,E,1,09,0.9,58.2,M,23.7,M,,0000*74
$GPGSA,A,3,17,28,06,01,30,20,11,26,13,,,,1.5,0.9,1.2*30
$GPRMC,030957.000,A,3747.4264,S,17518.7587,E,19.93,127.77,311214,,,A*4D
$GPGGA,030958.000,3747.4302,S,17518.7640,E,1,09,0.9,57.8,M,23.7,M,,0000*77
$GPGSA,A,3,17,28,06,01,30,20,11,26,13,,,,1.5,0.9,1.2*30
$GPRMC,030958.000,A,3747.4302,S,17518.7640,E,19.45,129.26,311214,,,A*4A
$GPGGA,030959.000,3747.4337,S,17518.7693,E,1,09,0.9,57.8,M,23.7,M,,0000*7E
$GPGSA,A,3,17,28,06,01,30,20,11,26,13,,,,1.5,0.9,1.2*30
$GPRMC,030959.000,A,3747.4337,S,17518.7693,E,19.80,130.01,311214,,,A*47
$GPGGA,031000.000,3747.4373,S,17518.7746,E,1,09,0.9,57.8,M,23.7,M,,0000*73
$GPGSA,A,3,17,28,06,01,30,20,11,26,13,,,,1.5,0.9,1.2*30
$GPGSV,3,1,12,17,71,207,28,28,59,095,30,06,36,347,25,01,29,132,25*77
$GPGSV,3,2,12,30,23,011,28,20,17,070,20,11,12,131,24,26,08,293,24*76
$GPGSV,3,3,12,13,07,305,24,03,15,091,15,32,05,124,18,08,38,008,*75
$GPRMC,031000.000,A,3747.4373,S,17518.7746,E,19.67,130.42,311214,,,A*44
$GPGGA,031001.000,3747.4410,S,17518.7798,E,1,09,0.9,57.9,M,23.7,M,,0000*72
$GPGSA,A,3,17,28,06,01,30,20,11,26,13,,,,1.5,0.9,1.2*30
$GPRMC,031001.000,A,3747.4410,S,17518.7798,E,19.56,130.12,311214,,,A*43
$GPGGA,031002.000,3747.4445,S,17518.7853,E,1,09,0.9,57.8,M,23.7,M,,0000*78
$GPGSA,A,3,17,28,06,01,30,20,11,26,13,,,,1.5,0.9,1.2*30
$GPRMC,031002.000,A,3747.4445,S,17518.7853,E,20.20,129.36,311214,,,A*4D
$GPGGA,031003.000,3747.4480,S,17518.7907,E,1,09,0.9,57.6,M,23.7,M,,0000*7E
$GPGSA,A,3,17,28,06,01,30,20,11,26,13,,,,1.5,0.9,1.2*30
$GPRMC,031003.000,A,3747.4480,S,17518.7907,E,20.11,127.94,311214,,,A*41
$GPGGA,031004.000,3747.4517,S,17518.7963,E,1,09,0.9,57.9,M,23.7,M,,0000*7B
$GPGSA,A,3,17,28,06,01,30,20,11,26,13,,,,1.5,0.9,1.2*30
$GPRMC,031004.000,A,3747.4517,S,17518.7963,E,21.14,128.40,311214,,,A*49
$GPGGA,031005.000,3747.4555,S,17518.8019,E,1,09,0.9,57.9,M,23.7,M,,0000*77
$GPGSA,A,3,17,28,06,01,30,20,11,26,13,,,,1.5,0.9,1.2*30
$GPGSV,3,1,12,17,71,207,28,28,59,095,30,06,36,347,25,01,29,132,24*76
$GPGSV,3,2,12,30,23,011,28,20,17,070,21,11,12,131,24,26,08,293,23*70
$GPGSV,3,3,12,13,07,305,24,03,15,091,21,32,05,124,18,08,38,008,*72
$GPRMC,031005.000,A,3747.4555,S,17518.8019,E,20.49,129.60,311214,,,A*4F
$GPGGA,031006.000,3747.4590,S,17518.8070,E,1,09,0.9,58.0,M,23.7,M,,0000*74
$GPGSA,A,3,17,28,06,01,30,20,11,26,13,,,,1.5,0.9,1.2*30
$GPRMC,031006.000,A,3747.4590,S,17518.8070,E,19.13,130.63,311214,,,A*44
$GPGGA,031007.000,3747.4626,S,17518.8121,E,1,09,0.9,58.4,M,23.7,M,,0000*7A
$GPGSA,A,3,17,28,06,01,30,20,11,26,13,,,,1.5,0.9,1.2*30
$GPRMC,031007.000,A,3747.4626,S,17518.8121,E,19.37,131.17,311214,,,A*4A
$GPGGA,031008.000,3747.4663,S,17518.8175,E,1,09,0.9,58.3,M,23.7,M,,0000*72
$GPGSA,A,3,17,28,06,01,30,20,11,26,13,,,,1.5,0.9,1.2*30
$GPRMC,031008.000,A,3747.4663,S,17518.8175,E,20.58,129.86,311214,,,A*47
$GPGGA,031009.000,3747.4699,S,17518.8227,E,1,09,0.9,58.6,M,23.7,M,,0000*77
$GPGSA,A,3,17,28,06,01,30,20,11,26,13,,,,1.5,0.9,1.2*30
$GPRMC,031009.000,A,3747.4699,S,17518.8227,E,19.93,130.06,311214,,,A*4A
$GPGGA,031010.000,3747.4737,S,17518.8279,E,1,09,0.9,58.6,M,23.7,M,,0000*71
$GPGSA,A,3,17,28,06,01,30,20,11,26,13,,,,1.5,0.9,1.2*30
$GPGSV,3,1,12,17,71,207,28,28,59,095,30,06,36,347,25,01,29,132,20*72
$GPGSV,3,2,12,30,23,011,28,20,17,070,21,11,12,131,23,26,08,293,17*70
$GPGSV,3,3,12,13,07,305,24,03,15,091,19,32,05,124,17,08,38,008,*76
$GPRMC,031010.000,A,3747.4737,S,17518.8279,E,19.56,130.47,311214,,,A*40
$GPGGA,031011.000,3747.4772,S,17518.8331,E,1,09,0.9,58.9,M,23.7,M,,0000*73
$GPGSA,A,3,17,28,06,01,30,20,11,26,13,,,,1.5,0.9,1.2*30
$GPRMC,031011.000,A,3747.4772,S,17518.8331,E,20.20,128.44,311214,,,A*4C
$GPGGA,031012.000,3747.4805,S,17518.8386,E,1,09,0.9,58.9,M,23.7,M,,0000*73
$GPGSA,A,3,17,28,06,01,30,20,11,26,13,,,,1.5,0.9,1.2*30
$GPRMC,031012.000,A,3747.4805,S,17518.8386,E,19.42,127.98,311214,,,A*4C
$GPGGA,031013.000,3747.4838,S,17518.8440,E,1,09,0.9,59.3,M,23.7,M,,0000*7A
$GPGSA,A,3,17,28,06,01,30,20,11,26,13,,,,1.5,0.9,1.2*30
$GPRMC,031013.000,A,3747.4838,S,17518.8440,E,19.73,128.41,311214,,,A*47
$GPGGA,031014.000,3747.4872,S,17518.8493,E,1,09,0.9,59.5,M,23.7,M,,0000*7B
$GPGSA,A,3,17,28,06,01,30,20,11,26,13,,,,1.5,0.9,1.2*30
$GPRMC,031014.000,A,3747.4872,S,17518.8493,E,19.46,128.20,311214,,,A*41
$GPGGA,031015.000,3747.4908,S,17518.8543,E,1,08,1.1,59.6,M,23.7,M,,0000*71
$GPGSA,A,3,17,28,06,01,30,11,26,13,,,,,1.7,1.1,1.3*38
$GPGSV,3,1,12,17,71,207,25,28,59,095,31,06,36,347,26,01,29,132,24*79
$GPGSV,3,2,12,30,23,011,24,11,12,131,22,26,08,293,25,13,07,305,19*77
$GPGSV,3,3,12,03,15,091,13,20,17,070,11,32,05,124,16,08,38,008,*7B
$GPRMC,031015.000,A,3747.4908,S,17518.8543,E,19.23,129.91,311214,,,A*48
$GPGGA,031016.000,3747.4952,S,17518.8586,E,1,08,1.1,59.5,M,23.7,M,,0000*77
$GPGSA,A,3,17,28,06,01,30,11,26,13,,,,,1.7,1.1,1.3*38
$GPRMC,031016.000,A,3747.4952,S,17518.8586,E,19.73,133.91,311214,,,A*43
$GPGGA,031017.000,3747.5001,S,17518.8625,E,1,09,0.9,59.1,M,23.7,M,,0000*7E
$GPGSA,A,3,17,28,06,01,30,20,11,26,13,,,,1.5,0.9,1.2*30
$GPRMC,031017.000,A,3747.5001,S,17518.8625,E,20.75,140.73,311214,,,A*42
$GPGGA,031018.000,3747.5053,S,17518.8658,E,1,08,1.1,58.9,M,23.7,M,,0000*7D
$GPGSA,A,3,17,28,06,01,30,20,11,13,,,,,1.7,1.1,1.3*3E
$GPRMC,031018.000,A,3747.5053,S,17518.8658,E,21.11,146.77,311214,,,A*41
$GPGGA,031019.000,3747.5108,S,17518.8684,E,1,09,0.9,58.7,M,23.7,M,,0000*74
$GPGSA,A,3,17,28,06,01,30,20,11,26,13,,,,1.5,0.9,1.2*30
$GPRMC,031019.000,A,3747.5108,S,17518.8684,E,21.40,151.78,311214,,,A*43
$GPGGA,031020.000,3747.5170,S,17518.8696,E,1,07,1.6,58.2,M,23.7,M,,0000*77
$GPGSA,A,3,17,28,06,01,30,20,11,,,,,,2.6,1.6,2.0*39
$GPGSV,3,1,12,17,71,207,28,28,59,095,31,06,36,347,26,01,29,132,25*75
$GPGSV,3,2,12,30,23,011,20,20,17,070,25,11,12,131,10,03,15,091,18*78
$GPGSV,3,3,12,13,07,305,05,26,08,293,06,32,05,124,14,08,38,008,*73
$GPRMC,031020.000,A,3747.5170,S,17518.8696,E,20.84,156.84,311214,,,A*48
$GPGGA,031021.000,3747.5232,S,17518.8697,E,1,07,1.6,58.1,M,23.7,M,,0000*71
$GPGSA,A,3,17,28,06,01,30,20,11,,,,,,2.6,1.6,2.0*39
$GPRMC,031021.000,A,3747.5232,S,17518.8697,E,21.56,172.22,311214,,,A*49
$GPGGA,031022.000,3747.5292,S,17518.8688,E,1,07,1.6,58.1,M,23.7,M,,0000*76
$GPGSA,A,3,17,28,06,01,30,20,11,,,,,,2.6,1.6,2.0*39
$GPRMC,031022.000,A,3747.5292,S,17518.8688,E,20.65,176.51,311214,,,A*4F
$GPGGA,031023.000,3747.5350,S,17518.8674,E,1,07,1.6,58.2,M,23.7,M,,0000*78
$GPGSA,A,3,17,28,06,01,30,20,11,,,,,,2.6,1.6,2.0*39
$GPRMC,031023.000,A,3747.5350,S,17518.8674,E,20.66,181.51,311214,,,A*49
$GPGGA,031024.000,3747.5406,S,17518.8656,E,1,07,1.6,58.0,M,23.7,M,,0000*79
$GPGSA,A,3,17,28,06,01,30,20,11,,,,,,2.6,1.6,2.0*39
$GPRMC,031024.000,A,3747.5406,S,17518.8656,E,20.49,185.96,311214,,,A*48
$GPGGA,031025.000,3747.5459,S,17518.8638,E,1,07,1.6,57.9,M,23.7,M,,0000*7C
$GPGSA,A,3,17,28,06,01,30,20,11,,,,,,2.6,1.6,2.0*39
$GPGSV,3,1,12,17,71,207,28,28,59,095,28,06,36,347,26,01,29,132,26*7E
$GPGSV,3,2,12,30,23,011,20,20,17,070,27,11,12,131,16,03,15,091,20*77
$GPGSV,3,3,12,13,07,305,08,24,12,219,17,26,08,293,04,08,38,008,*73
$GPRMC,031025.000,A,3747.5459,S,17518.8638,E,20.13,190.08,311214,,,A*47
$GPGGA,031026.000,3747.5515,S,17518.8621,E,1,08,1.1,58.0,M,23.7,M,,0000*70
$GPGSA,A,3,17,28,06,01,30,20,11,13,,,,,1.7,1.1,1.3*3E
$GPRMC,031026.000,A,3747.5515,S,17518.8621,E,20.26,193.31,311214,,,A*4A
$GPGGA,031027.000,3747.5569,S,17518.8599,E,1,08,1.1,57.4,M,23.7,M,,0000*71
$GPGSA,A,3,17,28,06,01,30,20,11,13,,,,,1.7,1.1,1.3*3E
$GPRMC,031027.000,A,3747.5569,S,17518.8599,E,20.39,195.87,311214,,,A*45
$GPGGA,031028.000,3747.5621,S,17518.8580,E,1,08,1.1,57.0,M,23.7,M,,0000*7D
$GPGSA,A,3,17,28,06,01,30,20,11,13,,,,,1.7,1.1,1.3*3E
$GPRMC,031028.000,A,3747.5621,S,17518.8580,E,19.49,197.31,311214,,,A*4F
$GPGGA,031029.000,3747.5671,S,17518.8562,E,1,08,1.1,56.4,M,23.7,M,,0000*70
$GPGSA,A,3,17,28,06,01,30,20,11,13,,,,,1.7,1.1,1.3*3E
$GPRMC,031029.000,A,3747.5671,S,17518.8562,E,17.60,196.17,311214,,,A*47
$GPGGA,031030.000,3747.5714,S,17518.8549,E,1,08,1.1,56.0,M,23.7,M,,0000*77
$GPGSA,A,3,17,28,06,01,30,20,11,13,,,,,1.7,1.1,1.3*3E
$GPGSV,3,1,12,17,71,202,28,28,58,092,30,06,37,347,26,01,28,133,26*75
$GPGSV,3,2,12,30,22,011,26,20,18,071,27,11,11,131,13,13,06,306,15*70
$GPGSV,3,3,12,03,15,092,25,24,13,220,18,26,08,294,04,02,37,348,*72
$GPRMC,031030.000,A,3747.5714,S,17518.8549,E,14.96,196.11,311214,,,A*48
$GPGGA,031031.000,3747.5746,S,17518.8541,E,1,08,1.1,55.7,M,23.7,M,,0000*7D
$GPGSA,A,3,17,28,06,01,30,20,11,13,,,,,1.7,1.1,1.3*3E
$GPRMC,031031.000,A,3747.5746,S,17518.8541,E,11.76,195.71,311214,,,A*48
$GPGGA,031032.000,3747.5773,S,17518.8546,E,1,08,1.1,55.8,M,23.7,M,,0000*70
$GPGSA,A,3,17,28,06,01,30,20,11,13,,,,,1.7,1.1,1.3*3E
$GPRMC,031032.000,A,3747.5773,S,17518.8546,E,10.72,192.36,311214,,,A*4B
$GPGGA,031033.000,3747.5800,S,17518.8562,E,1,09,0.9,55.4,M,23.7,M,,0000*78
$GPGSA,A,3,17,28,06,01,30,20,11,26,13,,,,1.5,0.9,1.2*30
$GPRMC,031033.000,A,3747.5800,S,17518.8562,E,11.81,187.16,311214,,,A*4C
$GPGGA,031034.000,3747.5825,S,17518.8588,E,1,09,0.9,55.2,M,23.7,M,,0000*7A
$GPGSA,A,3,17,28,06,01,30,20,11,26,13,,,,1.5,0.9,1.2*30
$GPRMC,031034.000,A,3747.5825,S,17518.8588,E,12.16,182.91,311214,,,A*4F
$GPGGA,031035.000,3747.5847,S,17518.8618,E,1,09,0.9,55.4,M,23.7,M,,0000*73
$GPGSA,A,3,17,28,06,01,30,20,11,26,13,,,,1.5,0.9,1.2*30
$GPGSV,3,1,12,17,71,202,28,28,58,092,31,06,37,347,27,01,28,133,26*75
$GPGSV,3,2,12,30,22,011,26,20,18,071,21,11,11,131,21,26,08,294,24*77
$GPGSV,3,3,12,13,06,306,15,03,15,092,28,24,13,220,18,02,37,348,*7D
$GPRMC,031035.000,A,3747.5847,S,17518.8618,E,11.82,173.38,311214,,,A*43
$GPGGA,031036.000,3747.5868,S,17518.8662,E,1,09,0.9,55.2,M,23.7,M,,0000*76
$GPGSA,A,3,17,28,06,01,30,20,11,26,13,,,,1.5,0.9,1.2*30
$GPRMC,031036.000,A,3747.5868,S,17518.8662,E,14.47,164.04,311214,,,A*45
$GPGGA,031037.000,3747.5884,S,17518.8733,E,1,09,0.9,55.0,M,23.7,M,,0000*72
$GPGSA,A,3,17,28,06,01,30,20,11,26,13,,,,1.5,0.9,1.2*30
$GPRMC,031037.000,A,3747.5884,S,17518.8733,E,19.15,137.49,311214,,,A*46
$GPGGA,031038.000,3747.5899,S,17518.8809,E,1,09,0.9,54.8,M,23.7,M,,0000*7E
$GPGSA,A,3,17,28,06,01,30,20,11,26,13,,,,1.5,0.9,1.2*30
$GPRMC,031038.000,A,3747.5899,S,17518.8809,E,20.36,117.81,311214,,,A*4E
$GPGGA,031039.000,3747.5917,S,17518.8878,E,1,08,1.1,54.4,M,23.7,M,,0000*7A
$GPGSA,A,3,17,28,06,01,30,20,26,13,,,,,1.8,1.1,1.4*32
$GPRMC,031039.000,A,3747.5917,S,17518.8878,E,20.37,110.80,311214,,,A*49
$GPGGA,031040.000,3747.5932,S,17518.8952,E,1,08,1.1,54.2,M,23.7,M,,0000*7C
$GPGSA,A,3,17,28,06,01,30,20,26,13,,,,,1.8,1.1,1.4*32
$GPGSV,3,1,12,17,71,202,29,28,58,092,32,06,37,347,27,01,28,133,26*77
$GPGSV,3,2,12,30,22,011,25,20,18,071,21,26,08,294,24,13,06,306,16*72
$GPGSV,3,3,12,03,15,092,19,11,11,131,08,24,13,220,23,02,37,348,*79
$GPRMC,031040.000,A,3747.5932,S,17518.8952,E,21.35,108.46,311214,,,A*49
$GPGGA,031041.000,3747.5944,S,17518.9030,E,1,08,1.1,54.1,M,23.7,M,,0000*73
$GPGSA,A,3,17,28,06,01,30,20,26,13,,,,,1.8,1.1,1.4*32
$GPRMC,031041.000,A,3747.5944,S,17518.9030,E,22.11,106.38,311214,,,A*47
$GPGGA,031042.000,3747.5957,S,17518.9108,E,1,08,1.1,54.0,M,23.7,M,,0000*79
$GPGSA,A,3,17,28,06,01,30,20,26,13,,,,,1.8,1.1,1.4*32
$GPRMC,031042.000,A,3747.5957,S,17518.9108,E,22.59,105.46,311214,,,A*4A
$GPGGA,031043.000,3747.5971,S,17518.9187,E,1,08,1.1,53.6,M,23.7,M,,0000*7A
$GPGSA,A,3,17,28,06,01,30,20,26,13,,,,,1.8,1.1,1.4*32
$GPRMC,031043.000,A,3747.5971,S,17518.9187,E,22.17,104.92,311214,,,A*4A
$GPGGA,031044.000,3747.5984,S,17518.9265,E,1,08,1.1,53.2,M,23.7,M,,0000*7C
$GPGSA,A,3,17,28,06,01,30,20,26,13,,,,,1.8,1.1,1.4*32
$GPRMC,031044.000,A,3747.5984,S,17518.9265,E,21.70,104.47,311214,,,A*42
$GPGGA,031045.000,3747.6001,S,17518.9341,E,1,08,1.1,53.3,M,23.7,M,,0000*7C
$GPGSA,A,3,17,28,06,01,30,20,26,13,,,,,1.8,1.1,1.4*32
$GPGSV,3,1,12,17,71,201,29,28,58,092,32,06,37,347,27,01,28,133,26*74
$GPGSV,3,2,12,30,22,011,24,20,18,071,21,26,08,294,24,13,06,306,17*72
$GPGSV,3,3,12,03,15,092,20,11,11,131,04,24,13,220,22,02,37,348,*7E
$GPRMC,031045.000,A,3747.6001,S,17518.9341,E,21.76,105.49,311214,,,A*4A
$GPGGA,031046.000,3747.6020,S,17518.9411,E,1,08,1.1,53.3,M,23.7,M,,0000*7E
$GPGSA,A,3,17,28,06,01,30,20,26,13,,,,,1.8,1.1,1.4*32
$GPRMC,031046.000,A,3747.6020,S,17518.9411,E,21.33,107.33,311214,,,A*46
$GPGGA,031047.000,3747.6039,S,17518.9482,E,1,06,2.2,53.6,M,23.7,M,,0000*76
$GPGSA,A,3,17,28,06,30,26,13,,,,,,,3.8,2.2,3.1*34
$GPRMC,031047.000,A,3747.6039,S,17518.9482,E,21.09,108.25,311214,,,A*44
$GPGGA,031048.000,3747.6059,S,17518.9550,E,1,08,1.1,53.5,M,23.7,M,,0000*7C
$GPGSA,A,3,17,28,06,01,30,20,26,13,,,,,1.8,1.1,1.4*32
$GPRMC,031048.000,A,3747.6059,S,17518.9550,E,20.26,109.67,311214,,,A*48
$GPGGA,031049.000,3747.6079,S,17518.9614,E,1,08,1.1,53.6,M,23.7,M,,0000*7F
$GPGSA,A,3,17,28,06,01,30,20,26,13,,,,,1.8,1.1,1.4*32
$GPRMC,031049.000,A,3747.6079,S,17518.9614,E,19.35,109.46,311214,,,A*43
$GPGGA,031050.000,3747.6097,S,17518.9682,E,1,08,1.1,53.9,M,23.7,M,,0000*77
$GPGSA,A,3,17,28,06,01,30,20,26,13,,,,,1.8,1.1,1.4*32
$GPGSV,3,1,12,17,71,201,29,28,58,092,32,06,37,347,28,01,28,133,17*79
$GPGSV,3,2,12,30,22,011,24,20,18,071,20,26,08,294,24,13,06,306,18*7C
$GPGSV,3,3,12,03,15,092,21,11,11,131,04,24,13,220,13,02,37,348,*7D
$GPRMC,031050.000,A,3747.6097,S,17518.9682,E,20.53,109.59,311214,,,A*40
$GPGGA,031051.000,3747.6113,S,17518.9748,E,1,08,1.1,54.4,M,23.7,M,,0000*76
$GPGSA,A,3,17,28,06,01,30,20,26,13,,,,,1.8,1.1,1.4*32
$GPRMC,031051.000,A,3747.6113,S,17518.9748,E,19.11,108.28,311214,,,A*40
$GPGGA,031052.000,3747.6127,S,17518.9812,E,1,08,1.1,54.7,M,23.7,M,,0000*71
$GPGSA,A,3,17,28,06,01,30,20,26,13,,,,,1.8,1.1,1.4*32
$GPRMC,031052.000,A,3747.6127,S,17518.9812,E,18.36,108.72,311214,,,A*4F
$GPGGA,031053.000,3747.6142,S,17518.9876,E,1,08,1.1,55.3,M,23.7,M,,0000*74
$GPGSA,A,3,17,28,06,01,30,20,26,13,,,,,1.8,1.1,1.4*32
$GPRMC,031053.000,A,3747.6142,S,17518.9876,E,18.43,108.01,311214,,,A*49
$GPGGA,031054.000,3747.6156,S,17518.9934,E,1,08,1.1,55.8,M,23.7,M,,0000*7A
$GPGSA,A,3,17,28,06,01,30,20,26,13,,,,,1.8,1.1,1.4*32
$GPRMC,031054.000,A,3747.6156,S,17518.9934,E,16.57,107.47,311214,,,A*4A
$GPGGA,031055.000,3747.6166,S,17518.9987,E,1,08,1.1,55.9,M,23.7,M,,0000*71
$GPGSA,A,3,17,28,06,01,30,20,26,13,,,,,1.8,1.1,1.4*32
$GPGSV,3,1,12,17,71,201,28,28,58,092,31,06,37,347,29,01,28,133,23*7D
$GPGSV,3,2,12,30,22,011,18,20,18,071,18,26,08,294,25,13,06,306,21*73
$GPGSV,3,3,12,03,15,092,24,11,11,131,04,24,13,220,22,02,37,348,*7A
$GPRMC,031055.000,A,3747.6166,S,17518.9987,E,13.53,105.84,311214,,,A*4C
$GPGGA,031056.000,3747.6170,S,17519.0029,E,1,08,1.1,56.0,M,23.7,M,,0000*7A
$GPGSA,A,3,17,28,06,01,30,20,26,13,,,,,1.8,1.1,1.4*32
$GPRMC,031056.000,A,3747.6170,S,17519.0029,E,9.88,103.91,311214,,,A*72
$GPGGA,031057.000,3747.6169,S,17519.0057,E,1,08,1.1,55.9,M,23.7,M,,0000*70
$GPGSA,A,3,17,28,06,01,30,20,26,13,,,,,1.8,1.1,1.4*32
$GPRMC,031057.000,A,3747.6169,S,17519.0057,E,7.41,99.77,311214,,,A*43
$GPGGA,031058.000,3747.6162,S,17519.0085,E,1,08,1.1,55.6,M,23.7,M,,0000*74
$GPGSA,A,3,17,28,06,01,30,20,26,13,,,,,1.8,1.1,1.4*32
$GPRMC,031058.000,A,3747.6162,S,17519.0085,E,8.06,97.19,311214,,,A*42
$GPGGA,031059.000,3747.6144,S,17519.0110,E,1,07,1.1,55.8,M,23.7,M,,0000*7D
$GPGSA,A,3,17,28,06,01,30,20,26,,,,,,1.9,1.1,1.6*33
$GPRMC,031059.000,A,3747.6144,S,17519.0110,E,10.14,88.53,311214,,,A*70
$GPGGA,031100.000,3747.6112,S,17519.0134,E,1,07,1.1,56.2,M,23.7,M,,0000*7C
$GPGSA,A,3,17,28,06,01,30,20,26,,,,,,1.9,1.1,1.6*33
$GPGSV,3,1,12,17,71,201,29,28,58,092,30,06,37,347,29,01,28,133,23*7D
$GPGSV,3,2,12,30,22,011,21,20,18,071,20,26,08,294,16,03,15,092,23*7D
$GPGSV,3,3,12,13,06,306,04,24,13,220,21,02,37,348,,08,36,008,*74
$GPRMC,031100.000,A,3747.6112,S,17519.0134,E,13.54,66.42,311214,,,A*7F
$GPGGA,031101.000,3747.6074,S,17519.0157,E,1,07,1.1,56.2,M,23.7,M,,0000*79
$GPGSA,A,3,17,28,06,01,30,20,26,,,,,,1.9,1.1,1.6*33
$GPRMC,031101.000,A,3747.6074,S,17519.0157,E,15.86,48.85,311214,,,A*74
$GPGGA,031102.000,3747.6025,S,17519.0178,E,1,07,1.1,56.3,M,23.7,M,,0000*72
$GPGSA,A,3,17,28,06,01,30,20,26,,,,,,1.9,1.1,1.6*33
$GPRMC,031102.000,A,3747.6025,S,17519.0178,E,18.68,38.51,311214,,,A*7D
$GPGGA,031103.000,3747.5970,S,17519.0195,E,1,07,1.1,56.4,M,23.7,M,,0000*7D
$GPGSA,A,3,17,28,06,01,30,20,26,,,,,,1.9,1.1,1.6*33
$GPRMC,031103.000,A,3747.5970,S,17519.0195,E,20.30,26.31,311214,,,A*7A
$GPGGA,031104.000,3747.5909,S,17519.0215,E,1,07,1.1,56.7,M,23.7,M,,0000*7C
$GPGSA,A,3,17,28,06,01,30,20,26,,,,,,1.9,1.1,1.6*33
$GPRMC,031104.000,A,3747.5909,S,17519.0215,E,21.93,20.65,311214,,,A*77
$GPGGA,031105.000,3747.5851,S,17519.0235,E,1,07,1.1,56.7,M,23.7,M,,0000*73
$GPGSA,A,3,17,28,06,01,30,20,26,,,,,,1.9,1.1,1.6*33
$GPGSV,3,1,12,17,71,201,26,28,58,092,30,06,37,347,28,01,28,133,24*74
$GPGSV,3,2,12,30,22,011,21,20,18,071,22,26,07,295,14,03,15,092,15*76
$GPGSV,3,3,12,13,06,306,04,24,13,220,14,02,37,348,,08,36,008,*72
$GPRMC,031105.000,A,3747.5851,S,17519.0235,E,21.85,18.72,311214,,,A*72
$GPGGA,031106.000,3747.5794,S,17519.0254,E,1,07,1.1,56.8,M,23.7,M,,0000*7E
$GPGSA,A,3,17,28,06,01,30,20,26,,,,,,1.9,1.1,1.6*33
$GPRMC,031106.000,A,3747.5794,S,17519.0254,E,21.20,16.69,311214,,,A*7B
$GPGGA,031107.000,3747.5734,S,17519.0269,E,1,07,1.1,57.2,M,23.7,M,,0000*70
$GPGSA,A,3,17,28,06,01,30,20,26,,,,,,1.9,1.1,1.6*33
$GPRMC,031107.000,A,3747.5734,S,17519.0269,E,20.50,14.27,311214,,,A*70
$GPGGA,031108.000,3747.5674,S,17519.0288,E,1,07,1.1,57.4,M,23.7,M,,0000*73
$GPGSA,A,3,17,28,06,01,30,20,26,,,,,,1.9,1.1,1.6*33
$GPRMC,031108.000,A,3747.5674,S,17519.0288,E,21.60,15.09,311214,,,A*7A
$GPGGA,031109.000,3747.5615,S,17519.0310,E,1,07,1.1,57.9,M,23.7,M,,0000*78
$GPGSA,A,3,17,28,06,01,30,20,26,,,,,,1.9,1.1,1.6*33
$GPRMC,031109.000,A,3747.5615,S,17519.0310,E,22.46,16.57,311214,,,A*73
$GPGGA,031110.000,3747.5556,S,17519.0334,E,1,07,1.1,58.2,M,23.7,M,,0000*76
$GPGSA,A,3,17,28,06,01,30,20,26,,,,,,1.9,1.1,1.6*33
$GPGSV,3,1,12,17,71,201,25,28,58,092,29,06,37,347,27,01,28,133,24*70
$GPGSV,3,2,12,30,22,011,21,20,18,071,23,26,07,295,15,03,15,092,14*77
$GPGSV,3,3,12,13,06,306,04,24,13,220,13,02,37,348,,08,36,008,*75
$GPRMC,031110.000,A,3747.5556,S,17519.0334,E,21.77,16.87,311214,,,A*75
$GPGGA,031111.000,3747.5497,S,17519.0357,E,1,07,1.1,58.3,M,23.7,M,,0000*7F
$GPGSA,A,3,17,28,06,01,30,20,26,,,,,,1.9,1.1,1.6*33
$GPRMC,031111.000,A,3747.5497,S,17519.0357,E,22.46,16.74,311214,,,A*70
$GPGGA,031112.000,3747.5437,S,17519.0378,E,1,06,1.3,59.1,M,23.7,M,,0000*7B
$GPGSA,A,3,17,28,06,01,30,26,,,,,,,2.2,1.3,1.7*3A
$GPRMC,031112.000,A,3747.5437,S,17519.0378,E,21.85,17.14,311214,,,A*7F
$GPGGA,031113.000,3747.5383,S,17519.0397,E,1,06,1.9,59.5,M,23.7,M,,0000*7D
$GPGSA,A,3,17,28,06,01,30,20,,,,,,,3.4,1.9,2.8*3D
$GPRMC,031113.000,A,3747.5383,S,17519.0397,E,20.05,16.54,311214,,,A*7B
$GPGGA,031114.000,3747.5332,S,17519.0413,E,1,07,1.6,60.0,M,23.7,M,,0000*7A
$GPGSA,A,3,17,28,06,01,30,20,11,,,,,,2.6,1.6,2.0*39
$GPRMC,031114.000,A,3747.5332,S,17519.0413,E,19.65,15.84,311214,,,A*7F
$GPGGA,031115.000,3747.5277,S,17519.0431,E,1,07,1.6,59.6,M,23.7,M,,0000*77
$GPGSA,A,3,17,28,06,01,30,20,11,,,,,,2.6,1.6,2.0*39
$GPGSV,3,1,12,17,71,201,25,28,58,092,29,06,37,347,25,01,28,133,24*72
$GPGSV,3,2,12,30,22,011,21,20,18,071,19,11,10,131,20,03,15,092,14*77
$GPGSV,3,3,12,13,06,306,04,24,13,220,18,26,07,295,04,02,37,348,*72
$GPRMC,031115.000,A,3747.5277,S,17519.0431,E,19.88,14.80,311214,,,A*78
$GPGGA,031116.000,3747.5221,S,17519.0449,E,1,07,1.6,59.5,M,23.7,M,,0000*7B
$GPGSA,A,3,17,28,06,01,30,20,11,,,,,,2.6,1.6,2.0*39
$GPRMC,031116.000,A,3747.5221,S,17519.0449,E,20.33,14.46,311214,,,A*77
$GPGGA,031117.000,3747.5165,S,17519.0465,E,1,08,1.0,60.0,M,23.7,M,,0000*71
$GPGSA,A,3,17,28,06,01,30,20,11,26,,,,,1.6,1.0,1.3*38
$GPRMC,031117.000,A,3747.5165,S,17519.0465,E,20.35,14.23,311214,,,A*7E
$GPGGA,031118.000,3747.5108,S,17519.0484,E,1,08,1.0,60.7,M,23.7,M,,0000*7D
$GPGSA,A,3,17,28,06,01,30,20,11,26,,,,,1.6,1.0,1.3*38
$GPRMC,031118.000,A,3747.5108,S,17519.0484,E,21.57,14.79,311214,,,A*7F
$GPGGA,031119.000,3747.5047,S,17519.0509,E,1,08,1.0,61.0,M,23.7,M,,0000*74
$GPGSA,A,3,17,28,06,01,30,20,11,26,,,,,1.6,1.0,1.3*38
$GPRMC,031119.000,A,3747.5047,S,17519.0509,E,22.86,15.77,311214,,,A*70
$GPGGA,031120.000,3747.4986,S,17519.0531,E,1,08,1.0,61.1,M,23.7,M,,0000*71
$GPGSA,A,3,17,28,06,01,30,20,11,26,,,,,1.6,1.0,1.3*38
$GPGSV,3,1,12,17,71,201,26,28,58,092,28,06,37,347,22,01,28,133,25*76
$GPGSV,3,2,12,30,22,011,21,20,18,071,25,11,10,131,22,26,07,295,15*7A
$GPGSV,3,3,12,03,15,092,14,24,13,220,21,02,37,348,,08,36,008,*78
$GPRMC,031120.000,A,3747.4986,S,17519.0531,E,22.04,15.10,311214,,,A*7F
$GPGGA,031121.000,3747.4928,S,17519.0552,E,1,08,1.0,61.1,M,23.7,M,,0000*71
$GPGSA,A,3,17,28,06,01,30,20,11,26,,,,,1.6,1.0,1.3*38
$GPRMC,031121.000,A,3747.4928,S,17519.0552,E,21.74,15.23,311214,,,A*7B
$GPGGA,031122.000,3747.4868,S,17519.0574,E,1,08,1.0,61.5,M,23.7,M,,0000*77
$GPGSA,A,3,17,28,06,01,30,20,11,26,,,,,1.6,1.0,1.3*38
$GPRMC,031122.000,A,3747.4868,S,17519.0574,E,23.87,16.37,311214,,,A*71
$GPGGA,031123.000,3747.4803,S,17519.0599,E,1,08,1.0,61.8,M,23.7,M,,0000*75
$GPGSA,A,3,17,28,06,01,30,20,11,26,,,,,1.6,1.0,1.3*38
$GPRMC,031123.000,A,3747.4803,S,17519.0599,E,24.10,16.36,311214,,,A*76
$GPGGA,031124.000,3747.4735,S,17519.0624,E,1,08,1.0,62.4,M,23.7,M,,0000*72
$GPGSA,A,3,17,28,06,01,30,20,11,26,,,,,1.6,1.0,1.3*38
$GPRMC,031124.000,A,3747.4735,S,17519.0624,E,24.85,16.20,311214,,,A*75
$GPGGA,031125.000,3747.4671,S,17519.0649,E,1,08,1.0,62.9,M,23.7,M,,0000*74
$GPGSA,A,3,17,28,06,01,30,20,11,26,,,,,1.6,1.0,1.3*38
$GPGSV,3,1,12,17,71,201,25,28,58,092,28,06,37,347,28,01,28,133,25*7F
