$GNGSA,A,3,03,19,27,13,,,,,,,,,2.75,2.56,1.00*10
{"class":"TPV","mode":3,"epv":23.000}
$GNGSA,A,3,88,87,,,,,,,,,,,2.75,2.56,1.00*13
{"class":"TPV","mode":3,"epv":23.000}
$GNRMC,081411.000,A,5541.1955,N,03737.2872,E,0.60,301.29,260514,,,A*74
{"class":"TPV","mode":2,"time":"2014-05-26T08:14:11.000Z","ept":0.005,"lat":55.686591667,"lon":37.621453333,"track":301.2900,"speed":0.309}
$GPZDA,081411.000,26,05,2014,,*5D
$GPGGA,081412.000,5541.1956,N,03737.2877,E,1,5,4.87,66.2,M,14.5,M,,*6A
$GNGSA,A,3,03,19,27,13,,,,,,,,,4.97,4.87,1.00*10
$GNGSA,A,3,88,,,,,,,,,,,,4.97,4.87,1.00*1C
$GNRMC,081412.000,A,5541.1956,N,03737.2877,E,0.52,301.26,260514,,,A*7F
{"class":"TPV","mode":3,"time":"2014-05-26T08:14:12.000Z","ept":0.005,"lat":55.686593333,"lon":37.621461667,"alt":66.200,"epv":23.000,"track":301.2600,"speed":0.268,"climb":0.000}
$GPZDA,081412.000,26,05,2014,,*5E
$GPGGA,081413.000,5541.1959,N,03737.2894,E,1,5,4.87,66.2,M,14.5,M,,*69
$GNGSA,A,3,03,19,27,13,,,,,,,,,4.98,4.87,1.00*1F
$GNGSA,A,3,88,,,,,,,,,,,,4.98,4.87,1.00*13
$GNRMC,081413.000,A,5541.1959,N,03737.2894,E,0.46,308.99,260514,,,A*74
{"class":"TPV","mode":3,"time":"2014-05-26T08:14:13.000Z","ept":0.005,"lat":55.686598333,"lon":37.621490000,"alt":66.200,"epv":23.000,"track":308.9900,"speed":0.237,"climb":0.000,"epc":46.00}
$GPZDA,081413.000,26,05,2014,,*5F
$GPGGA,081414.000,5541.1961,N,03737.2908,E,1,6,2.56,66.2,M,14.5,M,,*68
$GNGSA,A,3,03,19,27,13,,,,,,,,,2.75,2.56,1.00*10
$GNGSA,A,3,88,87,,,,,,,,,,,2.75,2.56,1.00*13
$GNRMC,081414.000,A,5541.1961,N,03737.2908,E,0.41,320.05,260514,,,A*74
{"class":"TPV","mode":3,"time":"2014-05-26T08:14:14.000Z","ept":0.005,"lat":55.686601667,"lon":37.621513333,"alt":66.200,"epv":23.000,"track":320.0500,"speed":0.211,"climb":0.000,"epc":46.00}
$GPZDA,081414.000,26,05,2014,,*58
$GPGGA,081415.000,5541.1965,N,03737.2923,E,1,6,2.56,66.2,M,14.5,M,,*64
$GNGSA,A,3,03,19,27,13,,,,,,,,,2.75,2.56,1.00*10
$GNGSA,A,3,88,87,,,,,,,,,,,2.75,2.56,1.00*13
$GNRMC,081415.000,A,5541.1965,N,03737.2923,E,0.39,332.00,260514,,,A*71
{"class":"TPV","mode":3,"time":"2014-05-26T08:14:15.000Z","ept":0.005,"lat":55.686608333,"lon":37.621538333,"alt":66.200,"epv":23.000,"track":332.0000,"speed":0.201,"climb":0.000,"epc":46.00}
$GPZDA,081415.000,26,05,2014,,*59
$GPGSV,3,1,12,08,88,068,,07,59,081,24,28,41,187,,05,40,260,*7E
$GPGSV,3,2,12,26,36,297,,03,27,059,14,19,24,073,16,27,19,040,23*7C
$GPGSV,3,3,12,10,19,202,,13,15,129,23,21,06,346,,15,04,307,*7E
{"class":"SKY","xdop":10.21,"ydop":2.21,"vdop":1.00,"tdop":4.50,"hdop":2.56,"gdop":19.07,"pdop":2.75,"satellites":[{"PRN":8,"el":88,"az":68,"ss":0,"used":false,"gnssid":0,"svid":8},{"PRN":7,"el":59,"az":81,"ss":24,"used":false,"gnssid":0,"svid":7},{"PRN":28,"el":41,"az":187,"ss":0,"used":false,"gnssid":0,"svid":28},{"PRN":5,"el":40,"az":260,"ss":0,"used":false,"gnssid":0,"svid":5},{"PRN":26,"el":36,"az":297,"ss":0,"used":false,"gnssid":0,"svid":26},{"PRN":3,"el":27,"az":59,"ss":14,"used":true,"gnssid":0,"svid":3},{"PRN":19,"el":24,"az":73,"ss":16,"used":true,"gnssid":0,"svid":19},{"PRN":27,"el":19,"az":40,"ss":23,"used":true,"gnssid":0,"svid":27},{"PRN":10,"el":19,"az":202,"ss":0,"used":false,"gnssid":0,"svid":10},{"PRN":13,"el":15,"az":129,"ss":23,"used":true,"gnssid":0,"svid":13},{"PRN":21,"el":6,"az":346,"ss":0,"used":false,"gnssid":0,"svid":21},{"PRN":15,"el":4,"az":307,"ss":0,"used":false,"gnssid":0,"svid":15}]}
$GLGSV,3,1,10,79,81,336,,69,50,211,,70,47,307,,78,33,058,*6D
$GLGSV,3,2,10,80,30,251,,88,24,068,23,87,19,015,17,68,07,177,*6C
$GLGSV,3,3,10,71,06,339,,81,03,117,27*65
{"class":"SKY","xdop":4.08,"ydop":1.77,"vdop":1.00,"tdop":2.38,"hdop":2.56,"gdop":12.83,"pdop":2.75,"satellites":[{"PRN":8,"el":88,"az":68,"ss":0,"used":false,"gnssid":0,"svid":8},{"PRN":7,"el":59,"az":81,"ss":24,"used":false,"gnssid":0,"svid":7},{"PRN":28,"el":41,"az":187,"ss":0,"used":false,"gnssid":0,"svid":28},{"PRN":5,"el":40,"az":260,"ss":0,"used":false,"gnssid":0,"svid":5},{"PRN":26,"el":36,"az":297,"ss":0,"used":false,"gnssid":0,"svid":26},{"PRN":3,"el":27,"az":59,"ss":14,"used":true,"gnssid":0,"svid":3},{"PRN":19,"el":24,"az":73,"ss":16,"used":true,"gnssid":0,"svid":19},{"PRN":27,"el":19,"az":40,"ss":23,"used":true,"gnssid":0,"svid":27},{"PRN":10,"el":19,"az":202,"ss":0,"used":false,"gnssid":0,"svid":10},{"PRN":13,"el":15,"az":129,"ss":23,"used":true,"gnssid":0,"svid":13},{"PRN":21,"el":6,"az":346,"ss":0,"used":false,"gnssid":0,"svid":21},{"PRN":15,"el":4,"az":307,"ss":0,"used":false,"gnssid":0,"svid":15},{"PRN":79,"el":81,"az":336,"ss":0,"used":false,"gnssid":6,"svid":14},{"PRN":69,"el":50,"az":211,"ss":0,"used":false,"gnssid":6,"svid":4},{"PRN":70,"el":47,"az":307,"ss":0,"used":false,"gnssid":6,"svid":5},{"PRN":78,"el":33,"az":58,"ss":0,"used":false,"gnssid":6,"svid":13},{"PRN":80,"el":30,"az":251,"ss":0,"used":false,"gnssid":6,"svid":15},{"PRN":88,"el":24,"az":68,"ss":23,"used":true,"gnssid":6,"svid":23},{"PRN":87,"el":19,"az":15,"ss":17,"used":true,"gnssid":6,"svid":22},{"PRN":68,"el":7,"az":177,"ss":0,"used":false,"gnssid":6,"svid":3},{"PRN":71,"el":6,"az":339,"ss":0,"used":false,"gnssid":6,"svid":6},{"PRN":81,"el":3,"az":117,"ss":27,"used":false,"gnssid":6,"svid":16}]}
$GPGGA,081416.000,5541.1967,N,03737.2926,E,1,6,2.56,66.2,M,14.5,M,,*60
$GNGSA,A,3,03,19,27,13,,,,,,,,,2.75,2.56,1.00*10
$GNGSA,A,3,88,87,,,,,,,,,,,2.75,2.56,1.00*13
$GNRMC,081416.000,A,5541.1967,N,03737.2926,E,0.39,333.53,260514,,,A*72
{"class":"TPV","mode":3,"time":"2014-05-26T08:14:16.000Z","ept":0.005,"lat":55.686611667,"lon":37.621543333,"alt":66.200,"epx":61.229,"epy":26.480,"epv":23.000,"track":333.5300,"speed":0.201,"climb":0.000,"eps":214.43,"epc":46.00}
$GPZDA,081416.000,26,05,2014,,*5A
$GPGGA,081417.000,5541.1969,N,03737.2928,E,1,6,2.56,66.2,M,14.5,M,,*61
$GNGSA,A,3,03,19,27,13,,,,,,,,,2.75,2.56,1.00*10
$GNGSA,A,3,88,87,,,,,,,,,,,2.75,2.56,1.00*13
$GNRMC,081417.000,A,5541.1969,N,03737.2928,E,0.40,336.16,260514,,,A*79
{"class":"TPV","mode":3,"time":"2014-05-26T08:14:17.000Z","ept":0.005,"lat":55.686615000,"lon":37.621546667,"alt":66.200,"epx":61.229,"epy":26.480,"epv":23.000,"track":336.1600,"speed":0.206,"climb":0.000,"eps":122.46,"epc":46.00}
$GPZDA,081417.000,26,05,2014,,*5B
$GPGGA,081418.000,5541.1971,N,03737.2934,E,1,6,2.56,66.2,M,14.5,M,,*6A
$GNGSA,A,3,03,19,27,13,,,,,,,,,2.75,2.56,1.00*10
$GNGSA,A,3,88,87,,,,,,,,,,,2.75,2.56,1.00*13
$GNRMC,081418.000,A,5541.1971,N,03737.2934,E,0.39,345.22,260514,,,A*7F
{"class":"TPV","mode":3,"time":"2014-05-26T08:14:18.000Z","ept":0.005,"lat":55.686618333,"lon":37.621556667,"alt":66.200,"epx":61.229,"epy":26.480,"epv":23.000,"track":345.2200,"speed":0.201,"climb":0.000,"eps":122.46,"epc":46.00}
$GPZDA,081418.000,26,05,2014,,*54
$GPGGA,081419.000,5541.1973,N,03737.2934,E,1,6,4.54,66.2,M,14.5,M,,*6D
$GNGSA,A,3,03,19,27,13,,,,,,,,,13.09,4.54,12.28*17
$GNGSA,A,3,88,87,,,,,,,,,,,13.09,4.54,12.28*14
$GNRMC,081419.000,A,5541.1973,N,03737.2934,E,0.40,342.94,260514,,,A*78
{"class":"TPV","mode":3,"time":"2014-05-26T08:14:19.000Z","ept":0.005,"lat":55.686621667,"lon":37.621556667,"alt":66.200,"epx":61.229,"epy":26.480,"epv":23.000,"track":342.9400,"speed":0.206,"climb":0.000,"eps":122.46,"epc":46.00}
$GPZDA,081419.000,26,05,2014,,*55
$GPGGA,081420.000,,,,,0,0,,,M,,M,,*47
$GNGSA,A,1,,,,,,,,,,,,,,,*00
$GNGSA,A,1,,,,,,,,,,,,,,,*00
$GNRMC,081420.000,V,,,,,0.00,340.16,260514,,,N*58
$GPZDA,081420.000,26,05,2014,,*5F
$GPGSV,3,1,12,08,88,068,,07,59,081,23,28,41,187,,05,40,260,*79
$GPGSV,3,2,12,26,36,297,,03,27,059,14,19,24,073,14,27,19,040,23*7E
$GPGSV,3,3,12,10,19,202,,13,15,129,23,21,06,345,,15,04,307,*7D
$GLGSV,3,1,10,79,81,336,,69,50,211,,70,47,307,,78,33,058,*6D
$GLGSV,3,2,10,80,30,251,,88,24,068,24,87,19,015,17,68,07,177,*6B
$GLGSV,3,3,10,71,06,339,,81,03,117,26*64
{"class":"SKY","vdop":12.28,"hdop":4.54,"pdop":13.09,"satellites":[{"PRN":8,"el":88,"az":68,"ss":0,"used":false,"gnssid":0,"svid":8},{"PRN":7,"el":59,"az":81,"ss":23,"used":false,"gnssid":0,"svid":7},{"PRN":28,"el":41,"az":187,"ss":0,"used":false,"gnssid":0,"svid":28},{"PRN":5,"el":40,"az":260,"ss":0,"used":false,"gnssid":0,"svid":5},{"PRN":26,"el":36,"az":297,"ss":0,"used":false,"gnssid":0,"svid":26},{"PRN":3,"el":27,"az":59,"ss":14,"used":false,"gnssid":0,"svid":3},{"PRN":19,"el":24,"az":73,"ss":14,"used":false,"gnssid":0,"svid":19},{"PRN":27,"el":19,"az":40,"ss":23,"used":false,"gnssid":0,"svid":27},{"PRN":10,"el":19,"az":202,"ss":0,"used":false,"gnssid":0,"svid":10},{"PRN":13,"el":15,"az":129,"ss":23,"used":false,"gnssid":0,"svid":13},{"PRN":21,"el":6,"az":345,"ss":0,"used":false,"gnssid":0,"svid":21},{"PRN":15,"el":4,"az":307,"ss":0,"used":false,"gnssid":0,"svid":15},{"PRN":79,"el":81,"az":336,"ss":0,"used":false,"gnssid":6,"svid":14},{"PRN":69,"el":50,"az":211,"ss":0,"used":false,"gnssid":6,"svid":4},{"PRN":70,"el":47,"az":307,"ss":0,"used":false,"gnssid":6,"svid":5},{"PRN":78,"el":33,"az":58,"ss":0,"used":false,"gnssid":6,"svid":13},{"PRN":80,"el":30,"az":251,"ss":0,"used":false,"gnssid":6,"svid":15},{"PRN":88,"el":24,"az":68,"ss":24,"used":false,"gnssid":6,"svid":23},{"PRN":87,"el":19,"az":15,"ss":17,"used":false,"gnssid":6,"svid":22},{"PRN":68,"el":7,"az":177,"ss":0,"used":false,"gnssid":6,"svid":3},{"PRN":71,"el":6,"az":339,"ss":0,"used":false,"gnssid":6,"svid":6},{"PRN":81,"el":3,"az":117,"ss":26,"used":false,"gnssid":6,"svid":16}]}
$GPGGA,081421.000,,,,,0,0,,,M,,M,,*46
$GNGSA,A,1,,,,,,,,,,,,,,,*00
$GNGSA,A,1,,,,,,,,,,,,,,,*00
$GNRMC,081421.000,V,,,,,0.00,357.84,260514,,,N*54
$GPZDA,081421.000,26,05,2014,,*5E
$GPGGA,081422.000,,,,,0,0,,,M,,M,,*45
$GNGSA,A,1,,,,,,,,,,,,,,,*00
$GNGSA,A,1,,,,,,,,,,,,,,,*00
$GNRMC,081422.000,V,,,,,0.00,8.60,260514,,,N*54
$GPZDA,081422.000,26,05,2014,,*5D
$GPGGA,081423.000,,,,,0,0,,,M,,M,,*44
$GNGSA,A,1,,,,,,,,,,,,,,,*00
$GNGSA,A,1,,,,,,,,,,,,,,,*00
$GNRMC,081423.000,V,,,,,0.00,8.60,260514,,,N*55
$GPZDA,081423.000,26,05,2014,,*5C
$GPGGA,081424.000,,,,,0,0,,,M,,M,,*43
$GNGSA,A,1,,,,,,,,,,,,,,,*00
$GNGSA,A,1,,,,,,,,,,,,,,,*00
$GNRMC,081424.000,V,,,,,0.00,8.60,260514,,,N*52
$GPZDA,081424.000,26,05,2014,,*5B
$GPGGA,081425.000,,,,,0,0,,,M,,M,,*42
$GNGSA,A,1,,,,,,,,,,,,,,,*00
$GNGSA,A,1,,,,,,,,,,,,,,,*00
$GNRMC,081425.000,V,,,,,0.00,8.60,260514,,,N*53
$GPZDA,081425.000,26,05,2014,,*5A
$GPGSV,3,1,12,08,88,068,,07,59,081,23,28,41,187,,05,40,260,*79
$GPGSV,3,2,12,26,37,297,,03,27,059,14,19,24,073,15,27,19,039,22*71
$GPGSV,3,3,12,10,19,202,,13,15,129,23,21,06,345,,15,04,307,*7D
$GLGSV,3,1,10,79,81,336,,69,50,211,,70,47,307,,78,33,058,*6D
$GLGSV,3,2,10,80,30,251,,88,24,068,25,87,19,015,16,68,07,177,*6B
$GLGSV,3,3,10,71,06,339,,81,03,117,27*65
{"class":"SKY","vdop":12.28,"hdop":4.54,"pdop":13.09,"satellites":[{"PRN":8,"el":88,"az":68,"ss":0,"used":false,"gnssid":0,"svid":8},{"PRN":7,"el":59,"az":81,"ss":23,"used":false,"gnssid":0,"svid":7},{"PRN":28,"el":41,"az":187,"ss":0,"used":false,"gnssid":0,"svid":28},{"PRN":5,"el":40,"az":260,"ss":0,"used":false,"gnssid":0,"svid":5},{"PRN":26,"el":37,"az":297,"ss":0,"used":false,"gnssid":0,"svid":26},{"PRN":3,"el":27,"az":59,"ss":14,"used":false,"gnssid":0,"svid":3},{"PRN":19,"el":24,"az":73,"ss":15,"used":false,"gnssid":0,"svid":19},{"PRN":27,"el":19,"az":39,"ss":22,"used":false,"gnssid":0,"svid":27},{"PRN":10,"el":19,"az":202,"ss":0,"used":false,"gnssid":0,"svid":10},{"PRN":13,"el":15,"az":129,"ss":23,"used":false,"gnssid":0,"svid":13},{"PRN":21,"el":6,"az":345,"ss":0,"used":false,"gnssid":0,"svid":21},{"PRN":15,"el":4,"az":307,"ss":0,"used":false,"gnssid":0,"svid":15},{"PRN":79,"el":81,"az":336,"ss":0,"used":false,"gnssid":6,"svid":14},{"PRN":69,"el":50,"az":211,"ss":0,"used":false,"gnssid":6,"svid":4},{"PRN":70,"el":47,"az":307,"ss":0,"used":false,"gnssid":6,"svid":5},{"PRN":78,"el":33,"az":58,"ss":0,"used":false,"gnssid":6,"svid":13},{"PRN":80,"el":30,"az":251,"ss":0,"used":false,"gnssid":6,"svid":15},{"PRN":88,"el":24,"az":68,"ss":25,"used":false,"gnssid":6,"svid":23},{"PRN":87,"el":19,"az":15,"ss":16,"used":false,"gnssid":6,"svid":22},{"PRN":68,"el":7,"az":177,"ss":0,"used":false,"gnssid":6,"svid":3},{"PRN":71,"el":6,"az":339,"ss":0,"used":false,"gnssid":6,"svid":6},{"PRN":81,"el":3,"az":117,"ss":27,"used":false,"gnssid":6,"svid":16}]}
$GPGGA,081426.000,,,,,0,0,,,M,,M,,*41
$GNGSA,A,1,,,,,,,,,,,,,,,*00
$GNGSA,A,1,,,,,,,,,,,,,,,*00
$GNRMC,081426.000,V,,,,,0.00,8.60,260514,,,N*50
$GPZDA,081426.000,26,05,2014,,*59
$GPGGA,081427.000,,,,,0,0,,,M,,M,,*40
$GNGSA,A,1,,,,,,,,,,,,,,,*00
$GNGSA,A,1,,,,,,,,,,,,,,,*00
$GNRMC,081427.000,V,,,,,0.00,8.60,260514,,,N*51
$GPZDA,081427.000,26,05,2014,,*58
$GPGGA,081428.000,,,,,0,0,,,M,,M,,*4F
$GNGSA,A,1,,,,,,,,,,,,,,,*00
$GNGSA,A,1,,,,,,,,,,,,,,,*00
$GNRMC,081428.000,V,,,,,0.00,8.60,260514,,,N*5E
$GPZDA,081428.000,26,05,2014,,*57
$GPGGA,081429.000,,,,,0,0,,,M,,M,,*4E
$GNGSA,A,1,,,,,,,,,,,,,,,*00
$GNGSA,A,1,,,,,,,,,,,,,,,*00
$GNRMC,081429.000,V,,,,,0.00,8.60,260514,,,N*5F
$GPZDA,081429.000,26,05,2014,,*56
