$GPGGA,030719.000,3747.0873,S,17518.8938,E,1,08,1.1,59.9,M,23.7,M,,0000*7D
{"class":"TPV","mode":3,"lat":-37.784788333,"lon":175.314896667,"alt":59.900}
$GPGSA,A,3,17,28,06,01,30,20,26,13,,,,,1.8,1.1,1.5*33
{"class":"TPV","mode":3,"lat":-37.784788333,"lon":175.314896667,"alt":59.900,"epv":34.500}
$GPRMC,030719.000,A,3747.0873,S,17518.8938,E,0.69,181.39,311214,,,A*7D
{"class":"TPV","mode":3,"time":"2014-12-31T03:07:19.000Z","ept":0.005,"lat":-37.784788333,"lon":175.314896667,"alt":59.900,"epv":34.500,"track":181.3900,"speed":0.355}
$GPGGA,030720.000,3747.0875,S,17518.8938,E,1,08,1.1,59.8,M,23.7,M,,0000*70
$GPGSA,A,3,17,28,06,01,30,20,26,13,,,,,1.8,1.1,1.5*33
$GPRMC,030720.000,A,3747.0875,S,17518.8938,E,1.15,181.39,311214,,,A*7B
{"class":"TPV","mode":3,"time":"2014-12-31T03:07:20.000Z","ept":0.005,"lat":-37.784791667,"lon":175.314896667,"alt":59.800,"epv":34.500,"track":181.3900,"speed":0.592,"climb":-0.100,"epc":69.00}
$GPGGA,030721.000,3747.0876,S,17518.8934,E,1,08,1.1,60.1,M,23.7,M,,0000*7D
$GPGSA,A,3,17,28,06,01,30,20,26,13,,,,,1.8,1.1,1.5*33
$GPGSV,3,1,12,17,72,207,32,28,59,095,31,06,35,347,25,01,29,132,23*7B
$GPGSV,3,2,12,30,23,011,29,20,17,069,20,26,09,293,23,13,07,304,10*7C
$GPGSV,3,3,12,11,12,132,04,08,38,008,,02,35,348,,03,14,091,*73
{"class":"SKY","xdop":0.63,"ydop":0.85,"vdop":1.50,"tdop":0.89,"hdop":1.10,"gdop":2.01,"pdop":1.80,"satellites":[{"PRN":17,"el":72,"az":207,"ss":32,"used":true},{"PRN":28,"el":59,"az":95,"ss":31,"used":true},{"PRN":6,"el":35,"az":347,"ss":25,"used":true},{"PRN":1,"el":29,"az":132,"ss":23,"used":true},{"PRN":30,"el":23,"az":11,"ss":29,"used":true},{"PRN":20,"el":17,"az":69,"ss":20,"used":true},{"PRN":26,"el":9,"az":293,"ss":23,"used":true},{"PRN":13,"el":7,"az":304,"ss":10,"used":true},{"PRN":11,"el":12,"az":132,"ss":4,"used":false},{"PRN":8,"el":38,"az":8,"ss":0,"used":false},{"PRN":2,"el":35,"az":348,"ss":0,"used":false},{"PRN":3,"el":14,"az":91,"ss":0,"used":false}]}
$GPRMC,030721.000,A,3747.0876,S,17518.8934,E,0.89,181.39,311214,,,A*71
{"class":"TPV","mode":3,"time":"2014-12-31T03:07:21.000Z","ept":0.005,"lat":-37.784793333,"lon":175.314890000,"alt":60.100,"epx":9.484,"epy":12.791,"epv":34.500,"track":181.3900,"speed":0.458,"climb":0.300,"epc":69.00}
$GPGGA,030722.000,3747.0877,S,17518.8933,E,1,08,1.1,60.1,M,23.7,M,,0000*78
$GPGSA,A,3,17,28,06,01,30,20,26,13,,,,,1.8,1.1,1.5*33
$GPRMC,030722.000,A,3747.0877,S,17518.8933,E,0.12,181.39,311214,,,A*76
{"class":"TPV","mode":3,"time":"2014-12-31T03:07:22.000Z","ept":0.005,"lat":-37.784795000,"lon":175.314888333,"alt":60.100,"epx":9.484,"epy":12.791,"epv":34.500,"track":181.3900,"speed":0.062,"climb":0.000,"eps":25.58,"epc":69.00}
$GPGGA,030723.000,3747.0878,S,17518.8935,E,1,08,1.1,60.0,M,23.7,M,,0000*71
$GPGSA,A,3,17,28,06,01,30,20,26,13,,,,,1.8,1.1,1.5*33
$GPRMC,030723.000,A,3747.0878,S,17518.8935,E,0.66,181.39,311214,,,A*7D
{"class":"TPV","mode":3,"time":"2014-12-31T03:07:23.000Z","ept":0.005,"lat":-37.784796667,"lon":175.314891667,"alt":60.000,"epx":9.484,"epy":12.791,"epv":34.500,"track":181.3900,"speed":0.340,"climb":-0.100,"eps":25.58,"epc":69.00}
$GPGGA,030724.000,3747.0878,S,17518.8936,E,1,08,1.1,60.1,M,23.7,M,,0000*74
$GPGSA,A,3,17,28,06,01,30,20,26,13,,,,,1.8,1.1,1.5*33
$GPRMC,030724.000,A,3747.0878,S,17518.8936,E,0.32,181.39,311214,,,A*78
{"class":"TPV","mode":3,"time":"2014-12-31T03:07:24.000Z","ept":0.005,"lat":-37.784796667,"lon":175.314893333,"alt":60.100,"epx":9.484,"epy":12.791,"epv":34.500,"track":181.3900,"speed":0.165,"climb":0.100,"eps":25.58,"epc":69.00}
$GPGGA,030725.000,3747.0878,S,17518.8936,E,1,08,1.1,60.2,M,23.7,M,,0000*76
$GPGSA,A,3,17,28,06,01,30,20,26,13,,,,,1.8,1.1,1.5*33
$GPRMC,030725.000,A,3747.0878,S,17518.8936,E,0.00,181.39,311214,,,A*78
{"class":"TPV","mode":3,"time":"2014-12-31T03:07:25.000Z","ept":0.005,"lat":-37.784796667,"lon":175.314893333,"alt":60.200,"epx":9.484,"epy":12.791,"epv":34.500,"track":181.3900,"speed":0.000,"climb":0.100,"eps":25.58,"epc":69.00}
$GPGGA,030726.000,3747.0877,S,17518.8936,E,1,08,1.1,60.6,M,23.7,M,,0000*7E
$GPGSA,A,3,17,28,06,01,30,20,26,13,,,,,1.8,1.1,1.5*33
$GPGSV,3,1,12,17,72,207,32,28,59,095,30,06,35,347,25,01,29,132,23*7A
$GPGSV,3,2,12,30,23,011,29,20,17,069,20,26,09,293,23,13,07,304,10*7C
$GPGSV,3,3,12,11,12,132,04,08,38,008,,02,35,348,,03,14,091,*73
{"class":"SKY","xdop":0.63,"ydop":0.85,"vdop":1.50,"tdop":0.89,"hdop":1.10,"gdop":2.01,"pdop":1.80,"satellites":[{"PRN":17,"el":72,"az":207,"ss":32,"used":true},{"PRN":28,"el":59,"az":95,"ss":30,"used":true},{"PRN":6,"el":35,"az":347,"ss":25,"used":true},{"PRN":1,"el":29,"az":132,"ss":23,"used":true},{"PRN":30,"el":23,"az":11,"ss":29,"used":true},{"PRN":20,"el":17,"az":69,"ss":20,"used":true},{"PRN":26,"el":9,"az":293,"ss":23,"used":true},{"PRN":13,"el":7,"az":304,"ss":10,"used":true},{"PRN":11,"el":12,"az":132,"ss":4,"used":false},{"PRN":8,"el":38,"az":8,"ss":0,"used":false},{"PRN":2,"el":35,"az":348,"ss":0,"used":false},{"PRN":3,"el":14,"az":91,"ss":0,"used":false}]}
$GPRMC,030726.000,A,3747.0877,S,17518.8936,E,0.59,181.39,311214,,,A*78
{"class":"TPV","mode":3,"time":"2014-12-31T03:07:26.000Z","ept":0.005,"lat":-37.784795000,"lon":175.314893333,"alt":60.600,"epx":9.484,"epy":12.791,"epv":34.500,"track":181.3900,"speed":0.304,"climb":0.400,"eps":25.58,"epc":69.00}
$GPGGA,030727.000,3747.0877,S,17518.8938,E,1,08,1.1,60.8,M,23.7,M,,0000*7F
$GPGSA,A,3,17,28,06,01,30,20,26,13,,,,,1.8,1.1,1.5*33
$GPRMC,030727.000,A,3747.0877,S,17518.8938,E,0.29,181.39,311214,,,A*70
{"class":"TPV","mode":3,"time":"2014-12-31T03:07:27.000Z","ept":0.005,"lat":-37.784795000,"lon":175.314896667,"alt":60.800,"epx":9.484,"epy":12.791,"epv":34.500,"track":181.3900,"speed":0.149,"climb":0.200,"eps":25.58,"epc":69.00}
$GPGGA,030728.000,3747.0878,S,17518.8940,E,1,08,1.1,60.5,M,23.7,M,,0000*7D
$GPGSA,A,3,17,28,06,01,30,20,26,13,,,,,1.8,1.1,1.5*33
$GPRMC,030728.000,A,3747.0878,S,17518.8940,E,0.52,181.39,311214,,,A*73
{"class":"TPV","mode":3,"time":"2014-12-31T03:07:28.000Z","ept":0.005,"lat":-37.784796667,"lon":175.314900000,"alt":60.500,"epx":9.484,"epy":12.791,"epv":34.500,"track":181.3900,"speed":0.268,"climb":-0.300,"eps":25.58,"epc":69.00}
$GPGGA,030729.000,3747.0879,S,17518.8942,E,1,08,1.1,60.7,M,23.7,M,,0000*7D
$GPGSA,A,3,17,28,06,01,30,20,26,13,,,,,1.8,1.1,1.5*33
$GPRMC,030729.000,A,3747.0879,S,17518.8942,E,0.48,181.39,311214,,,A*7A
{"class":"TPV","mode":3,"time":"2014-12-31T03:07:29.000Z","ept":0.005,"lat":-37.784798333,"lon":175.314903333,"alt":60.700,"epx":9.484,"epy":12.791,"epv":34.500,"track":181.3900,"speed":0.247,"climb":0.200,"eps":25.58,"epc":69.00}
$GPGGA,030730.000,3747.0878,S,17518.8942,E,1,07,1.1,60.5,M,23.7,M,,0000*79
$GPGSA,A,3,17,28,06,01,30,20,26,,,,,,1.9,1.1,1.6*33
$GPRMC,030730.000,A,3747.0878,S,17518.8942,E,0.72,181.39,311214,,,A*7A
{"class":"TPV","mode":3,"time":"2014-12-31T03:07:30.000Z","ept":0.005,"lat":-37.784796667,"lon":175.314903333,"alt":60.500,"epx":9.484,"epy":12.791,"epv":34.500,"track":181.3900,"speed":0.370,"climb":-0.200,"eps":25.58,"epc":69.00}
$GPGGA,030731.000,3747.0877,S,17518.8941,E,1,07,1.1,60.5,M,23.7,M,,0000*74
$GPGSA,A,3,17,28,06,01,30,20,26,,,,,,1.9,1.1,1.6*33
$GPGSV,3,1,12,17,71,207,32,28,59,095,30,06,36,347,25,01,29,132,23*7A
$GPGSV,3,2,12,30,23,011,29,20,17,070,19,26,08,293,24,13,07,305,07*7F
$GPGSV,3,3,12,08,38,008,,02,35,348,,03,15,091,,24,12,219,*7A
{"class":"SKY","xdop":0.63,"ydop":0.85,"vdop":1.60,"tdop":0.89,"hdop":1.10,"gdop":2.01,"pdop":1.90,"satellites":[{"PRN":17,"el":71,"az":207,"ss":32,"used":true},{"PRN":28,"el":59,"az":95,"ss":30,"used":true},{"PRN":6,"el":36,"az":347,"ss":25,"used":true},{"PRN":1,"el":29,"az":132,"ss":23,"used":true},{"PRN":30,"el":23,"az":11,"ss":29,"used":true},{"PRN":20,"el":17,"az":70,"ss":19,"used":true},{"PRN":26,"el":8,"az":293,"ss":24,"used":true},{"PRN":13,"el":7,"az":305,"ss":7,"used":false},{"PRN":8,"el":38,"az":8,"ss":0,"used":false},{"PRN":2,"el":35,"az":348,"ss":0,"used":false},{"PRN":3,"el":15,"az":91,"ss":0,"used":false},{"PRN":24,"el":12,"az":219,"ss":0,"used":false}]}
$GPRMC,030731.000,A,3747.0877,S,17518.8941,E,0.47,181.39,311214,,,A*71
{"class":"TPV","mode":3,"time":"2014-12-31T03:07:31.000Z","ept":0.005,"lat":-37.784795000,"lon":175.314901667,"alt":60.500,"epx":9.484,"epy":12.791,"epv":36.800,"track":181.3900,"speed":0.242,"climb":0.000,"eps":25.58,"epc":71.30}
$GPGGA,030732.000,3747.0876,S,17518.8940,E,1,07,1.1,60.4,M,23.7,M,,0000*76
$GPGSA,A,3,17,28,06,01,30,20,26,,,,,,1.9,1.1,1.6*33
$GPRMC,030732.000,A,3747.0876,S,17518.8940,E,0.43,181.39,311214,,,A*76
{"class":"TPV","mode":3,"time":"2014-12-31T03:07:32.000Z","ept":0.005,"lat":-37.784793333,"lon":175.314900000,"alt":60.400,"epx":9.484,"epy":12.791,"epv":36.800,"track":181.3900,"speed":0.221,"climb":-0.100,"eps":25.58,"epc":73.60}
$GPGGA,030733.000,3747.0876,S,17518.8941,E,1,07,1.1,60.2,M,23.7,M,,0000*70
$GPGSA,A,3,17,28,06,01,30,20,26,,,,,,1.9,1.1,1.6*33
$GPRMC,030733.000,A,3747.0876,S,17518.8941,E,0.23,181.39,311214,,,A*70
{"class":"TPV","mode":3,"time":"2014-12-31T03:07:33.000Z","ept":0.005,"lat":-37.784793333,"lon":175.314901667,"alt":60.200,"epx":9.484,"epy":12.791,"epv":36.800,"track":181.3900,"speed":0.118,"climb":-0.200,"eps":25.58,"epc":73.60}
$GPGGA,030734.000,3747.0876,S,17518.8941,E,1,07,1.1,60.0,M,23.7,M,,0000*75
$GPGSA,A,3,17,28,06,01,30,20,26,,,,,,1.9,1.1,1.6*33
$GPRMC,030734.000,A,3747.0876,S,17518.8941,E,0.51,181.39,311214,,,A*72
{"class":"TPV","mode":3,"time":"2014-12-31T03:07:34.000Z","ept":0.005,"lat":-37.784793333,"lon":175.314901667,"alt":60.000,"epx":9.484,"epy":12.791,"epv":36.800,"track":181.3900,"speed":0.262,"climb":-0.200,"eps":25.58,"epc":73.60}
$GPGGA,030735.000,3747.0876,S,17518.8941,E,1,07,1.1,60.0,M,23.7,M,,0000*74
$GPGSA,A,3,17,28,06,01,30,20,26,,,,,,1.9,1.1,1.6*33
$GPRMC,030735.000,A,3747.0876,S,17518.8941,E,0.00,181.39,311214,,,A*77
{"class":"TPV","mode":3,"time":"2014-12-31T03:07:35.000Z","ept":0.005,"lat":-37.784793333,"lon":175.314901667,"alt":60.000,"epx":9.484,"epy":12.791,"epv":36.800,"track":181.3900,"speed":0.000,"climb":0.000,"eps":25.58,"epc":73.60}
$GPGGA,030736.000,3747.0876,S,17518.8941,E,1,07,1.1,60.0,M,23.7,M,,0000*77
$GPGSA,A,3,17,28,06,01,30,20,26,,,,,,1.9,1.1,1.6*33
$GPGSV,3,1,12,17,71,207,32,28,59,095,30,06,36,347,25,01,29,132,23*7A
$GPGSV,3,2,12,30,23,011,29,20,17,070,19,26,08,293,24,13,07,305,04*7C
$GPGSV,3,3,12,08,38,008,,02,35,348,,03,15,091,,24,12,219,*7A
{"class":"SKY","xdop":0.63,"ydop":0.85,"vdop":1.60,"tdop":0.89,"hdop":1.10,"gdop":2.01,"pdop":1.90,"satellites":[{"PRN":17,"el":71,"az":207,"ss":32,"used":true},{"PRN":28,"el":59,"az":95,"ss":30,"used":true},{"PRN":6,"el":36,"az":347,"ss":25,"used":true},{"PRN":1,"el":29,"az":132,"ss":23,"used":true},{"PRN":30,"el":23,"az":11,"ss":29,"used":true},{"PRN":20,"el":17,"az":70,"ss":19,"used":true},{"PRN":26,"el":8,"az":293,"ss":24,"used":true},{"PRN":13,"el":7,"az":305,"ss":4,"used":false},{"PRN":8,"el":38,"az":8,"ss":0,"used":false},{"PRN":2,"el":35,"az":348,"ss":0,"used":false},{"PRN":3,"el":15,"az":91,"ss":0,"used":false},{"PRN":24,"el":12,"az":219,"ss":0,"used":false}]}
$GPRMC,030736.000,A,3747.0876,S,17518.8941,E,0.00,181.39,311214,,,A*74
{"class":"TPV","mode":3,"time":"2014-12-31T03:07:36.000Z","ept":0.005,"lat":-37.784793333,"lon":175.314901667,"alt":60.000,"epx":9.484,"epy":12.791,"epv":36.800,"track":181.3900,"speed":0.000,"climb":0.000,"eps":25.58,"epc":73.60}
$GPGGA,030737.000,3747.0877,S,17518.8942,E,1,07,1.1,60.0,M,23.7,M,,0000*74
$GPGSA,A,3,17,28,06,01,30,20,26,,,,,,1.9,1.1,1.6*33
$GPRMC,030737.000,A,3747.0877,S,17518.8942,E,0.25,181.39,311214,,,A*70
{"class":"TPV","mode":3,"time":"2014-12-31T03:07:37.000Z","ept":0.005,"lat":-37.784795000,"lon":175.314903333,"alt":60.000,"epx":9.484,"epy":12.791,"epv":36.800,"track":181.3900,"speed":0.129,"climb":0.000,"eps":25.58,"epc":73.60}
$GPGGA,030738.000,3747.0877,S,17518.8942,E,1,07,1.1,60.0,M,23.7,M,,0000*7B
$GPGSA,A,3,17,28,06,01,30,20,26,,,,,,1.9,1.1,1.6*33
$GPRMC,030738.000,A,3747.0877,S,17518.8942,E,0.00,181.39,311214,,,A*78
{"class":"TPV","mode":3,"time":"2014-12-31T03:07:38.000Z","ept":0.005,"lat":-37.784795000,"lon":175.314903333,"alt":60.000,"epx":9.484,"epy":12.791,"epv":36.800,"track":181.3900,"speed":0.000,"climb":0.000,"eps":25.58,"epc":73.60}
$GPGGA,030739.000,3747.0877,S,17518.8942,E,1,07,1.1,60.0,M,23.7,M,,0000*7A
$GPGSA,A,3,17,28,06,01,30,20,26,,,,,,1.9,1.1,1.6*33
$GPRMC,030739.000,A,3747.0877,S,17518.8942,E,0.00,181.39,311214,,,A*79
{"class":"TPV","mode":3,"time":"2014-12-31T03:07:39.000Z","ept":0.005,"lat":-37.784795000,"lon":175.314903333,"alt":60.000,"epx":9.484,"epy":12.791,"epv":36.800,"track":181.3900,"speed":0.000,"climb":0.000,"eps":25.58,"epc":73.60}
$GPGGA,030740.000,3747.0877,S,17518.8942,E,1,07,1.1,60.2,M,23.7,M,,0000*76
$GPGSA,A,3,17,28,06,01,30,20,26,,,,,,1.9,1.1,1.6*33
$GPRMC,030740.000,A,3747.0877,S,17518.8942,E,0.26,181.39,311214,,,A*73
{"class":"TPV","mode":3,"time":"2014-12-31T03:07:40.000Z","ept":0.005,"lat":-37.784795000,"lon":175.314903333,"alt":60.200,"epx":9.484,"epy":12.791,"epv":36.800,"track":181.3900,"speed":0.134,"climb":0.200,"eps":25.58,"epc":73.60}
$GPGGA,030741.000,3747.0877,S,17518.8941,E,1,07,1.1,60.2,M,23.7,M,,0000*74
$GPGSA,A,3,17,28,06,01,30,20,26,,,,,,1.9,1.1,1.6*33
$GPGSV,3,1,12,17,71,207,31,28,59,095,30,06,36,347,26,01,29,132,23*7A
$GPGSV,3,2,12,30,23,011,29,20,17,070,18,26,08,293,24,13,07,305,04*7D
$GPGSV,3,3,12,08,38,008,,02,35,348,,03,15,091,,24,12,219,*7A
{"class":"SKY","xdop":0.63,"ydop":0.85,"vdop":1.60,"tdop":0.89,"hdop":1.10,"gdop":2.01,"pdop":1.90,"satellites":[{"PRN":17,"el":71,"az":207,"ss":31,"used":true},{"PRN":28,"el":59,"az":95,"ss":30,"used":true},{"PRN":6,"el":36,"az":347,"ss":26,"used":true},{"PRN":1,"el":29,"az":132,"ss":23,"used":true},{"PRN":30,"el":23,"az":11,"ss":29,"used":true},{"PRN":20,"el":17,"az":70,"ss":18,"used":true},{"PRN":26,"el":8,"az":293,"ss":24,"used":true},{"PRN":13,"el":7,"az":305,"ss":4,"used":false},{"PRN":8,"el":38,"az":8,"ss":0,"used":false},{"PRN":2,"el":35,"az":348,"ss":0,"used":false},{"PRN":3,"el":15,"az":91,"ss":0,"used":false},{"PRN":24,"el":12,"az":219,"ss":0,"used":false}]}
$GPRMC,030741.000,A,3747.0877,S,17518.8941,E,0.00,181.39,311214,,,A*75
{"class":"TPV","mode":3,"time":"2014-12-31T03:07:41.000Z","ept":0.005,"lat":-37.784795000,"lon":175.314901667,"alt":60.200,"epx":9.484,"epy":12.791,"epv":36.800,"track":181.3900,"speed":0.000,"climb":0.000,"eps":25.58,"epc":73.60}
$GPGGA,030742.000,3747.0877,S,17518.8941,E,1,07,1.1,60.2,M,23.7,M,,0000*77
$GPGSA,A,3,17,28,06,01,30,20,26,,,,,,1.9,1.1,1.6*33
$GPRMC,030742.000,A,3747.0877,S,17518.8941,E,0.00,181.39,311214,,,A*76
{"class":"TPV","mode":3,"time":"2014-12-31T03:07:42.000Z","ept":0.005,"lat":-37.784795000,"lon":175.314901667,"alt":60.200,"epx":9.484,"epy":12.791,"epv":36.800,"track":181.3900,"speed":0.000,"climb":0.000,"eps":25.58,"epc":73.60}
$GPGGA,030743.000,3747.0877,S,17518.8941,E,1,07,1.1,60.2,M,23.7,M,,0000*76
$GPGSA,A,3,17,28,06,01,30,20,26,,,,,,1.9,1.1,1.6*33
$GPRMC,030743.000,A,3747.0877,S,17518.8941,E,0.00,181.39,311214,,,A*77
{"class":"TPV","mode":3,"time":"2014-12-31T03:07:43.000Z","ept":0.005,"lat":-37.784795000,"lon":175.314901667,"alt":60.200,"epx":9.484,"epy":12.791,"epv":36.800,"track":181.3900,"speed":0.000,"climb":0.000,"eps":25.58,"epc":73.60}
$GPGGA,030744.000,3747.0874,S,17518.8940,E,1,07,1.1,60.5,M,23.7,M,,0000*74
$GPGSA,A,3,17,28,06,01,30,20,26,,,,,,1.9,1.1,1.6*33
$GPRMC,030744.000,A,3747.0874,S,17518.8940,E,0.67,181.39,311214,,,A*73
{"class":"TPV","mode":3,"time":"2014-12-31T03:07:44.000Z","ept":0.005,"lat":-37.784790000,"lon":175.314900000,"alt":60.500,"epx":9.484,"epy":12.791,"epv":36.800,"track":181.3900,"speed":0.345,"climb":0.300,"eps":25.58,"epc":73.60}
$GPGGA,030745.000,3747.0874,S,17518.8940,E,1,07,1.1,60.5,M,23.7,M,,0000*75
$GPGSA,A,3,17,28,06,01,30,20,26,,,,,,1.9,1.1,1.6*33
$GPRMC,030745.000,A,3747.0874,S,17518.8940,E,0.00,181.39,311214,,,A*73
{"class":"TPV","mode":3,"time":"2014-12-31T03:07:45.000Z","ept":0.005,"lat":-37.784790000,"lon":175.314900000,"alt":60.500,"epx":9.484,"epy":12.791,"epv":36.800,"track":181.3900,"speed":0.000,"climb":0.000,"eps":25.58,"epc":73.60}
$GPGGA,030746.000,3747.0874,S,17518.8940,E,1,07,1.1,60.6,M,23.7,M,,0000*75
$GPGSA,A,3,17,28,06,01,30,20,26,,,,,,1.9,1.1,1.6*33
$GPGSV,3,1,12,17,71,207,31,28,59,095,30,06,36,347,25,01,29,132,23*79
$GPGSV,3,2,12,30,23,011,29,20,17,070,18,26,08,293,24,13,07,305,05*7C
$GPGSV,3,3,12,08,38,008,,02,35,348,,03,15,091,,24,12,219,*7A
{"class":"SKY","xdop":0.63,"ydop":0.85,"vdop":1.60,"tdop":0.89,"hdop":1.10,"gdop":2.01,"pdop":1.90,"satellites":[{"PRN":17,"el":71,"az":207,"ss":31,"used":true},{"PRN":28,"el":59,"az":95,"ss":30,"used":true},{"PRN":6,"el":36,"az":347,"ss":25,"used":true},{"PRN":1,"el":29,"az":132,"ss":23,"used":true},{"PRN":30,"el":23,"az":11,"ss":29,"used":true},{"PRN":20,"el":17,"az":70,"ss":18,"used":true},{"PRN":26,"el":8,"az":293,"ss":24,"used":true},{"PRN":13,"el":7,"az":305,"ss":5,"used":false},{"PRN":8,"el":38,"az":8,"ss":0,"used":false},{"PRN":2,"el":35,"az":348,"ss":0,"used":false},{"PRN":3,"el":15,"az":91,"ss":0,"used":false},{"PRN":24,"el":12,"az":219,"ss":0,"used":false}]}
$GPRMC,030746.000,A,3747.0874,S,17518.8940,E,0.46,181.39,311214,,,A*72
{"class":"TPV","mode":3,"time":"2014-12-31T03:07:46.000Z","ept":0.005,"lat":-37.784790000,"lon":175.314900000,"alt":60.600,"epx":9.484,"epy":12.791,"epv":36.800,"track":181.3900,"speed":0.237,"climb":0.100,"eps":25.58,"epc":73.60}
$GPGGA,030747.000,3747.0873,S,17518.8940,E,1,07,1.1,60.7,M,23.7,M,,0000*72
$GPGSA,A,3,17,28,06,01,30,20,26,,,,,,1.9,1.1,1.6*33
$GPRMC,030747.000,A,3747.0873,S,17518.8940,E,0.59,181.39,311214,,,A*7A
{"class":"TPV","mode":3,"time":"2014-12-31T03:07:47.000Z","ept":0.005,"lat":-37.784788333,"lon":175.314900000,"alt":60.700,"epx":9.484,"epy":12.791,"epv":36.800,"track":181.3900,"speed":0.304,"climb":0.100,"eps":25.58,"epc":73.60}
$GPGGA,030748.000,3747.0872,S,17518.8939,E,1,07,1.1,60.8,M,23.7,M,,0000*7D
$GPGSA,A,3,17,28,06,01,30,20,26,,,,,,1.9,1.1,1.6*33
$GPRMC,030748.000,A,3747.0872,S,17518.8939,E,0.54,181.39,311214,,,A*77
{"class":"TPV","mode":3,"time":"2014-12-31T03:07:48.000Z","ept":0.005,"lat":-37.784786667,"lon":175.314898333,"alt":60.800,"epx":9.484,"epy":12.791,"epv":36.800,"track":181.3900,"speed":0.278,"climb":0.100,"eps":25.58,"epc":73.60}
$GPGGA,030749.000,3747.0871,S,17518.8937,E,1,07,1.1,61.3,M,23.7,M,,0000*7B
$GPGSA,A,3,17,28,06,01,30,20,26,,,,,,1.9,1.1,1.6*33
$GPRMC,030749.000,A,3747.0871,S,17518.8937,E,0.20,181.39,311214,,,A*78
{"class":"TPV","mode":3,"time":"2014-12-31T03:07:49.000Z","ept":0.005,"lat":-37.784785000,"lon":175.314895000,"alt":61.300,"epx":9.484,"epy":12.791,"epv":36.800,"track":181.3900,"speed":0.103,"climb":0.500,"eps":25.58,"epc":73.60}
$GPGGA,030750.000,3747.0869,S,17518.8937,E,1,07,1.1,61.7,M,23.7,M,,0000*7E
$GPGSA,A,3,17,28,06,01,30,20,26,,,,,,1.9,1.1,1.6*33
$GPRMC,030750.000,A,3747.0869,S,17518.8937,E,0.29,181.39,311214,,,A*70
{"class":"TPV","mode":3,"time":"2014-12-31T03:07:50.000Z","ept":0.005,"lat":-37.784781667,"lon":175.314895000,"alt":61.700,"epx":9.484,"epy":12.791,"epv":36.800,"track":181.3900,"speed":0.149,"climb":0.400,"eps":25.58,"epc":73.60}
$GPGGA,030751.000,3747.0867,S,17518.8935,E,1,07,1.1,62.0,M,23.7,M,,0000*77
$GPGSA,A,3,17,28,06,01,30,20,26,,,,,,1.9,1.1,1.6*33
$GPGSV,3,1,12,17,71,207,31,28,59,095,30,06,36,347,25,01,29,132,24*7E
$GPGSV,3,2,12,30,23,011,29,20,17,070,19,26,08,293,24,13,07,305,05*7D
$GPGSV,3,3,12,08,38,008,,02,35,348,,03,15,091,,24,12,219,*7A
{"class":"SKY","xdop":0.63,"ydop":0.85,"vdop":1.60,"tdop":0.89,"hdop":1.10,"gdop":2.01,"pdop":1.90,"satellites":[{"PRN":17,"el":71,"az":207,"ss":31,"used":true},{"PRN":28,"el":59,"az":95,"ss":30,"used":true},{"PRN":6,"el":36,"az":347,"ss":25,"used":true},{"PRN":1,"el":29,"az":132,"ss":24,"used":true},{"PRN":30,"el":23,"az":11,"ss":29,"used":true},{"PRN":20,"el":17,"az":70,"ss":19,"used":true},{"PRN":26,"el":8,"az":293,"ss":24,"used":true},{"PRN":13,"el":7,"az":305,"ss":5,"used":false},{"PRN":8,"el":38,"az":8,"ss":0,"used":false},{"PRN":2,"el":35,"az":348,"ss":0,"used":false},{"PRN":3,"el":15,"az":91,"ss":0,"used":false},{"PRN":24,"el":12,"az":219,"ss":0,"used":false}]}
$GPRMC,030751.000,A,3747.0867,S,17518.8935,E,0.63,181.39,311214,,,A*73
{"class":"TPV","mode":3,"time":"2014-12-31T03:07:51.000Z","ept":0.005,"lat":-37.784778333,"lon":175.314891667,"alt":62.000,"epx":9.484,"epy":12.791,"epv":36.800,"track":181.3900,"speed":0.324,"climb":0.300,"eps":25.58,"epc":73.60}
$GPGGA,030752.000,3747.0866,S,17518.8933,E,1,07,1.1,62.2,M,23.7,M,,0000*71
$GPGSA,A,3,17,28,06,01,30,20,26,,,,,,1.9,1.1,1.6*33
$GPRMC,030752.000,A,3747.0866,S,17518.8933,E,0.87,181.39,311214,,,A*7D
{"class":"TPV","mode":3,"time":"2014-12-31T03:07:52.000Z","ept":0.005,"lat":-37.784776667,"lon":175.314888333,"alt":62.200,"epx":9.484,"epy":12.791,"epv":36.800,"track":181.3900,"speed":0.448,"climb":0.200,"eps":25.58,"epc":73.60}
$GPGGA,030753.000,3747.0865,S,17518.8931,E,1,07,1.1,62.4,M,23.7,M,,0000*77
$GPGSA,A,3,17,28,06,01,30,20,26,,,,,,1.9,1.1,1.6*33
$GPRMC,030753.000,A,3747.0865,S,17518.8931,E,0.30,181.39,311214,,,A*71
{"class":"TPV","mode":3,"time":"2014-12-31T03:07:53.000Z","ept":0.005,"lat":-37.784775000,"lon":175.314885000,"alt":62.400,"epx":9.484,"epy":12.791,"epv":36.800,"track":181.3900,"speed":0.154,"climb":0.200,"eps":25.58,"epc":73.60}
$GPGGA,030754.000,3747.0864,S,17518.8928,E,1,08,1.1,62.4,M,23.7,M,,0000*76
$GPGSA,A,3,17,28,06,01,30,20,26,13,,,,,1.8,1.1,1.5*33
$GPRMC,030754.000,A,3747.0864,S,17518.8928,E,1.30,234.26,311214,,,A*7D
{"class":"TPV","mode":3,"time":"2014-12-31T03:07:54.000Z","ept":0.005,"lat":-37.784773333,"lon":175.314880000,"alt":62.400,"epx":9.484,"epy":12.791,"epv":36.800,"track":234.2600,"speed":0.669,"climb":0.000,"eps":25.58,"epc":73.60}
$GPGGA,030755.000,3747.0863,S,17518.8927,E,1,08,1.1,62.6,M,23.7,M,,0000*7D
$GPGSA,A,3,17,28,06,01,30,20,26,13,,,,,1.8,1.1,1.5*33
$GPRMC,030755.000,A,3747.0863,S,17518.8927,E,0.41,234.26,311214,,,A*73
{"class":"TPV","mode":3,"time":"2014-12-31T03:07:55.000Z","ept":0.005,"lat":-37.784771667,"lon":175.314878333,"alt":62.600,"epx":9.484,"epy":12.791,"epv":34.500,"track":234.2600,"speed":0.211,"climb":0.200,"eps":25.58,"epc":71.30}
$GPGGA,030756.000,3747.0864,S,17518.8928,E,1,08,1.1,62.4,M,23.7,M,,0000*74
$GPGSA,A,3,17,28,06,01,30,20,26,13,,,,,1.8,1.1,1.5*33
$GPGSV,3,1,12,17,71,207,31,28,59,095,30,06,36,347,25,01,29,132,24*7E
$GPGSV,3,2,12,30,23,011,29,20,17,070,20,26,08,293,24,13,07,305,09*7B
$GPGSV,3,3,12,08,38,008,,02,35,348,,03,15,091,,24,12,219,*7A
{"class":"SKY","xdop":0.63,"ydop":0.85,"vdop":1.50,"tdop":0.89,"hdop":1.10,"gdop":2.01,"pdop":1.80,"satellites":[{"PRN":17,"el":71,"az":207,"ss":31,"used":true},{"PRN":28,"el":59,"az":95,"ss":30,"used":true},{"PRN":6,"el":36,"az":347,"ss":25,"used":true},{"PRN":1,"el":29,"az":132,"ss":24,"used":true},{"PRN":30,"el":23,"az":11,"ss":29,"used":true},{"PRN":20,"el":17,"az":70,"ss":20,"used":true},{"PRN":26,"el":8,"az":293,"ss":24,"used":true},{"PRN":13,"el":7,"az":305,"ss":9,"used":true},{"PRN":8,"el":38,"az":8,"ss":0,"used":false},{"PRN":2,"el":35,"az":348,"ss":0,"used":false},{"PRN":3,"el":15,"az":91,"ss":0,"used":false},{"PRN":24,"el":12,"az":219,"ss":0,"used":false}]}
$GPRMC,030756.000,A,3747.0864,S,17518.8928,E,0.47,234.26,311214,,,A*7E
{"class":"TPV","mode":3,"time":"2014-12-31T03:07:56.000Z","ept":0.005,"lat":-37.784773333,"lon":175.314880000,"alt":62.400,"epx":9.484,"epy":12.791,"epv":34.500,"track":234.2600,"speed":0.242,"climb":-0.200,"eps":25.58,"epc":69.00}
$GPGGA,030757.000,3747.0868,S,17518.8933,E,1,08,1.1,62.0,M,23.7,M,,0000*77
$GPGSA,A,3,17,28,06,01,30,20,26,13,,,,,1.8,1.1,1.5*33
$GPRMC,030757.000,A,3747.0868,S,17518.8933,E,2.87,172.78,311214,,,A*7D
{"class":"TPV","mode":3,"time":"2014-12-31T03:07:57.000Z","ept":0.005,"lat":-37.784780000,"lon":175.314888333,"alt":62.000,"epx":9.484,"epy":12.791,"epv":34.500,"track":172.7800,"speed":1.476,"climb":-0.400,"eps":25.58,"epc":69.00}
$GPGGA,030758.000,3747.0872,S,17518.8945,E,1,08,1.1,61.8,M,23.7,M,,0000*79
$GPGSA,A,3,17,28,06,01,30,20,26,13,,,,,1.8,1.1,1.5*33
$GPRMC,030758.000,A,3747.0872,S,17518.8945,E,3.45,125.35,311214,,,A*7C
{"class":"TPV","mode":3,"time":"2014-12-31T03:07:58.000Z","ept":0.005,"lat":-37.784786667,"lon":175.314908333,"alt":61.800,"epx":9.484,"epy":12.791,"epv":34.500,"track":125.3500,"speed":1.775,"climb":-0.200,"eps":25.58,"epc":69.00}
$GPGGA,030759.000,3747.0871,S,17518.8960,E,1,07,1.2,61.6,M,23.7,M,,0000*7E
$GPGSA,A,3,17,28,06,01,30,26,13,,,,,,2.1,1.2,1.7*3A
$GPRMC,030759.000,A,3747.0871,S,17518.8960,E,5.73,102.76,311214,,,A*78
{"class":"TPV","mode":3,"time":"2014-12-31T03:07:59.000Z","ept":0.005,"lat":-37.784785000,"lon":175.314933333,"alt":61.600,"epx":9.484,"epy":12.791,"epv":34.500,"track":102.7600,"speed":2.948,"climb":-0.200,"eps":25.58,"epc":69.00}
$GPGGA,030800.000,3747.0861,S,17518.8981,E,1,07,1.2,61.5,M,23.7,M,,0000*70
$GPGSA,A,3,17,28,06,01,30,26,13,,,,,,2.1,1.2,1.7*3A
$GPRMC,030800.000,A,3747.0861,S,17518.8981,E,7.48,86.09,311214,,,A*4A
{"class":"TPV","mode":3,"time":"2014-12-31T03:08:00.000Z","ept":0.005,"lat":-37.784768333,"lon":175.314968333,"alt":61.500,"epx":9.484,"epy":12.791,"epv":39.100,"track":86.0900,"speed":3.848,"climb":-0.100,"eps":25.58,"epc":73.60}
$GPGGA,030801.000,3747.0849,S,17518.9003,E,1,08,1.1,61.6,M,23.7,M,,0000*76
$GPGSA,A,3,17,28,06,01,30,20,26,13,,,,,1.8,1.1,1.5*33
$GPGSV,3,1,12,17,71,207,28,28,59,095,26,06,36,347,28,01,29,132,16*7D
$GPGSV,3,2,12,30,23,011,25,20,17,070,12,26,08,293,24,13,07,305,26*7B
$GPGSV,3,3,12,08,38,008,,02,35,348,,03,15,091,,24,12,219,*7A
{"class":"SKY","xdop":0.63,"ydop":0.85,"vdop":1.50,"tdop":0.89,"hdop":1.10,"gdop":2.01,"pdop":1.80,"satellites":[{"PRN":17,"el":71,"az":207,"ss":28,"used":true},{"PRN":28,"el":59,"az":95,"ss":26,"used":true},{"PRN":6,"el":36,"az":347,"ss":28,"used":true},{"PRN":1,"el":29,"az":132,"ss":16,"used":true},{"PRN":30,"el":23,"az":11,"ss":25,"used":true},{"PRN":20,"el":17,"az":70,"ss":12,"used":true},{"PRN":26,"el":8,"az":293,"ss":24,"used":true},{"PRN":13,"el":7,"az":305,"ss":26,"used":true},{"PRN":8,"el":38,"az":8,"ss":0,"used":false},{"PRN":2,"el":35,"az":348,"ss":0,"used":false},{"PRN":3,"el":15,"az":91,"ss":0,"used":false},{"PRN":24,"el":12,"az":219,"ss":0,"used":false}]}
$GPRMC,030801.000,A,3747.0849,S,17518.9003,E,8.01,75.33,311214,,,A*44
{"class":"TPV","mode":3,"time":"2014-12-31T03:08:01.000Z","ept":0.005,"lat":-37.784748333,"lon":175.315005000,"alt":61.600,"epx":9.484,"epy":12.791,"epv":39.100,"track":75.3300,"speed":4.121,"climb":0.100,"eps":25.58,"epc":78.20}
$GPGGA,030802.000,3747.0835,S,17518.9021,E,1,08,1.1,61.4,M,23.7,M,,0000*7C
$GPGSA,A,3,17,28,06,01,30,20,26,13,,,,,1.8,1.1,1.5*33
$GPRMC,030802.000,A,3747.0835,S,17518.9021,E,7.53,65.51,311214,,,A*41
{"class":"TPV","mode":3,"time":"2014-12-31T03:08:02.000Z","ept":0.005,"lat":-37.784725000,"lon":175.315035000,"alt":61.400,"epx":9.484,"epy":12.791,"epv":34.500,"track":65.5100,"speed":3.874,"climb":-0.200,"eps":25.58,"epc":73.60}
$GPGGA,030803.000,3747.0820,S,17518.9040,E,1,07,1.2,61.4,M,23.7,M,,0000*72
$GPGSA,A,3,17,28,06,01,30,26,13,,,,,,2.1,1.2,1.7*3A
$GPRMC,030803.000,A,3747.0820,S,17518.9040,E,8.02,58.56,311214,,,A*41
{"class":"TPV","mode":3,"time":"2014-12-31T03:08:03.000Z","ept":0.005,"lat":-37.784700000,"lon":175.315066667,"alt":61.400,"epx":9.484,"epy":12.791,"epv":34.500,"track":58.5600,"speed":4.126,"climb":0.000,"eps":25.58,"epc":69.00}
$GPGGA,030804.000,3747.0805,S,17518.9057,E,1,07,1.2,61.3,M,23.7,M,,0000*73
$GPGSA,A,3,17,28,06,01,30,26,13,,,,,,2.1,1.2,1.7*3A
$GPRMC,030804.000,A,3747.0805,S,17518.9057,E,6.63,54.54,311214,,,A*40
{"class":"TPV","mode":3,"time":"2014-12-31T03:08:04.000Z","ept":0.005,"lat":-37.784675000,"lon":175.315095000,"alt":61.300,"epx":9.484,"epy":12.791,"epv":39.100,"track":54.5400,"speed":3.411,"climb":-0.100,"eps":25.58,"epc":73.60}
$GPGGA,030805.000,3747.0792,S,17518.9070,E,1,07,1.2,61.3,M,23.7,M,,0000*76
$GPGSA,A,3,17,28,06,01,30,26,13,,,,,,2.1,1.2,1.7*3A
$GPRMC,030805.000,A,3747.0792,S,17518.9070,E,6.02,53.14,311214,,,A*41
{"class":"TPV","mode":3,"time":"2014-12-31T03:08:05.000Z","ept":0.005,"lat":-37.784653333,"lon":175.315116667,"alt":61.300,"epx":9.484,"epy":12.791,"epv":39.100,"track":53.1400,"speed":3.097,"climb":0.000,"eps":25.58,"epc":78.20}
$GPGGA,030806.000,3747.0776,S,17518.9075,E,1,06,2.2,61.3,M,23.7,M,,0000*78
$GPGSA,A,3,17,28,06,30,26,13,,,,,,,3.9,2.2,3.2*36
$GPGSV,3,1,12,17,71,207,26,28,59,095,27,06,36,347,27,30,23,011,21*71
$GPGSV,3,2,12,26,08,293,19,13,07,305,17,01,29,132,07,20,17,070,04*78
$GPGSV,3,3,12,24,12,219,21,08,38,008,,02,35,348,,03,15,091,*79
{"class":"SKY","xdop":0.63,"ydop":0.85,"vdop":3.20,"tdop":0.89,"hdop":2.20,"gdop":2.01,"pdop":3.90,"satellites":[{"PRN":17,"el":71,"az":207,"ss":26,"used":true},{"PRN":28,"el":59,"az":95,"ss":27,"used":true},{"PRN":6,"el":36,"az":347,"ss":27,"used":true},{"PRN":30,"el":23,"az":11,"ss":21,"used":true},{"PRN":26,"el":8,"az":293,"ss":19,"used":true},{"PRN":13,"el":7,"az":305,"ss":17,"used":true},{"PRN":1,"el":29,"az":132,"ss":7,"used":false},{"PRN":20,"el":17,"az":70,"ss":4,"used":false},{"PRN":24,"el":12,"az":219,"ss":21,"used":false},{"PRN":8,"el":38,"az":8,"ss":0,"used":false},{"PRN":2,"el":35,"az":348,"ss":0,"used":false},{"PRN":3,"el":15,"az":91,"ss":0,"used":false}]}
$GPRMC,030806.000,A,3747.0776,S,17518.9075,E,6.23,50.79,311214,,,A*46
{"class":"TPV","mode":3,"time":"2014-12-31T03:08:06.000Z","ept":0.005,"lat":-37.784626667,"lon":175.315125000,"alt":61.300,"epx":9.484,"epy":12.791,"epv":39.100,"track":50.7900,"speed":3.205,"climb":0.000,"eps":25.58,"epc":78.20}
$GPGGA,030807.000,3747.0760,S,17518.9069,E,1,07,1.2,61.3,M,23.7,M,,0000*71
$GPGSA,A,3,17,28,06,01,30,26,13,,,,,,2.1,1.2,1.7*3A
$GPRMC,030807.000,A,3747.0760,S,17518.9069,E,6.61,43.60,311214,,,A*41
{"class":"TPV","mode":3,"time":"2014-12-31T03:08:07.000Z","ept":0.005,"lat":-37.784600000,"lon":175.315115000,"alt":61.300,"epx":9.484,"epy":12.791,"epv":73.600,"track":43.6000,"speed":3.400,"climb":0.000,"eps":25.58,"epc":112.70}
$GPGGA,030808.000,3747.0744,S,17518.9054,E,1,07,1.2,61.1,M,23.7,M,,0000*74
$GPGSA,A,3,17,28,06,01,30,26,13,,,,,,2.1,1.2,1.7*3A
$GPRMC,030808.000,A,3747.0744,S,17518.9054,E,6.80,23.66,311214,,,A*49
{"class":"TPV","mode":3,"time":"2014-12-31T03:08:08.000Z","ept":0.005,"lat":-37.784573333,"lon":175.315090000,"alt":61.100,"epx":9.484,"epy":12.791,"epv":39.100,"track":23.6600,"speed":3.498,"climb":-0.200,"eps":25.58,"epc":112.70}
$GPGGA,030809.000,3747.0731,S,17518.9039,E,1,08,1.1,60.5,M,23.7,M,,0000*75
$GPGSA,A,3,17,28,06,01,30,20,26,13,,,,,1.8,1.1,1.5*33
$GPRMC,030809.000,A,3747.0731,S,17518.9039,E,6.40,354.34,311214,,,A*79
{"class":"TPV","mode":3,"time":"2014-12-31T03:08:09.000Z","ept":0.005,"lat":-37.784551667,"lon":175.315065000,"alt":60.500,"epx":9.484,"epy":12.791,"epv":39.100,"track":354.3400,"speed":3.292,"climb":-0.600,"eps":25.58,"epc":78.20}
$GPGGA,030810.000,3747.0721,S,17518.9024,E,1,08,1.1,60.3,M,23.7,M,,0000*76
$GPGSA,A,3,17,28,06,01,30,20,26,13,,,,,1.8,1.1,1.5*33
$GPRMC,030810.000,A,3747.0721,S,17518.9024,E,5.85,340.71,311214,,,A*72
{"class":"TPV","mode":3,"time":"2014-12-31T03:08:10.000Z","ept":0.005,"lat":-37.784535000,"lon":175.315040000,"alt":60.300,"epx":9.484,"epy":12.791,"epv":34.500,"track":340.7100,"speed":3.009,"climb":-0.200,"eps":25.58,"epc":73.60}
$GPGGA,030811.000,3747.0713,S,17518.9010,E,1,08,1.1,59.8,M,23.7,M,,0000*70
$GPGSA,A,3,17,28,06,01,30,20,26,13,,,,,1.8,1.1,1.5*33
$GPGSV,3,1,12,17,71,207,28,28,59,095,33,06,36,347,25,01,29,132,27*76
$GPGSV,3,2,12,30,23,011,30,20,17,070,24,26,08,293,27,13,07,305,16*7A
$GPGSV,3,3,12,24,12,219,23,08,38,008,,02,35,348,,03,15,091,*7B
{"class":"SKY","xdop":0.63,"ydop":0.85,"vdop":1.50,"tdop":0.89,"hdop":1.10,"gdop":2.01,"pdop":1.80,"satellites":[{"PRN":17,"el":71,"az":207,"ss":28,"used":true},{"PRN":28,"el":59,"az":95,"ss":33,"used":true},{"PRN":6,"el":36,"az":347,"ss":25,"used":true},{"PRN":1,"el":29,"az":132,"ss":27,"used":true},{"PRN":30,"el":23,"az":11,"ss":30,"used":true},{"PRN":20,"el":17,"az":70,"ss":24,"used":true},{"PRN":26,"el":8,"az":293,"ss":27,"used":true},{"PRN":13,"el":7,"az":305,"ss":16,"used":true},{"PRN":24,"el":12,"az":219,"ss":23,"used":false},{"PRN":8,"el":38,"az":8,"ss":0,"used":false},{"PRN":2,"el":35,"az":348,"ss":0,"used":false},{"PRN":3,"el":15,"az":91,"ss":0,"used":false}]}
$GPRMC,030811.000,A,3747.0713,S,17518.9010,E,5.52,335.07,311214,,,A*7C
{"class":"TPV","mode":3,"time":"2014-12-31T03:08:11.000Z","ept":0.005,"lat":-37.784521667,"lon":175.315016667,"alt":59.800,"epx":9.484,"epy":12.791,"epv":34.500,"track":335.0700,"speed":2.840,"climb":-0.500,"eps":25.58,"epc":69.00}
$GPGGA,030812.000,3747.0699,S,17518.8995,E,1,08,1.1,59.9,M,23.7,M,,0000*74
$GPGSA,A,3,17,28,06,01,30,20,26,13,,,,,1.8,1.1,1.5*33
$GPRMC,030812.000,A,3747.0699,S,17518.8995,E,6.69,328.59,311214,,,A*75
{"class":"TPV","mode":3,"time":"2014-12-31T03:08:12.000Z","ept":0.005,"lat":-37.784498333,"lon":175.314991667,"alt":59.900,"epx":9.484,"epy":12.791,"epv":34.500,"track":328.5900,"speed":3.442,"climb":0.100,"eps":25.58,"epc":69.00}
$GPGGA,030813.000,3747.0688,S,17518.8980,E,1,08,1.1,59.7,M,23.7,M,,0000*7F
$GPGSA,A,3,17,28,06,01,30,20,26,13,,,,,1.8,1.1,1.5*33
$GPRMC,030813.000,A,3747.0688,S,17518.8980,E,5.64,325.45,311214,,,A*7E
{"class":"TPV","mode":3,"time":"2014-12-31T03:08:13.000Z","ept":0.005,"lat":-37.784480000,"lon":175.314966667,"alt":59.700,"epx":9.484,"epy":12.791,"epv":34.500,"track":325.4500,"speed":2.901,"climb":-0.200,"eps":25.58,"epc":69.00}
$GPGGA,030814.000,3747.0679,S,17518.8964,E,1,08,1.1,59.3,M,23.7,M,,0000*78
$GPGSA,A,3,17,28,06,01,30,20,26,13,,,,,1.8,1.1,1.5*33
$GPRMC,030814.000,A,3747.0679,S,17518.8964,E,6.47,320.88,311214,,,A*7B
{"class":"TPV","mode":3,"time":"2014-12-31T03:08:14.000Z","ept":0.005,"lat":-37.784465000,"lon":175.314940000,"alt":59.300,"epx":9.484,"epy":12.791,"epv":34.500,"track":320.8800,"speed":3.328,"climb":-0.400,"eps":25.58,"epc":69.00}
$GPGGA,030815.000,3747.0668,S,17518.8949,E,1,08,1.1,59.2,M,23.7,M,,0000*77
$GPGSA,A,3,17,28,06,01,30,20,26,13,,,,,1.8,1.1,1.5*33
$GPRMC,030815.000,A,3747.0668,S,17518.8949,E,6.37,318.35,311214,,,A*7F
{"class":"TPV","mode":3,"time":"2014-12-31T03:08:15.000Z","ept":0.005,"lat":-37.784446667,"lon":175.314915000,"alt":59.200,"epx":9.484,"epy":12.791,"epv":34.500,"track":318.3500,"speed":3.277,"climb":-0.100,"eps":25.58,"epc":69.00}
$GPGGA,030816.000,3747.0658,S,17518.8934,E,1,08,1.1,59.4,M,23.7,M,,0000*7B
$GPGSA,A,3,17,28,06,01,30,20,26,13,,,,,1.8,1.1,1.5*33
$GPGSV,3,1,12,17,71,207,29,28,59,095,33,06,36,347,26,01,29,132,27*74
$GPGSV,3,2,12,30,23,011,29,20,17,070,25,26,08,293,19,13,07,305,15*7D
$GPGSV,3,3,12,24,12,219,24,08,38,008,,02,35,348,,03,15,091,*7C
{"class":"SKY","xdop":0.63,"ydop":0.85,"vdop":1.50,"tdop":0.89,"hdop":1.10,"gdop":2.01,"pdop":1.80,"satellites":[{"PRN":17,"el":71,"az":207,"ss":29,"used":true},{"PRN":28,"el":59,"az":95,"ss":33,"used":true},{"PRN":6,"el":36,"az":347,"ss":26,"used":true},{"PRN":1,"el":29,"az":132,"ss":27,"used":true},{"PRN":30,"el":23,"az":11,"ss":29,"used":true},{"PRN":20,"el":17,"az":70,"ss":25,"used":true},{"PRN":26,"el":8,"az":293,"ss":19,"used":true},{"PRN":13,"el":7,"az":305,"ss":15,"used":true},{"PRN":24,"el":12,"az":219,"ss":24,"used":false},{"PRN":8,"el":38,"az":8,"ss":0,"used":false},{"PRN":2,"el":35,"az":348,"ss":0,"used":false},{"PRN":3,"el":15,"az":91,"ss":0,"used":false}]}
$GPRMC,030816.000,A,3747.0658,S,17518.8934,E,5.89,318.33,311214,,,A*75
{"class":"TPV","mode":3,"time":"2014-12-31T03:08:16.000Z","ept":0.005,"lat":-37.784430000,"lon":175.314890000,"alt":59.400,"epx":9.484,"epy":12.791,"epv":34.500,"track":318.3300,"speed":3.030,"climb":0.200,"eps":25.58,"epc":69.00}
$GPGGA,030817.000,3747.0646,S,17518.8916,E,1,08,1.1,59.4,M,23.7,M,,0000*75
$GPGSA,A,3,17,28,06,01,30,20,26,13,,,,,1.8,1.1,1.5*33
$GPRMC,030817.000,A,3747.0646,S,17518.8916,E,7.18,315.58,311214,,,A*71
{"class":"TPV","mode":3,"time":"2014-12-31T03:08:17.000Z","ept":0.005,"lat":-37.784410000,"lon":175.314860000,"alt":59.400,"epx":9.484,"epy":12.791,"epv":34.500,"track":315.5800,"speed":3.694,"climb":0.000,"eps":25.58,"epc":69.00}
$GPGGA,030818.000,3747.0631,S,17518.8898,E,1,08,1.1,59.4,M,23.7,M,,0000*7D
$GPGSA,A,3,17,28,06,01,30,20,26,13,,,,,1.8,1.1,1.5*33
$GPRMC,030818.000,A,3747.0631,S,17518.8898,E,7.87,315.24,311214,,,A*74
{"class":"TPV","mode":3,"time":"2014-12-31T03:08:18.000Z","ept":0.005,"lat":-37.784385000,"lon":175.314830000,"alt":59.400,"epx":9.484,"epy":12.791,"epv":34.500,"track":315.2400,"speed":4.049,"climb":0.000,"eps":25.58,"epc":69.00}
$GPGGA,030819.000,3747.0615,S,17518.8879,E,1,08,1.1,59.4,M,23.7,M,,0000*75
$GPGSA,A,3,17,28,06,01,30,20,26,13,,,,,1.8,1.1,1.5*33
$GPRMC,030819.000,A,3747.0615,S,17518.8879,E,7.37,316.02,311214,,,A*70
{"class":"TPV","mode":3,"time":"2014-12-31T03:08:19.000Z","ept":0.005,"lat":-37.784358333,"lon":175.314798333,"alt":59.400,"epx":9.484,"epy":12.791,"epv":34.500,"track":316.0200,"speed":3.791,"climb":0.000,"eps":25.58,"epc":69.00}
$GPGGA,030820.000,3747.0600,S,17518.8859,E,1,08,1.1,59.2,M,23.7,M,,0000*7F
$GPGSA,A,3,17,28,06,01,30,20,26,13,,,,,1.8,1.1,1.5*33
$GPRMC,030820.000,A,3747.0600,S,17518.8859,E,8.01,313.53,311214,,,A*77
{"class":"TPV","mode":3,"time":"2014-12-31T03:08:20.000Z","ept":0.005,"lat":-37.784333333,"lon":175.314765000,"alt":59.200,"epx":9.484,"epy":12.791,"epv":34.500,"track":313.5300,"speed":4.121,"climb":-0.200,"eps":25.58,"epc":69.00}
$GPGGA,030821.000,3747.0587,S,17518.8838,E,1,08,1.1,59.1,M,23.7,M,,0000*76
$GPGSA,A,3,17,28,06,01,30,20,26,13,,,,,1.8,1.1,1.5*33
$GPGSV,3,1,12,17,71,207,30,28,59,095,33,06,36,347,26,01,29,132,27*7C
$GPGSV,3,2,12,30,23,011,29,20,17,070,25,26,08,293,19,13,07,305,25*7E
$GPGSV,3,3,12,24,12,219,25,08,38,008,,02,35,348,,03,15,091,*7D
{"class":"SKY","xdop":0.63,"ydop":0.85,"vdop":1.50,"tdop":0.89,"hdop":1.10,"gdop":2.01,"pdop":1.80,"satellites":[{"PRN":17,"el":71,"az":207,"ss":30,"used":true},{"PRN":28,"el":59,"az":95,"ss":33,"used":true},{"PRN":6,"el":36,"az":347,"ss":26,"used":true},{"PRN":1,"el":29,"az":132,"ss":27,"used":true},{"PRN":30,"el":23,"az":11,"ss":29,"used":true},{"PRN":20,"el":17,"az":70,"ss":25,"used":true},{"PRN":26,"el":8,"az":293,"ss":19,"used":true},{"PRN":13,"el":7,"az":305,"ss":25,"used":true},{"PRN":24,"el":12,"az":219,"ss":25,"used":false},{"PRN":8,"el":38,"az":8,"ss":0,"used":false},{"PRN":2,"el":35,"az":348,"ss":0,"used":false},{"PRN":3,"el":15,"az":91,"ss":0,"used":false}]}
$GPRMC,030821.000,A,3747.0587,S,17518.8838,E,6.47,313.61,311214,,,A*70
{"class":"TPV","mode":3,"time":"2014-12-31T03:08:21.000Z","ept":0.005,"lat":-37.784311667,"lon":175.314730000,"alt":59.100,"epx":9.484,"epy":12.791,"epv":34.500,"track":313.6100,"speed":3.328,"climb":-0.100,"eps":25.58,"epc":69.00}
$GPGGA,030822.000,3747.0574,S,17518.8822,E,1,08,1.1,59.0,M,23.7,M,,0000*73
$GPGSA,A,3,17,28,06,01,30,20,26,13,,,,,1.8,1.1,1.5*33
$GPRMC,030822.000,A,3747.0574,S,17518.8822,E,6.60,314.62,311214,,,A*75
{"class":"TPV","mode":3,"time":"2014-12-31T03:08:22.000Z","ept":0.005,"lat":-37.784290000,"lon":175.314703333,"alt":59.000,"epx":9.484,"epy":12.791,"epv":34.500,"track":314.6200,"speed":3.395,"climb":-0.100,"eps":25.58,"epc":69.00}
$GPGGA,030823.000,3747.0561,S,17518.8803,E,1,08,1.1,58.6,M,23.7,M,,0000*72
$GPGSA,A,3,17,28,06,01,30,20,26,13,,,,,1.8,1.1,1.5*33
$GPRMC,030823.000,A,3747.0561,S,17518.8803,E,7.85,313.12,311214,,,A*79
{"class":"TPV","mode":3,"time":"2014-12-31T03:08:23.000Z","ept":0.005,"lat":-37.784268333,"lon":175.314671667,"alt":58.600,"epx":9.484,"epy":12.791,"epv":34.500,"track":313.1200,"speed":4.038,"climb":-0.400,"eps":25.58,"epc":69.00}
$GPGGA,030824.000,3747.0547,S,17518.8785,E,1,08,1.1,58.5,M,23.7,M,,0000*73
$GPGSA,A,3,17,28,06,01,30,20,26,13,,,,,1.8,1.1,1.5*33
$GPRMC,030824.000,A,3747.0547,S,17518.8785,E,7.55,312.96,311214,,,A*7B
{"class":"TPV","mode":3,"time":"2014-12-31T03:08:24.000Z","ept":0.005,"lat":-37.784245000,"lon":175.314641667,"alt":58.500,"epx":9.484,"epy":12.791,"epv":34.500,"track":312.9600,"speed":3.884,"climb":-0.100,"eps":25.58,"epc":69.00}
$GPGGA,030825.000,3747.0533,S,17518.8765,E,1,08,1.1,58.3,M,23.7,M,,0000*79
$GPGSA,A,3,17,28,06,01,30,20,26,13,,,,,1.8,1.1,1.5*33
$GPRMC,030825.000,A,3747.0533,S,17518.8765,E,7.63,313.74,311214,,,A*7F
{"class":"TPV","mode":3,"time":"2014-12-31T03:08:25.000Z","ept":0.005,"lat":-37.784221667,"lon":175.314608333,"alt":58.300,"epx":9.484,"epy":12.791,"epv":34.500,"track":313.7400,"speed":3.925,"climb":-0.200,"eps":25.58,"epc":69.00}
$GPGGA,030826.000,3747.0523,S,17518.8744,E,1,09,0.9,58.1,M,23.7,M,,0000*72
$GPGSA,A,3,17,28,06,01,30,20,11,26,13,,,,1.6,0.9,1.2*33
$GPGSV,3,1,12,17,71,207,30,28,59,095,33,06,36,347,22,01,29,132,27*78
$GPGSV,3,2,12,30,23,011,30,20,17,070,25,11,12,131,18,26,08,293,19*7B
$GPGSV,3,3,12,13,07,305,25,24,12,219,25,08,38,008,,02,35,348,*76
{"class":"SKY","xdop":0.63,"ydop":0.85,"vdop":1.20,"tdop":0.89,"hdop":0.90,"gdop":2.01,"pdop":1.60,"satellites":[{"PRN":17,"el":71,"az":207,"ss":30,"used":true},{"PRN":28,"el":59,"az":95,"ss":33,"used":true},{"PRN":6,"el":36,"az":347,"ss":22,"used":true},{"PRN":1,"el":29,"az":132,"ss":27,"used":true},{"PRN":30,"el":23,"az":11,"ss":30,"used":true},{"PRN":20,"el":17,"az":70,"ss":25,"used":true},{"PRN":11,"el":12,"az":131,"ss":18,"used":true},{"PRN":26,"el":8,"az":293,"ss":19,"used":true},{"PRN":13,"el":7,"az":305,"ss":25,"used":true},{"PRN":24,"el":12,"az":219,"ss":25,"used":false},{"PRN":8,"el":38,"az":8,"ss":0,"used":false},{"PRN":2,"el":35,"az":348,"ss":0,"used":false}]}
$GPRMC,030826.000,A,3747.0523,S,17518.8744,E,7.07,310.62,311214,,,A*78
{"class":"TPV","mode":3,"time":"2014-12-31T03:08:26.000Z","ept":0.005,"lat":-37.784205000,"lon":175.314573333,"alt":58.100,"epx":9.484,"epy":12.791,"epv":34.500,"track":310.6200,"speed":3.637,"climb":-0.200,"eps":25.58,"epc":69.00}
$GPGGA,030827.000,3747.0513,S,17518.8725,E,1,09,0.9,57.7,M,23.7,M,,0000*7E
$GPGSA,A,3,17,28,06,01,30,20,11,26,13,,,,1.6,0.9,1.2*33
$GPRMC,030827.000,A,3747.0513,S,17518.8725,E,6.35,309.17,311214,,,A*77
{"class":"TPV","mode":3,"time":"2014-12-31T03:08:27.000Z","ept":0.005,"lat":-37.784188333,"lon":175.314541667,"alt":57.700,"epx":9.484,"epy":12.791,"epv":27.600,"track":309.1700,"speed":3.267,"climb":-0.400,"eps":25.58,"epc":62.10}
$GPGGA,030828.000,3747.0504,S,17518.8704,E,1,09,0.9,57.5,M,23.7,M,,0000*76
$GPGSA,A,3,17,28,06,01,30,20,11,26,13,,,,1.6,0.9,1.2*33
$GPRMC,030828.000,A,3747.0504,S,17518.8704,E,8.02,306.80,311214,,,A*76
{"class":"TPV","mode":3,"time":"2014-12-31T03:08:28.000Z","ept":0.005,"lat":-37.784173333,"lon":175.314506667,"alt":57.500,"epx":9.484,"epy":12.791,"epv":27.600,"track":306.8000,"speed":4.126,"climb":-0.200,"eps":25.58,"epc":55.20}
$GPGGA,030829.000,3747.0491,S,17518.8678,E,1,09,0.9,57.6,M,23.7,M,,0000*73
$GPGSA,A,3,17,28,06,01,30,20,11,26,13,,,,1.6,0.9,1.2*33
$GPRMC,030829.000,A,3747.0491,S,17518.8678,E,9.06,305.87,311214,,,A*71
{"class":"TPV","mode":3,"time":"2014-12-31T03:08:29.000Z","ept":0.005,"lat":-37.784151667,"lon":175.314463333,"alt":57.600,"epx":9.484,"epy":12.791,"epv":27.600,"track":305.8700,"speed":4.661,"climb":0.100,"eps":25.58,"epc":55.20}
$GPGGA,030830.000,3747.0479,S,17518.8651,E,1,09,0.9,57.6,M,23.7,M,,0000*76
$GPGSA,A,3,17,28,06,01,30,20,11,26,13,,,,1.6,0.9,1.2*33
$GPRMC,030830.000,A,3747.0479,S,17518.8651,E,9.65,303.72,311214,,,A*7D
{"class":"TPV","mode":3,"time":"2014-12-31T03:08:30.000Z","ept":0.005,"lat":-37.784131667,"lon":175.314418333,"alt":57.600,"epx":9.484,"epy":12.791,"epv":27.600,"track":303.7200,"speed":4.964,"climb":0.000,"eps":25.58,"epc":55.20}
$GPGGA,030831.000,3747.0469,S,17518.8624,E,1,09,0.9,57.3,M,23.7,M,,0000*71
$GPGSA,A,3,17,28,06,01,30,20,11,26,13,,,,1.6,0.9,1.2*33
$GPGSV,3,1,12,17,71,207,26,28,59,095,33,06,36,347,23,01,29,132,27*7E
$GPGSV,3,2,12,30,23,011,20,20,17,070,21,11,12,131,25,26,08,293,24*7E
$GPGSV,3,3,12,13,07,305,21,03,15,091,22,08,38,008,,02,35,348,*75
{"class":"SKY","xdop":0.63,"ydop":0.85,"vdop":1.20,"tdop":0.89,"hdop":0.90,"gdop":2.01,"pdop":1.60,"satellites":[{"PRN":17,"el":71,"az":207,"ss":26,"used":true},{"PRN":28,"el":59,"az":95,"ss":33,"used":true},{"PRN":6,"el":36,"az":347,"ss":23,"used":true},{"PRN":1,"el":29,"az":132,"ss":27,"used":true},{"PRN":30,"el":23,"az":11,"ss":20,"used":true},{"PRN":20,"el":17,"az":70,"ss":21,"used":true},{"PRN":11,"el":12,"az":131,"ss":25,"used":true},{"PRN":26,"el":8,"az":293,"ss":24,"used":true},{"PRN":13,"el":7,"az":305,"ss":21,"used":true},{"PRN":3,"el":15,"az":91,"ss":22,"used":false},{"PRN":8,"el":38,"az":8,"ss":0,"used":false},{"PRN":2,"el":35,"az":348,"ss":0,"used":false}]}
$GPRMC,030831.000,A,3747.0469,S,17518.8624,E,8.36,302.74,311214,,,A*7F
{"class":"TPV","mode":3,"time":"2014-12-31T03:08:31.000Z","ept":0.005,"lat":-37.784115000,"lon":175.314373333,"alt":57.300,"epx":9.484,"epy":12.791,"epv":27.600,"track":302.7400,"speed":4.301,"climb":-0.300,"eps":25.58,"epc":55.20}
$GPGGA,030832.000,3747.0460,S,17518.8603,E,1,09,0.9,57.0,M,23.7,M,,0000*7D
$GPGSA,A,3,17,28,06,01,30,20,11,26,13,,,,1.6,0.9,1.2*33
$GPRMC,030832.000,A,3747.0460,S,17518.8603,E,6.55,302.34,311214,,,A*7F
{"class":"TPV","mode":3,"time":"2014-12-31T03:08:32.000Z","ept":0.005,"lat":-37.784100000,"lon":175.314338333,"alt":57.000,"epx":9.484,"epy":12.791,"epv":27.600,"track":302.3400,"speed":3.370,"climb":-0.300,"eps":25.58,"epc":55.20}
$GPGGA,030833.000,3747.0453,S,17518.8585,E,1,09,0.9,56.9,M,23.7,M,,0000*79
$GPGSA,A,3,17,28,06,01,30,20,11,26,13,,,,1.6,0.9,1.2*33
$GPRMC,030833.000,A,3747.0453,S,17518.8585,E,5.58,301.07,311214,,,A*7E
{"class":"TPV","mode":3,"time":"2014-12-31T03:08:33.000Z","ept":0.005,"lat":-37.784088333,"lon":175.314308333,"alt":56.900,"epx":9.484,"epy":12.791,"epv":27.600,"track":301.0700,"speed":2.871,"climb":-0.100,"eps":25.58,"epc":55.20}
$GPGGA,030834.000,3747.0447,S,17518.8568,E,1,08,1.1,56.9,M,23.7,M,,0000*70
$GPGSA,A,3,17,28,06,01,30,20,26,13,,,,,1.8,1.1,1.5*33
$GPRMC,030834.000,A,3747.0447,S,17518.8568,E,4.68,300.00,311214,,,A*7B
{"class":"TPV","mode":3,"time":"2014-12-31T03:08:34.000Z","ept":0.005,"lat":-37.784078333,"lon":175.314280000,"alt":56.900,"epx":9.484,"epy":12.791,"epv":27.600,"track":300.0000,"speed":2.408,"climb":0.000,"eps":25.58,"epc":55.20}
$GPGGA,030835.000,3747.0446,S,17518.8548,E,1,08,1.1,56.8,M,23.7,M,,0000*73
$GPGSA,A,3,17,28,06,01,30,20,11,13,,,,,1.7,1.1,1.3*3E
$GPRMC,030835.000,A,3747.0446,S,17518.8548,E,6.01,294.71,311214,,,A*7E
{"class":"TPV","mode":3,"time":"2014-12-31T03:08:35.000Z","ept":0.005,"lat":-37.784076667,"lon":175.314246667,"alt":56.800,"epx":9.484,"epy":12.791,"epv":34.500,"track":294.7100,"speed":3.092,"climb":-0.100,"eps":25.58,"epc":62.10}
$GPGGA,030836.000,3747.0455,S,17518.8525,E,1,09,0.9,56.8,M,23.7,M,,0000*71
$GPGSA,A,3,17,28,06,01,30,20,11,26,13,,,,1.6,0.9,1.2*33
$GPGSV,3,1,12,17,71,207,30,28,59,095,29,06,36,347,30,01,29,132,18*7C
$GPGSV,3,2,12,30,23,011,23,20,17,070,24,11,12,131,19,26,08,293,12*72
$GPGSV,3,3,12,13,07,305,09,03,15,091,18,08,38,008,,02,35,348,*76
{"class":"SKY","xdop":0.63,"ydop":0.85,"vdop":1.20,"tdop":0.89,"hdop":0.90,"gdop":2.01,"pdop":1.60,"satellites":[{"PRN":17,"el":71,"az":207,"ss":30,"used":true},{"PRN":28,"el":59,"az":95,"ss":29,"used":true},{"PRN":6,"el":36,"az":347,"ss":30,"used":true},{"PRN":1,"el":29,"az":132,"ss":18,"used":true},{"PRN":30,"el":23,"az":11,"ss":23,"used":true},{"PRN":20,"el":17,"az":70,"ss":24,"used":true},{"PRN":11,"el":12,"az":131,"ss":19,"used":true},{"PRN":26,"el":8,"az":293,"ss":12,"used":true},{"PRN":13,"el":7,"az":305,"ss":9,"used":true},{"PRN":3,"el":15,"az":91,"ss":18,"used":false},{"PRN":8,"el":38,"az":8,"ss":0,"used":false},{"PRN":2,"el":35,"az":348,"ss":0,"used":false}]}
$GPRMC,030836.000,A,3747.0455,S,17518.8525,E,8.13,286.67,311214,,,A*7D
{"class":"TPV","mode":3,"time":"2014-12-31T03:08:36.000Z","ept":0.005,"lat":-37.784091667,"lon":175.314208333,"alt":56.800,"epx":9.484,"epy":12.791,"epv":29.900,"track":286.6700,"speed":4.182,"climb":0.000,"eps":25.58,"epc":64.40}
$GPGGA,030837.000,3747.0476,S,17518.8504,E,1,08,1.0,56.8,M,23.7,M,,0000*7B
$GPGSA,A,3,17,28,06,01,30,20,11,26,,,,,1.6,1.0,1.3*38
$GPRMC,030837.000,A,3747.0476,S,17518.8504,E,10.93,265.88,311214,,,A*43
{"class":"TPV","mode":3,"time":"2014-12-31T03:08:37.000Z","ept":0.005,"lat":-37.784126667,"lon":175.314173333,"alt":56.800,"epx":9.484,"epy":12.791,"epv":27.600,"track":265.8800,"speed":5.623,"climb":0.000,"eps":25.58,"epc":57.50}
$GPGGA,030838.000,3747.0507,S,17518.8484,E,1,09,0.9,56.9,M,23.7,M,,0000*72
$GPGSA,A,3,17,28,06,01,30,20,11,26,13,,,,1.6,0.9,1.2*33
$GPRMC,030838.000,A,3747.0507,S,17518.8484,E,12.88,233.94,311214,,,A*44
{"class":"TPV","mode":3,"time":"2014-12-31T03:08:38.000Z","ept":0.005,"lat":-37.784178333,"lon":175.314140000,"alt":56.900,"epx":9.484,"epy":12.791,"epv":29.900,"track":233.9400,"speed":6.626,"climb":0.100,"eps":25.58,"epc":57.50}
$GPGGA,030839.000,3747.0542,S,17518.8461,E,1,09,0.9,57.0,M,23.7,M,,0000*71
$GPGSA,A,3,17,28,06,01,30,20,11,26,13,,,,1.6,0.9,1.2*33
$GPRMC,030839.000,A,3747.0542,S,17518.8461,E,15.91,224.79,311214,,,A*45
{"class":"TPV","mode":3,"time":"2014-12-31T03:08:39.000Z","ept":0.005,"lat":-37.784236667,"lon":175.314101667,"alt":57.000,"epx":9.484,"epy":12.791,"epv":27.600,"track":224.7900,"speed":8.185,"climb":0.100,"eps":25.58,"epc":57.50}
$GPGGA,030839.000,3747.0583,S,17518.8434,E,1,09,0.9,57.1,M,23.7,M,,0000*7D
$GPGSA,A,3,17,28,06,01,30,20,11,26,13,,,,1.6,0.9,1.2*33
$GPRMC,030839.000,A,3747.0583,S,17518.8434,E,18.01,214.96,311214,,,A*4E
{"class":"TPV","mode":3,"time":"2014-12-31T03:08:39.000Z","ept":0.005,"lat":-37.784305000,"lon":175.314056667,"alt":57.000,"epx":9.484,"epy":12.791,"epv":27.600,"track":214.9600,"speed":9.265,"climb":0.100,"eps":25.58,"epc":57.50}
$GPGGA,030840.000,3747.0629,S,17518.8402,E,1,09,0.9,57.1,M,23.7,M,,0000*75
$GPGSA,A,3,17,28,06,01,30,20,11,26,13,,,,1.6,0.9,1.2*33
$GPGSV,3,1,12,17,71,207,31,28,59,095,29,06,36,347,25,01,29,132,18*79
$GPGSV,3,2,12,30,23,011,22,20,17,070,10,11,12,131,17,26,08,293,15*7D
$GPGSV,3,3,12,13,07,305,09,03,15,091,21,24,12,219,25,08,38,008,*7F
{"class":"SKY","xdop":0.63,"ydop":0.85,"vdop":1.20,"tdop":0.89,"hdop":0.90,"gdop":2.01,"pdop":1.60,"satellites":[{"PRN":17,"el":71,"az":207,"ss":31,"used":true},{"PRN":28,"el":59,"az":95,"ss":29,"used":true},{"PRN":6,"el":36,"az":347,"ss":25,"used":true},{"PRN":1,"el":29,"az":132,"ss":18,"used":true},{"PRN":30,"el":23,"az":11,"ss":22,"used":true},{"PRN":20,"el":17,"az":70,"ss":10,"used":true},{"PRN":11,"el":12,"az":131,"ss":17,"used":true},{"PRN":26,"el":8,"az":293,"ss":15,"used":true},{"PRN":13,"el":7,"az":305,"ss":9,"used":true},{"PRN":3,"el":15,"az":91,"ss":21,"used":false},{"PRN":24,"el":12,"az":219,"ss":25,"used":false},{"PRN":8,"el":38,"az":8,"ss":0,"used":false}]}
$GPRMC,030840.000,A,3747.0629,S,17518.8402,E,19.63,212.80,311214,,,A*42
{"class":"TPV","mode":3,"time":"2014-12-31T03:08:40.000Z","ept":0.005,"lat":-37.784381667,"lon":175.314003333,"alt":57.100,"epx":9.484,"epy":12.791,"epv":27.600,"track":212.8000,"speed":10.099,"climb":0.100,"eps":25.58,"epc":55.20}
$GPGGA,030841.000,3747.0676,S,17518.8368,E,1,09,0.9,57.3,M,23.7,M,,0000*77
$GPGSA,A,3,17,28,06,01,30,20,11,26,13,,,,1.6,0.9,1.2*33
$GPRMC,030841.000,A,3747.0676,S,17518.8368,E,19.28,211.32,311214,,,A*47
{"class":"TPV","mode":3,"time":"2014-12-31T03:08:41.000Z","ept":0.005,"lat":-37.784460000,"lon":175.313946667,"alt":57.300,"epx":9.484,"epy":12.791,"epv":27.600,"track":211.3200,"speed":9.918,"climb":0.200,"eps":25.58,"epc":55.20}
$GPGGA,030842.000,3747.0724,S,17518.8330,E,1,09,0.9,57.2,M,23.7,M,,0000*7E
$GPGSA,A,3,17,28,06,01,30,20,11,26,13,,,,1.6,0.9,1.2*33
$GPRMC,030842.000,A,3747.0724,S,17518.8330,E,20.48,211.58,311214,,,A*4F
{"class":"TPV","mode":3,"time":"2014-12-31T03:08:42.000Z","ept":0.005,"lat":-37.784540000,"lon":175.313883333,"alt":57.200,"epx":9.484,"epy":12.791,"epv":27.600,"track":211.5800,"speed":10.536,"climb":-0.100,"eps":25.58,"epc":55.20}
$GPGGA,030843.000,3747.0775,S,17518.8295,E,1,08,1.1,57.3,M,23.7,M,,0000*7C
$GPGSA,A,3,17,28,06,01,30,11,26,13,,,,,1.7,1.1,1.3*38
$GPRMC,030843.000,A,3747.0775,S,17518.8295,E,21.37,211.10,311214,,,A*41
{"class":"TPV","mode":3,"time":"2014-12-31T03:08:43.000Z","ept":0.005,"lat":-37.784625000,"lon":175.313825000,"alt":57.300,"epx":9.484,"epy":12.791,"epv":27.600,"track":211.1000,"speed":10.994,"climb":0.100,"eps":25.58,"epc":55.20}
$GPGGA,030844.000,3747.0830,S,17518.8260,E,1,09,0.9,57.3,M,23.7,M,,0000*77
$GPGSA,A,3,17,28,06,01,30,20,11,26,13,,,,1.5,0.9,1.2*30
$GPRMC,030844.000,A,3747.0830,S,17518.8260,E,20.92,208.49,311214,,,A*48
{"class":"TPV","mode":3,"time":"2014-12-31T03:08:44.000Z","ept":0.005,"lat":-37.784716667,"lon":175.313766667,"alt":57.300,"epx":9.484,"epy":12.791,"epv":29.900,"track":208.4900,"speed":10.762,"climb":0.000,"eps":25.58,"epc":57.50}
$GPGGA,030845.000,3747.0882,S,17518.8227,E,1,09,0.9,57.3,M,23.7,M,,0000*7C
$GPGSA,A,3,17,28,06,01,30,20,11,26,13,,,,1.5,0.9,1.2*30
$GPGSV,3,1,12,17,71,207,31,28,59,095,29,06,36,347,25,01,29,132,18*79
$GPGSV,3,2,12,30,23,011,21,20,17,070,09,11,12,131,15,26,08,293,15*74
$GPGSV,3,3,12,13,07,305,08,03,15,091,20,24,12,219,24,08,38,008,*7E
{"class":"SKY","xdop":0.63,"ydop":0.85,"vdop":1.20,"tdop":0.89,"hdop":0.90,"gdop":2.01,"pdop":1.50,"satellites":[{"PRN":17,"el":71,"az":207,"ss":31,"used":true},{"PRN":28,"el":59,"az":95,"ss":29,"used":true},{"PRN":6,"el":36,"az":347,"ss":25,"used":true},{"PRN":1,"el":29,"az":132,"ss":18,"used":true},{"PRN":30,"el":23,"az":11,"ss":21,"used":true},{"PRN":20,"el":17,"az":70,"ss":9,"used":true},{"PRN":11,"el":12,"az":131,"ss":15,"used":true},{"PRN":26,"el":8,"az":293,"ss":15,"used":true},{"PRN":13,"el":7,"az":305,"ss":8,"used":true},{"PRN":3,"el":15,"az":91,"ss":20,"used":false},{"PRN":24,"el":12,"az":219,"ss":24,"used":false},{"PRN":8,"el":38,"az":8,"ss":0,"used":false}]}
$GPRMC,030845.000,A,3747.0882,S,17518.8227,E,19.70,208.56,311214,,,A*4B
{"class":"TPV","mode":3,"time":"2014-12-31T03:08:45.000Z","ept":0.005,"lat":-37.784803333,"lon":175.313711667,"alt":57.300,"epx":9.484,"epy":12.791,"epv":27.600,"track":208.5600,"speed":10.135,"climb":0.000,"eps":25.58,"epc":57.50}
$GPGGA,030846.000,3747.0932,S,17518.8193,E,1,08,1.0,57.2,M,23.7,M,,0000*71
$GPGSA,A,3,17,28,06,01,30,20,11,26,,,,,1.6,1.0,1.3*38
$GPRMC,030846.000,A,3747.0932,S,17518.8193,E,20.82,209.22,311214,,,A*4B
{"class":"TPV","mode":3,"time":"2014-12-31T03:08:46.000Z","ept":0.005,"lat":-37.784886667,"lon":175.313655000,"alt":57.200,"epx":9.484,"epy":12.791,"epv":27.600,"track":209.2200,"speed":10.711,"climb":-0.100,"eps":25.58,"epc":55.20}
$GPGGA,030847.000,3747.0984,S,17518.8157,E,1,08,1.0,57.2,M,23.7,M,,0000*75
$GPGSA,A,3,17,28,06,01,30,20,11,26,,,,,1.6,1.0,1.3*38
$GPRMC,030847.000,A,3747.0984,S,17518.8157,E,21.52,209.50,311214,,,A*46
{"class":"TPV","mode":3,"time":"2014-12-31T03:08:47.000Z","ept":0.005,"lat":-37.784973333,"lon":175.313595000,"alt":57.200,"epx":9.484,"epy":12.791,"epv":29.900,"track":209.5000,"speed":11.071,"climb":0.000,"eps":25.58,"epc":57.50}
$GPGGA,030848.000,3747.1039,S,17518.8121,E,1,08,1.0,57.1,M,23.7,M,,0000*76
$GPGSA,A,3,17,28,06,01,30,20,11,26,,,,,1.6,1.0,1.3*38
$GPRMC,030848.000,A,3747.1039,S,17518.8121,E,22.51,208.17,311214,,,A*44
{"class":"TPV","mode":3,"time":"2014-12-31T03:08:48.000Z","ept":0.005,"lat":-37.785065000,"lon":175.313535000,"alt":57.100,"epx":9.484,"epy":12.791,"epv":29.900,"track":208.1700,"speed":11.580,"climb":-0.100,"eps":25.58,"epc":59.80}
$GPGGA,030849.000,3747.1093,S,17518.8086,E,1,08,1.0,56.8,M,23.7,M,,0000*73
$GPGSA,A,3,17,28,06,01,30,20,11,26,,,,,1.6,1.0,1.3*38
$GPRMC,030849.000,A,3747.1093,S,17518.8086,E,21.44,207.42,311214,,,A*41
{"class":"TPV","mode":3,"time":"2014-12-31T03:08:49.000Z","ept":0.005,"lat":-37.785155000,"lon":175.313476667,"alt":56.800,"epx":9.484,"epy":12.791,"epv":29.900,"track":207.4200,"speed":11.030,"climb":-0.300,"eps":25.58,"epc":59.80}
$GPGGA,030850.000,3747.1145,S,17518.8050,E,1,09,0.9,56.8,M,23.7,M,,0000*73
$GPGSA,A,3,17,28,06,01,30,20,11,26,13,,,,1.5,0.9,1.2*30
$GPGSV,3,1,12,17,71,207,31,28,59,095,29,06,36,347,25,01,29,132,19*78
$GPGSV,3,2,12,30,23,011,21,20,17,070,16,11,12,131,16,26,08,293,16*7A
$GPGSV,3,3,12,13,07,305,14,03,15,091,26,24,12,219,24,08,38,008,*75
{"class":"SKY","xdop":0.63,"ydop":0.85,"vdop":1.20,"tdop":0.89,"hdop":0.90,"gdop":2.01,"pdop":1.50,"satellites":[{"PRN":17,"el":71,"az":207,"ss":31,"used":true},{"PRN":28,"el":59,"az":95,"ss":29,"used":true},{"PRN":6,"el":36,"az":347,"ss":25,"used":true},{"PRN":1,"el":29,"az":132,"ss":19,"used":true},{"PRN":30,"el":23,"az":11,"ss":21,"used":true},{"PRN":20,"el":17,"az":70,"ss":16,"used":true},{"PRN":11,"el":12,"az":131,"ss":16,"used":true},{"PRN":26,"el":8,"az":293,"ss":16,"used":true},{"PRN":13,"el":7,"az":305,"ss":14,"used":true},{"PRN":3,"el":15,"az":91,"ss":26,"used":false},{"PRN":24,"el":12,"az":219,"ss":24,"used":false},{"PRN":8,"el":38,"az":8,"ss":0,"used":false}]}
$GPRMC,030850.000,A,3747.1145,S,17518.8050,E,20.96,209.21,311214,,,A*4D
{"class":"TPV","mode":3,"time":"2014-12-31T03:08:50.000Z","ept":0.005,"lat":-37.785241667,"lon":175.313416667,"alt":56.800,"epx":9.484,"epy":12.791,"epv":29.900,"track":209.2100,"speed":10.783,"climb":0.000,"eps":25.58,"epc":59.80}
$GPGGA,030851.000,3747.1196,S,17518.8014,E,1,09,0.9,56.6,M,23.7,M,,0000*72
$GPGSA,A,3,17,28,06,01,30,20,11,26,13,,,,1.5,0.9,1.2*30
$GPRMC,030851.000,A,3747.1196,S,17518.8014,E,21.05,208.96,311214,,,A*44
{"class":"TPV","mode":3,"time":"2014-12-31T03:08:51.000Z","ept":0.005,"lat":-37.785326667,"lon":175.313356667,"alt":56.600,"epx":9.484,"epy":12.791,"epv":27.600,"track":208.9600,"speed":10.829,"climb":-0.200,"eps":25.58,"epc":57.50}
$GPGGA,030852.000,3747.1248,S,17518.7980,E,1,09,0.9,56.4,M,23.7,M,,0000*78
$GPGSA,A,3,17,28,06,01,30,20,11,26,13,,,,1.5,0.9,1.2*30
$GPRMC,030852.000,A,3747.1248,S,17518.7980,E,21.15,209.94,311214,,,A*4E
{"class":"TPV","mode":3,"time":"2014-12-31T03:08:52.000Z","ept":0.005,"lat":-37.785413333,"lon":175.313300000,"alt":56.400,"epx":9.484,"epy":12.791,"epv":27.600,"track":209.9400,"speed":10.880,"climb":-0.200,"eps":25.58,"epc":55.20}
$GPGGA,030853.000,3747.1301,S,17518.7946,E,1,09,0.9,56.3,M,23.7,M,,0000*78
$GPGSA,A,3,17,28,06,01,30,20,11,26,13,,,,1.5,0.9,1.2*30
$GPRMC,030853.000,A,3747.1301,S,17518.7946,E,21.84,209.00,311214,,,A*4C
{"class":"TPV","mode":3,"time":"2014-12-31T03:08:53.000Z","ept":0.005,"lat":-37.785501667,"lon":175.313243333,"alt":56.300,"epx":9.484,"epy":12.791,"epv":27.600,"track":209.0000,"speed":11.235,"climb":-0.100,"eps":25.58,"epc":55.20}
$GPGGA,030854.000,3747.1355,S,17518.7911,E,1,09,0.9,56.5,M,23.7,M,,0000*7A
$GPGSA,A,3,17,28,06,01,30,20,11,26,13,,,,1.5,0.9,1.2*30
$GPRMC,030854.000,A,3747.1355,S,17518.7911,E,20.94,209.40,311214,,,A*4C
{"class":"TPV","mode":3,"time":"2014-12-31T03:08:54.000Z","ept":0.005,"lat":-37.785591667,"lon":175.313185000,"alt":56.500,"epx":9.484,"epy":12.791,"epv":27.600,"track":209.4000,"speed":10.772,"climb":0.200,"eps":25.58,"epc":55.20}
$GPGGA,030855.000,3747.1405,S,17518.7879,E,1,09,0.9,56.7,M,23.7,M,,0000*74
$GPGSA,A,3,17,28,06,01,30,20,11,26,13,,,,1.5,0.9,1.2*30
$GPGSV,3,1,12,17,71,207,32,28,59,095,29,06,36,347,24,01,29,132,19*7A
$GPGSV,3,2,12,30,23,011,20,20,17,070,18,11,12,131,16,26,08,293,15*76
$GPGSV,3,3,12,13,07,305,14,03,15,091,23,24,12,219,24,08,38,008,*70
{"class":"SKY","xdop":0.63,"ydop":0.85,"vdop":1.20,"tdop":0.89,"hdop":0.90,"gdop":2.01,"pdop":1.50,"satellites":[{"PRN":17,"el":71,"az":207,"ss":32,"used":true},{"PRN":28,"el":59,"az":95,"ss":29,"used":true},{"PRN":6,"el":36,"az":347,"ss":24,"used":true},{"PRN":1,"el":29,"az":132,"ss":19,"used":true},{"PRN":30,"el":23,"az":11,"ss":20,"used":true},{"PRN":20,"el":17,"az":70,"ss":18,"used":true},{"PRN":11,"el":12,"az":131,"ss":16,"used":true},{"PRN":26,"el":8,"az":293,"ss":15,"used":true},{"PRN":13,"el":7,"az":305,"ss":14,"used":true},{"PRN":3,"el":15,"az":91,"ss":23,"used":false},{"PRN":24,"el":12,"az":219,"ss":24,"used":false},{"PRN":8,"el":38,"az":8,"ss":0,"used":false}]}
$GPRMC,030855.000,A,3747.1405,S,17518.7879,E,19.67,209.75,311214,,,A*40
