# Name: BU 353 GLONASS
# Chipset: SiRF-III
# Submitter: Alexander Volkov <a.volkov@rusbitech.ru>
# Date: 2014-05-23
# Comment: Contains GLONASS sentences (look for GN talker ID)
#
# This file is Copyright (c) 2010 by the GPSD project
# BSD terms apply: see the file COPYING in the distribution root for details.
#
$GNGSA,A,3,03,19,27,13,,,,,,,,,2.75,2.57,1.00*11
$GNGSA,A,3,88,87,,,,,,,,,,,2.75,2.57,1.00*12
$GNRMC,081403.000,A,5541.1938,N,03737.2875,E,0.63,259.33,260514,,,A*7F
$GPZDA,081403.000,26,05,2014,,*5E
$GPGGA,081404.000,5541.1939,N,03737.2887,E,1,6,2.57,66.1,M,14.5,M,,*60
$GNGSA,A,3,03,19,27,13,,,,,,,,,2.75,2.57,1.00*11
$GNGSA,A,3,88,87,,,,,,,,,,,2.75,2.57,1.00*12
$GNRMC,081404.000,A,5541.1939,N,03737.2887,E,0.53,261.98,260514,,,A*7D
$GPZDA,081404.000,26,05,2014,,*59
$GPGGA,081405.000,5541.1941,N,03737.2893,E,1,6,2.57,66.0,M,14.5,M,,*6A
$GNGSA,A,3,03,19,27,13,,,,,,,,,2.75,2.57,1.00*11
$GNGSA,A,3,88,87,,,,,,,,,,,2.75,2.57,1.00*12
$GNRMC,081405.000,A,5541.1941,N,03737.2893,E,0.51,265.95,260514,,,A*7D
$GPZDA,081405.000,26,05,2014,,*58
$GPGSV,3,1,12,08,88,068,,07,59,081,23,28,41,187,,05,40,260,*79
$GPGSV,3,2,12,26,36,297,,03,27,059,16,19,24,074,18,27,19,040,22*76
$GPGSV,3,3,12,10,19,202,,13,16,129,19,21,06,346,,15,04,306,*75
$GLGSV,3,1,10,79,81,336,,69,50,211,,70,47,307,,78,33,058,*6D
$GLGSV,3,2,10,80,30,251,,88,24,068,26,87,19,015,14,68,07,177,*6A
$GLGSV,3,3,10,71,06,339,,81,03,117,26*64
$GPGGA,081406.000,5541.1942,N,03737.2889,E,1,6,2.57,66.0,M,14.5,M,,*61
$GNGSA,A,3,03,19,27,13,,,,,,,,,2.75,2.57,1.00*11
$GNGSA,A,3,88,87,,,,,,,,,,,2.75,2.57,1.00*12
$GNRMC,081406.000,A,5541.1942,N,03737.2889,E,0.53,270.91,260514,,,A*74
$GPZDA,081406.000,26,05,2014,,*5B
$GPGGA,081407.000,5541.1945,N,03737.2892,E,1,6,2.56,66.0,M,14.5,M,,*6C
$GNGSA,A,3,03,19,27,13,,,,,,,,,2.75,2.56,1.00*10
$GNGSA,A,3,88,87,,,,,,,,,,,2.75,2.56,1.00*13
$GNRMC,081407.000,A,5541.1945,N,03737.2892,E,0.52,278.23,260514,,,A*78
$GPZDA,081407.000,26,05,2014,,*5A
$GPGGA,081408.000,5541.1946,N,03737.2891,E,1,6,2.56,66.0,M,14.5,M,,*63
$GNGSA,A,3,03,19,27,13,,,,,,,,,2.75,2.56,1.00*10
$GNGSA,A,3,88,87,,,,,,,,,,,2.75,2.56,1.00*13
$GNRMC,081408.000,A,5541.1946,N,03737.2891,E,0.51,281.62,260514,,,A*77
$GPZDA,081408.000,26,05,2014,,*55
$GPGGA,081409.000,5541.1949,N,03737.2889,E,1,6,2.56,66.1,M,14.5,M,,*65
$GNGSA,A,3,03,19,27,13,,,,,,,,,2.75,2.56,1.00*10
$GNGSA,A,3,88,87,,,,,,,,,,,2.75,2.56,1.00*13
$GNRMC,081409.000,A,5541.1949,N,03737.2889,E,0.52,289.59,260514,,,A*73
$GPZDA,081409.000,26,05,2014,,*54
$GPGGA,081410.000,5541.1952,N,03737.2877,E,1,6,2.56,66.1,M,14.5,M,,*66
$GNGSA,A,3,03,19,27,13,,,,,,,,,2.75,2.56,1.00*10
$GNGSA,A,3,88,87,,,,,,,,,,,2.75,2.56,1.00*13
$GNRMC,081410.000,A,5541.1952,N,03737.2877,E,0.59,295.59,260514,,,A*76
$GPZDA,081410.000,26,05,2014,,*5C
$GPGSV,3,1,12,08,88,068,,07,59,081,23,28,41,187,,05,40,260,*79
$GPGSV,3,2,12,26,36,297,,03,27,059,15,19,24,074,18,27,19,040,23*74
$GPGSV,3,3,12,10,19,202,,13,15,129,20,21,06,346,,15,04,306,*7C
$GLGSV,3,1,10,79,81,336,,69,50,211,,70,47,307,,78,33,058,*6D
$GLGSV,3,2,10,80,30,251,,88,24,068,23,87,19,015,12,68,07,177,*69
$GLGSV,3,3,10,71,06,339,,81,03,117,26*64
$GPGGA,081411.000,5541.1955,N,03737.2872,E,1,6,2.56,66.1,M,14.5,M,,*65
$GNGSA,A,3,03,19,27,13,,,,,,,,,2.75,2.56,1.00*10
$GNGSA,A,3,88,87,,,,,,,,,,,2.75,2.56,1.00*13
$GNRMC,081411.000,A,5541.1955,N,03737.2872,E,0.60,301.29,260514,,,A*74
$GPZDA,081411.000,26,05,2014,,*5D
$GPGGA,081412.000,5541.1956,N,03737.2877,E,1,5,4.87,66.2,M,14.5,M,,*6A
$GNGSA,A,3,03,19,27,13,,,,,,,,,4.97,4.87,1.00*10
$GNGSA,A,3,88,,,,,,,,,,,,4.97,4.87,1.00*1C
$GNRMC,081412.000,A,5541.1956,N,03737.2877,E,0.52,301.26,260514,,,A*7F
$GPZDA,081412.000,26,05,2014,,*5E
$GPGGA,081413.000,5541.1959,N,03737.2894,E,1,5,4.87,66.2,M,14.5,M,,*69
$GNGSA,A,3,03,19,27,13,,,,,,,,,4.98,4.87,1.00*1F
$GNGSA,A,3,88,,,,,,,,,,,,4.98,4.87,1.00*13
$GNRMC,081413.000,A,5541.1959,N,03737.2894,E,0.46,308.99,260514,,,A*74
$GPZDA,081413.000,26,05,2014,,*5F
$GPGGA,081414.000,5541.1961,N,03737.2908,E,1,6,2.56,66.2,M,14.5,M,,*68
$GNGSA,A,3,03,19,27,13,,,,,,,,,2.75,2.56,1.00*10
$GNGSA,A,3,88,87,,,,,,,,,,,2.75,2.56,1.00*13
$GNRMC,081414.000,A,5541.1961,N,03737.2908,E,0.41,320.05,260514,,,A*74
$GPZDA,081414.000,26,05,2014,,*58
$GPGGA,081415.000,5541.1965,N,03737.2923,E,1,6,2.56,66.2,M,14.5,M,,*64
$GNGSA,A,3,03,19,27,13,,,,,,,,,2.75,2.56,1.00*10
$GNGSA,A,3,88,87,,,,,,,,,,,2.75,2.56,1.00*13
$GNRMC,081415.000,A,5541.1965,N,03737.2923,E,0.39,332.00,260514,,,A*71
$GPZDA,081415.000,26,05,2014,,*59
$GPGSV,3,1,12,08,88,068,,07,59,081,24,28,41,187,,05,40,260,*7E
$GPGSV,3,2,12,26,36,297,,03,27,059,14,19,24,073,16,27,19,040,23*7C
$GPGSV,3,3,12,10,19,202,,13,15,129,23,21,06,346,,15,04,307,*7E
$GLGSV,3,1,10,79,81,336,,69,50,211,,70,47,307,,78,33,058,*6D
$GLGSV,3,2,10,80,30,251,,88,24,068,23,87,19,015,17,68,07,177,*6C
$GLGSV,3,3,10,71,06,339,,81,03,117,27*65
$GPGGA,081416.000,5541.1967,N,03737.2926,E,1,6,2.56,66.2,M,14.5,M,,*60
$GNGSA,A,3,03,19,27,13,,,,,,,,,2.75,2.56,1.00*10
$GNGSA,A,3,88,87,,,,,,,,,,,2.75,2.56,1.00*13
$GNRMC,081416.000,A,5541.1967,N,03737.2926,E,0.39,333.53,260514,,,A*72
$GPZDA,081416.000,26,05,2014,,*5A
$GPGGA,081417.000,5541.1969,N,03737.2928,E,1,6,2.56,66.2,M,14.5,M,,*61
$GNGSA,A,3,03,19,27,13,,,,,,,,,2.75,2.56,1.00*10
$GNGSA,A,3,88,87,,,,,,,,,,,2.75,2.56,1.00*13
$GNRMC,081417.000,A,5541.1969,N,03737.2928,E,0.40,336.16,260514,,,A*79
$GPZDA,081417.000,26,05,2014,,*5B
$GPGGA,081418.000,5541.1971,N,03737.2934,E,1,6,2.56,66.2,M,14.5,M,,*6A
$GNGSA,A,3,03,19,27,13,,,,,,,,,2.75,2.56,1.00*10
$GNGSA,A,3,88,87,,,,,,,,,,,2.75,2.56,1.00*13
$GNRMC,081418.000,A,5541.1971,N,03737.2934,E,0.39,345.22,260514,,,A*7F
$GPZDA,081418.000,26,05,2014,,*54
$GPGGA,081419.000,5541.1973,N,03737.2934,E,1,6,4.54,66.2,M,14.5,M,,*6D
$GNGSA,A,3,03,19,27,13,,,,,,,,,13.09,4.54,12.28*17
$GNGSA,A,3,88,87,,,,,,,,,,,13.09,4.54,12.28*14
$GNRMC,081419.000,A,5541.1973,N,03737.2934,E,0.40,342.94,260514,,,A*78
$GPZDA,081419.000,26,05,2014,,*55
$GPGGA,081420.000,,,,,0,0,,,M,,M,,*47
$GNGSA,A,1,,,,,,,,,,,,,,,*00
$GNGSA,A,1,,,,,,,,,,,,,,,*00
$GNRMC,081420.000,V,,,,,0.00,340.16,260514,,,N*58
$GPZDA,081420.000,26,05,2014,,*5F
$GPGSV,3,1,12,08,88,068,,07,59,081,23,28,41,187,,05,40,260,*79
$GPGSV,3,2,12,26,36,297,,03,27,059,14,19,24,073,14,27,19,040,23*7E
$GPGSV,3,3,12,10,19,202,,13,15,129,23,21,06,345,,15,04,307,*7D
$GLGSV,3,1,10,79,81,336,,69,50,211,,70,47,307,,78,33,058,*6D
$GLGSV,3,2,10,80,30,251,,88,24,068,24,87,19,015,17,68,07,177,*6B
$GLGSV,3,3,10,71,06,339,,81,03,117,26*64
$GPGGA,081421.000,,,,,0,0,,,M,,M,,*46
$GNGSA,A,1,,,,,,,,,,,,,,,*00
$GNGSA,A,1,,,,,,,,,,,,,,,*00
$GNRMC,081421.000,V,,,,,0.00,357.84,260514,,,N*54
$GPZDA,081421.000,26,05,2014,,*5E
$GPGGA,081422.000,,,,,0,0,,,M,,M,,*45
$GNGSA,A,1,,,,,,,,,,,,,,,*00
$GNGSA,A,1,,,,,,,,,,,,,,,*00
$GNRMC,081422.000,V,,,,,0.00,8.60,260514,,,N*54
$GPZDA,081422.000,26,05,2014,,*5D
$GPGGA,081423.000,,,,,0,0,,,M,,M,,*44
$GNGSA,A,1,,,,,,,,,,,,,,,*00
$GNGSA,A,1,,,,,,,,,,,,,,,*00
$GNRMC,081423.000,V,,,,,0.00,8.60,260514,,,N*55
$GPZDA,081423.000,26,05,2014,,*5C
$GPGGA,081424.000,,,,,0,0,,,M,,M,,*43
$GNGSA,A,1,,,,,,,,,,,,,,,*00
$GNGSA,A,1,,,,,,,,,,,,,,,*00
$GNRMC,081424.000,V,,,,,0.00,8.60,260514,,,N*52
$GPZDA,081424.000,26,05,2014,,*5B
$GPGGA,081425.000,,,,,0,0,,,M,,M,,*42
$GNGSA,A,1,,,,,,,,,,,,,,,*00
$GNGSA,A,1,,,,,,,,,,,,,,,*00
$GNRMC,081425.000,V,,,,,0.00,8.60,260514,,,N*53
$GPZDA,081425.000,26,05,2014,,*5A
$GPGSV,3,1,12,08,88,068,,07,59,081,23,28,41,187,,05,40,260,*79
$GPGSV,3,2,12,26,37,297,,03,27,059,14,19,24,073,15,27,19,039,22*71
$GPGSV,3,3,12,10,19,202,,13,15,129,23,21,06,345,,15,04,307,*7D
$GLGSV,3,1,10,79,81,336,,69,50,211,,70,47,307,,78,33,058,*6D
$GLGSV,3,2,10,80,30,251,,88,24,068,25,87,19,015,16,68,07,177,*6B
$GLGSV,3,3,10,71,06,339,,81,03,117,27*65
$GPGGA,081426.000,,,,,0,0,,,M,,M,,*41
$GNGSA,A,1,,,,,,,,,,,,,,,*00
$GNGSA,A,1,,,,,,,,,,,,,,,*00
$GNRMC,081426.000,V,,,,,0.00,8.60,260514,,,N*50
$GPZDA,081426.000,26,05,2014,,*59
$GPGGA,081427.000,,,,,0,0,,,M,,M,,*40
$GNGSA,A,1,,,,,,,,,,,,,,,*00
$GNGSA,A,1,,,,,,,,,,,,,,,*00
$GNRMC,081427.000,V,,,,,0.00,8.60,260514,,,N*51
$GPZDA,081427.000,26,05,2014,,*58
$GPGGA,081428.000,,,,,0,0,,,M,,M,,*4F
$GNGSA,A,1,,,,,,,,,,,,,,,*00
$GNGSA,A,1,,,,,,,,,,,,,,,*00
$GNRMC,081428.000,V,,,,,0.00,8.60,260514,,,N*5E
$GPZDA,081428.000,26,05,2014,,*57
$GPGGA,081429.000,,,,,0,0,,,M,,M,,*4E
$GNGSA,A,1,,,,,,,,,,,,,,,*00
$GNGSA,A,1,,,,,,,,,,,,,,,*00
$GNRMC,081429.000,V,,,,,0.00,8.60,260514,,,N*5F
$GPZDA,081429.000,26,05,2014,,*56
$GPGGA,081430.000,,,,,0,0,,,M,,M,,*46
$GNGSA,A,1,,,,,,,,,,,,,,,*00
$GNGSA,A,1,,,,,,,,,,,,,,,*00
$GNRMC,081430.000,V,,,,,0.00,8.60,260514,,,N*57
$GPZDA,081430.000,26,05,2014,,*5E
$GPGSV,3,1,12,08,88,068,,07,59,081,21,28,41,187,,05,40,260,*7B
$GPGSV,3,2,12,26,37,297,,03,27,059,13,19,24,073,19,27,19,039,23*7B
$GPGSV,3,3,12,10,19,202,,13,15,129,22,21,06,345,,15,04,307,*7C
$GLGSV,3,1,10,79,81,336,,69,50,211,,70,47,307,,78,33,058,*6D
$GLGSV,3,2,10,80,30,251,,88,24,068,24,87,19,015,16,68,07,177,*6A
$GLGSV,3,3,10,71,06,339,,81,03,117,27*65
$GPGGA,081431.000,,,,,0,0,,,M,,M,,*47
$GNGSA,A,1,,,,,,,,,,,,,,,*00
$GNGSA,A,1,,,,,,,,,,,,,,,*00
$GNRMC,081431.000,V,,,,,0.00,8.60,260514,,,N*56
$GPZDA,081431.000,26,05,2014,,*5F
$GPGGA,081432.000,,,,,0,0,,,M,,M,,*44
$GNGSA,A,1,,,,,,,,,,,,,,,*00
$GNGSA,A,1,,,,,,,,,,,,,,,*00
$GNRMC,081432.000,V,,,,,0.00,8.60,260514,,,N*55
$GPZDA,081432.000,26,05,2014,,*5C
$GPGGA,081433.000,,,,,0,0,,,M,,M,,*45
$GNGSA,A,1,,,,,,,,,,,,,,,*00
$GNGSA,A,1,,,,,,,,,,,,,,,*00
$GNRMC,081433.000,V,,,,,0.00,8.60,260514,,,N*54
$GPZDA,081433.000,26,05,2014,,*5D
$GPGGA,081434.000,,,,,0,0,,,M,,M,,*42
$GNGSA,A,1,,,,,,,,,,,,,,,*00
$GNGSA,A,1,,,,,,,,,,,,,,,*00
$GNRMC,081434.000,V,,,,,0.00,8.60,260514,,,N*53
$GPZDA,081434.000,26,05,2014,,*5A
$GPGGA,081435.000,,,,,0,0,,,M,,M,,*43
$GNGSA,A,1,,,,,,,,,,,,,,,*00
$GNGSA,A,1,,,,,,,,,,,,,,,*00
$GNRMC,081435.000,V,,,,,0.00,8.60,260514,,,N*52
$GPZDA,081435.000,26,05,2014,,*5B
$GPGSV,3,1,12,08,88,068,,07,59,081,20,28,41,187,,05,40,260,*7A
$GPGSV,3,2,12,26,37,297,,03,27,059,15,19,24,073,18,27,19,039,23*7C
$GPGSV,3,3,12,10,19,202,,13,15,129,22,21,06,345,,15,04,307,*7C
$GLGSV,3,1,10,79,81,336,,69,50,211,,70,47,307,,78,33,058,*6D
$GLGSV,3,2,10,80,30,251,,88,24,068,23,87,19,015,16,68,07,177,*6D
$GLGSV,3,3,10,71,06,339,,81,03,117,27*65
$GPGGA,081436.000,,,,,0,0,,,M,,M,,*40
$GNGSA,A,1,,,,,,,,,,,,,,,*00
$GNGSA,A,1,,,,,,,,,,,,,,,*00
$GNRMC,081436.000,V,,,,,0.00,8.60,260514,,,N*51
$GPZDA,081436.000,26,05,2014,,*58
$GPGGA,081437.000,,,,,0,0,,,M,,M,,*41
$GNGSA,A,1,,,,,,,,,,,,,,,*00
$GNGSA,A,1,,,,,,,,,,,,,,,*00
$GNRMC,081437.000,V,,,,,0.00,8.60,260514,,,N*50
$GPZDA,081437.000,26,05,2014,,*59
$GPGGA,081438.000,,,,,0,0,,,M,,M,,*4E
$GNGSA,A,1,,,,,,,,,,,,,,,*00
$GNGSA,A,1,,,,,,,,,,,,,,,*00
$GNRMC,081438.000,V,,,,,0.00,8.60,260514,,,N*5F
$GPZDA,081438.000,26,05,2014,,*56
$GPGGA,081439.000,,,,,0,0,,,M,,M,,*4F
$GNGSA,A,1,,,,,,,,,,,,,,,*00
$GNGSA,A,1,,,,,,,,,,,,,,,*00
$GNRMC,081439.000,V,,,,,0.00,8.60,260514,,,N*5E
$GPZDA,081439.000,26,05,2014,,*57
$GPGGA,081440.000,,,,,0,0,,,M,,M,,*41
$GNGSA,A,1,,,,,,,,,,,,,,,*00
$GNGSA,A,1,,,,,,,,,,,,,,,*00
$GNRMC,081440.000,V,,,,,0.00,8.60,260514,,,N*50
$GPZDA,081440.000,26,05,2014,,*59
$GPGSV,3,1,12,08,88,068,,07,59,081,20,28,41,187,,05,40,260,*7A
$GPGSV,3,2,12,26,37,297,,03,27,059,15,19,24,073,18,27,19,039,23*7C
$GPGSV,3,3,12,10,19,202,,13,15,129,22,21,06,345,,15,04,307,*7C
$GLGSV,3,1,10,79,81,336,,69,50,211,,70,47,307,,78,33,058,*6D
$GLGSV,3,2,10,80,30,251,,88,24,068,21,87,19,015,16,68,07,177,*6F
$GLGSV,3,3,10,71,06,339,,81,03,117,28*6A
$GPGGA,081441.000,,,,,0,0,,,M,,M,,*40
$GNGSA,A,1,,,,,,,,,,,,,,,*00
$GNGSA,A,1,,,,,,,,,,,,,,,*00
$GNRMC,081441.000,V,,,,,0.42,357.14,260514,,,N*5D
$GPZDA,081441.000,26,05,2014,,*58
$GPGGA,081442.000,,,,,0,0,,,M,,M,,*43
$GNGSA,A,1,,,,,,,,,,,,,,,*00
$GNGSA,A,1,,,,,,,,,,,,,,,*00
$GNRMC,081442.000,V,,,,,0.46,350.72,260514,,,N*5D
$GPZDA,081442.000,26,05,2014,,*5B
$GPGGA,081443.000,,,,,0,0,,,M,,M,,*42
$GNGSA,A,1,,,,,,,,,,,,,,,*00
$GNGSA,A,1,,,,,,,,,,,,,,,*00
$GNRMC,081443.000,V,,,,,0.46,347.53,260514,,,N*59
$GPZDA,081443.000,26,05,2014,,*5A
$GPGGA,081444.000,,,,,0,0,,,M,,M,,*45
$GNGSA,A,1,,,,,,,,,,,,,,,*00
$GNGSA,A,1,,,,,,,,,,,,,,,*00
$GNRMC,081444.000,V,,,,,0.42,346.54,260514,,,N*5C
$GPZDA,081444.000,26,05,2014,,*5D
$GPGGA,081445.000,,,,,0,0,,,M,,M,,*44
$GNGSA,A,1,,,,,,,,,,,,,,,*00
$GNGSA,A,1,,,,,,,,,,,,,,,*00
$GNRMC,081445.000,V,,,,,0.40,344.77,260514,,,N*5C
$GPZDA,081445.000,26,05,2014,,*5C
$GPGSV,3,1,12,08,88,068,,07,59,081,21,28,41,187,,05,40,260,*7B
$GPGSV,3,2,12,26,37,297,,03,27,059,14,19,24,073,17,27,19,039,23*72
$GPGSV,3,3,12,10,19,202,,13,15,129,23,21,06,345,,15,04,307,*7D
$GLGSV,3,1,10,79,81,336,,69,50,211,,70,47,307,,78,33,058,*6D
$GLGSV,3,2,10,80,30,251,,88,24,068,19,87,19,015,14,68,07,177,*66
$GLGSV,3,3,10,71,06,339,,81,03,117,28*6A
$GPGGA,081446.000,,,,,0,0,,,M,,M,,*47
$GNGSA,A,1,,,,,,,,,,,,,,,*00
$GNGSA,A,1,,,,,,,,,,,,,,,*00
$GNRMC,081446.000,V,,,,,0.40,346.86,260514,,,N*53
$GPZDA,081446.000,26,05,2014,,*5F
$GPGGA,081447.000,,,,,0,0,,,M,,M,,*46
$GNGSA,A,1,,,,,,,,,,,,,,,*00
$GNGSA,A,1,,,,,,,,,,,,,,,*00
$GNRMC,081447.000,V,,,,,0.40,351.29,260514,,,N*51
$GPZDA,081447.000,26,05,2014,,*5E
$GPGGA,081448.000,,,,,0,0,,,M,,M,,*49
$GNGSA,A,1,,,,,,,,,,,,,,,*00
$GNGSA,A,1,,,,,,,,,,,,,,,*00
$GNRMC,081448.000,V,,,,,0.00,346.37,260514,,,N*53
$GPZDA,081448.000,26,05,2014,,*51
$GPGGA,081449.000,,,,,0,0,,,M,,M,,*48
$GNGSA,A,1,,,,,,,,,,,,,,,*00
$GNGSA,A,1,,,,,,,,,,,,,,,*00
$GNRMC,081449.000,V,,,,,0.00,349.38,260514,,,N*52
$GPZDA,081449.000,26,05,2014,,*50
$GPGGA,081450.000,,,,,0,0,,,M,,M,,*40
$GNGSA,A,1,,,,,,,,,,,,,,,*00
$GNGSA,A,1,,,,,,,,,,,,,,,*00
$GNRMC,081450.000,V,,,,,0.00,347.19,260514,,,N*57
$GPZDA,081450.000,26,05,2014,,*58
$GPGSV,3,1,12,08,88,068,,07,59,081,20,28,41,187,,05,40,260,*7A
$GPGSV,3,2,12,26,37,297,,03,27,059,16,19,24,073,15,27,19,039,23*72
$GPGSV,3,3,12,10,19,202,,13,15,129,21,21,06,345,,15,04,307,*7F
$GLGSV,3,1,10,79,81,336,,69,50,211,,70,47,307,,78,33,058,*6D
$GLGSV,3,2,10,80,30,251,,88,24,068,18,87,19,015,11,68,07,177,*62
$GLGSV,3,3,10,71,06,339,,81,03,117,27*65
$GPGGA,081451.000,,,,,0,0,,,M,,M,,*41
$GNGSA,A,1,,,,,,,,,,,,,,,*00
$GNGSA,A,1,,,,,,,,,,,,,,,*00
$GNRMC,081451.000,V,,,,,0.00,347.19,260514,,,N*56
$GPZDA,081451.000,26,05,2014,,*59
$GPGGA,081452.000,,,,,0,0,,,M,,M,,*42
$GNGSA,A,1,,,,,,,,,,,,,,,*00
$GNGSA,A,1,,,,,,,,,,,,,,,*00
$GNRMC,081452.000,V,,,,,0.00,347.19,260514,,,N*55
$GPZDA,081452.000,26,05,2014,,*5A
$GPGGA,081453.000,,,,,0,0,,,M,,M,,*43
$GNGSA,A,1,,,,,,,,,,,,,,,*00
$GNGSA,A,1,,,,,,,,,,,,,,,*00
$GNRMC,081453.000,V,,,,,0.00,347.19,260514,,,N*54
$GPZDA,081453.000,26,05,2014,,*5B
$GPGGA,081454.000,,,,,0,0,,,M,,M,,*44
$GNGSA,A,1,,,,,,,,,,,,,,,*00
$GNGSA,A,1,,,,,,,,,,,,,,,*00
$GNRMC,081454.000,V,,,,,0.00,347.19,260514,,,N*53
$GPZDA,081454.000,26,05,2014,,*5C
$GPGGA,081455.000,,,,,0,0,,,M,,M,,*45
