# Name: GlobalSat BU-353-S4
# Chipset = SiRF-IV
# Firmware = ?-GSD4e_4.0.4-P1_RPATCH.07-GS008-F-GPS-4R-1201128 01/12/2012 012
# Date = 2014-12-31
# Submitter = Paul Beard <paulbeard@paulbeard.name>
# Location = Hamilton, Waikato, 37.8S 175.3E
$GPGGA,030719.000,3747.0873,S,17518.8938,E,1,08,1.1,59.9,M,23.7,M,,0000*7D
$GPGSA,A,3,17,28,06,01,30,20,26,13,,,,,1.8,1.1,1.5*33
$GPRMC,030719.000,A,3747.0873,S,17518.8938,E,0.69,181.39,311214,,,A*7D
$GPGGA,030720.000,3747.0875,S,17518.8938,E,1,08,1.1,59.8,M,23.7,M,,0000*70
$GPGSA,A,3,17,28,06,01,30,20,26,13,,,,,1.8,1.1,1.5*33
$GPRMC,030720.000,A,3747.0875,S,17518.8938,E,1.15,181.39,311214,,,A*7B
$GPGGA,030721.000,3747.0876,S,17518.8934,E,1,08,1.1,60.1,M,23.7,M,,0000*7D
$GPGSA,A,3,17,28,06,01,30,20,26,13,,,,,1.8,1.1,1.5*33
$GPGSV,3,1,12,17,72,207,32,28,59,095,31,06,35,347,25,01,29,132,23*7B
$GPGSV,3,2,12,30,23,011,29,20,17,069,20,26,09,293,23,13,07,304,10*7C
$GPGSV,3,3,12,11,12,132,04,08,38,008,,02,35,348,,03,14,091,*73
$GPRMC,030721.000,A,3747.0876,S,17518.8934,E,0.89,181.39,311214,,,A*71
$GPGGA,030722.000,3747.0877,S,17518.8933,E,1,08,1.1,60.1,M,23.7,M,,0000*78
$GPGSA,A,3,17,28,06,01,30,20,26,13,,,,,1.8,1.1,1.5*33
$GPRMC,030722.000,A,3747.0877,S,17518.8933,E,0.12,181.39,311214,,,A*76
$GPGGA,030723.000,3747.0878,S,17518.8935,E,1,08,1.1,60.0,M,23.7,M,,0000*71
$GPGSA,A,3,17,28,06,01,30,20,26,13,,,,,1.8,1.1,1.5*33
$GPRMC,030723.000,A,3747.0878,S,17518.8935,E,0.66,181.39,311214,,,A*7D
$GPGGA,030724.000,3747.0878,S,17518.8936,E,1,08,1.1,60.1,M,23.7,M,,0000*74
$GPGSA,A,3,17,28,06,01,30,20,26,13,,,,,1.8,1.1,1.5*33
$GPRMC,030724.000,A,3747.0878,S,17518.8936,E,0.32,181.39,311214,,,A*78
$GPGGA,030725.000,3747.0878,S,17518.8936,E,1,08,1.1,60.2,M,23.7,M,,0000*76
$GPGSA,A,3,17,28,06,01,30,20,26,13,,,,,1.8,1.1,1.5*33
$GPRMC,030725.000,A,3747.0878,S,17518.8936,E,0.00,181.39,311214,,,A*78
$GPGGA,030726.000,3747.0877,S,17518.8936,E,1,08,1.1,60.6,M,23.7,M,,0000*7E
$GPGSA,A,3,17,28,06,01,30,20,26,13,,,,,1.8,1.1,1.5*33
$GPGSV,3,1,12,17,72,207,32,28,59,095,30,06,35,347,25,01,29,132,23*7A
$GPGSV,3,2,12,30,23,011,29,20,17,069,20,26,09,293,23,13,07,304,10*7C
$GPGSV,3,3,12,11,12,132,04,08,38,008,,02,35,348,,03,14,091,*73
$GPRMC,030726.000,A,3747.0877,S,17518.8936,E,0.59,181.39,311214,,,A*78
$GPGGA,030727.000,3747.0877,S,17518.8938,E,1,08,1.1,60.8,M,23.7,M,,0000*7F
$GPGSA,A,3,17,28,06,01,30,20,26,13,,,,,1.8,1.1,1.5*33
$GPRMC,030727.000,A,3747.0877,S,17518.8938,E,0.29,181.39,311214,,,A*70
$GPGGA,030728.000,3747.0878,S,17518.8940,E,1,08,1.1,60.5,M,23.7,M,,0000*7D
$GPGSA,A,3,17,28,06,01,30,20,26,13,,,,,1.8,1.1,1.5*33
$GPRMC,030728.000,A,3747.0878,S,17518.8940,E,0.52,181.39,311214,,,A*73
$GPGGA,030729.000,3747.0879,S,17518.8942,E,1,08,1.1,60.7,M,23.7,M,,0000*7D
$GPGSA,A,3,17,28,06,01,30,20,26,13,,,,,1.8,1.1,1.5*33
$GPRMC,030729.000,A,3747.0879,S,17518.8942,E,0.48,181.39,311214,,,A*7A
$GPGGA,030730.000,3747.0878,S,17518.8942,E,1,07,1.1,60.5,M,23.7,M,,0000*79
$GPGSA,A,3,17,28,06,01,30,20,26,,,,,,1.9,1.1,1.6*33
$GPRMC,030730.000,A,3747.0878,S,17518.8942,E,0.72,181.39,311214,,,A*7A
$GPGGA,030731.000,3747.0877,S,17518.8941,E,1,07,1.1,60.5,M,23.7,M,,0000*74
$GPGSA,A,3,17,28,06,01,30,20,26,,,,,,1.9,1.1,1.6*33
$GPGSV,3,1,12,17,71,207,32,28,59,095,30,06,36,347,25,01,29,132,23*7A
$GPGSV,3,2,12,30,23,011,29,20,17,070,19,26,08,293,24,13,07,305,07*7F
$GPGSV,3,3,12,08,38,008,,02,35,348,,03,15,091,,24,12,219,*7A
$GPRMC,030731.000,A,3747.0877,S,17518.8941,E,0.47,181.39,311214,,,A*71
$GPGGA,030732.000,3747.0876,S,17518.8940,E,1,07,1.1,60.4,M,23.7,M,,0000*76
$GPGSA,A,3,17,28,06,01,30,20,26,,,,,,1.9,1.1,1.6*33
$GPRMC,030732.000,A,3747.0876,S,17518.8940,E,0.43,181.39,311214,,,A*76
$GPGGA,030733.000,3747.0876,S,17518.8941,E,1,07,1.1,60.2,M,23.7,M,,0000*70
$GPGSA,A,3,17,28,06,01,30,20,26,,,,,,1.9,1.1,1.6*33
$GPRMC,030733.000,A,3747.0876,S,17518.8941,E,0.23,181.39,311214,,,A*70
$GPGGA,030734.000,3747.0876,S,17518.8941,E,1,07,1.1,60.0,M,23.7,M,,0000*75
$GPGSA,A,3,17,28,06,01,30,20,26,,,,,,1.9,1.1,1.6*33
$GPRMC,030734.000,A,3747.0876,S,17518.8941,E,0.51,181.39,311214,,,A*72
$GPGGA,030735.000,3747.0876,S,17518.8941,E,1,07,1.1,60.0,M,23.7,M,,0000*74
$GPGSA,A,3,17,28,06,01,30,20,26,,,,,,1.9,1.1,1.6*33
$GPRMC,030735.000,A,3747.0876,S,17518.8941,E,0.00,181.39,311214,,,A*77
$GPGGA,030736.000,3747.0876,S,17518.8941,E,1,07,1.1,60.0,M,23.7,M,,0000*77
$GPGSA,A,3,17,28,06,01,30,20,26,,,,,,1.9,1.1,1.6*33
$GPGSV,3,1,12,17,71,207,32,28,59,095,30,06,36,347,25,01,29,132,23*7A
$GPGSV,3,2,12,30,23,011,29,20,17,070,19,26,08,293,24,13,07,305,04*7C
$GPGSV,3,3,12,08,38,008,,02,35,348,,03,15,091,,24,12,219,*7A
$GPRMC,030736.000,A,3747.0876,S,17518.8941,E,0.00,181.39,311214,,,A*74
$GPGGA,030737.000,3747.0877,S,17518.8942,E,1,07,1.1,60.0,M,23.7,M,,0000*74
$GPGSA,A,3,17,28,06,01,30,20,26,,,,,,1.9,1.1,1.6*33
$GPRMC,030737.000,A,3747.0877,S,17518.8942,E,0.25,181.39,311214,,,A*70
$GPGGA,030738.000,3747.0877,S,17518.8942,E,1,07,1.1,60.0,M,23.7,M,,0000*7B
$GPGSA,A,3,17,28,06,01,30,20,26,,,,,,1.9,1.1,1.6*33
$GPRMC,030738.000,A,3747.0877,S,17518.8942,E,0.00,181.39,311214,,,A*78
$GPGGA,030739.000,3747.0877,S,17518.8942,E,1,07,1.1,60.0,M,23.7,M,,0000*7A
$GPGSA,A,3,17,28,06,01,30,20,26,,,,,,1.9,1.1,1.6*33
$GPRMC,030739.000,A,3747.0877,S,17518.8942,E,0.00,181.39,311214,,,A*79
$GPGGA,030740.000,3747.0877,S,17518.8942,E,1,07,1.1,60.2,M,23.7,M,,0000*76
$GPGSA,A,3,17,28,06,01,30,20,26,,,,,,1.9,1.1,1.6*33
$GPRMC,030740.000,A,3747.0877,S,17518.8942,E,0.26,181.39,311214,,,A*73
$GPGGA,030741.000,3747.0877,S,17518.8941,E,1,07,1.1,60.2,M,23.7,M,,0000*74
$GPGSA,A,3,17,28,06,01,30,20,26,,,,,,1.9,1.1,1.6*33
$GPGSV,3,1,12,17,71,207,31,28,59,095,30,06,36,347,26,01,29,132,23*7A
$GPGSV,3,2,12,30,23,011,29,20,17,070,18,26,08,293,24,13,07,305,04*7D
$GPGSV,3,3,12,08,38,008,,02,35,348,,03,15,091,,24,12,219,*7A
$GPRMC,030741.000,A,3747.0877,S,17518.8941,E,0.00,181.39,311214,,,A*75
$GPGGA,030742.000,3747.0877,S,17518.8941,E,1,07,1.1,60.2,M,23.7,M,,0000*77
$GPGSA,A,3,17,28,06,01,30,20,26,,,,,,1.9,1.1,1.6*33
$GPRMC,030742.000,A,3747.0877,S,17518.8941,E,0.00,181.39,311214,,,A*76
$GPGGA,030743.000,3747.0877,S,17518.8941,E,1,07,1.1,60.2,M,23.7,M,,0000*76
$GPGSA,A,3,17,28,06,01,30,20,26,,,,,,1.9,1.1,1.6*33
$GPRMC,030743.000,A,3747.0877,S,17518.8941,E,0.00,181.39,311214,,,A*77
