$SDDPT,5.3,0.4,*79
$SDHDG,229.8,,,1.3,E*36
$SDMTW,,C*1A
$SDVLW,,N,545.6,N,1109.4,N,393.6,N*44
$SDVHW,231.3,T,229.9,M,6.6,N,12.3,K*71
$WIMWD,328.2,T,326.8,M,11.2,N,5.8,M*61
$WIMWV,57.5,R,13.0,N,A*26
$WIMWV,96.6,T,11.2,N,A*2E
$IIXDR,C,,C,AIRTEMP,A,-1.0,D,HEEL,A,2.9,D,TRIM,P,,B,BARO,A,-3.9,D,RUDDER*29
$SDHDG,230.0,,,1.3,E*36
$SDHDG,230.3,,,1.3,E*35
$SDHDG,230.6,,,1.3,E*30
$SDHDG,230.9,,,1.3,E*3F
$SDHDG,231.2,,,1.3,E*35
$GPGGA,094736,5251.0094,N,00518.8172,E,1,12,0.60,-4,M,46.8,M,,*4B
{"class":"TPV","mode":3,"lat":52.850156667,"lon":5.313620000,"altHAE":42.800,"altMSL":-4.000,"magvar":1.6,"geoidSep":46.800,"eph":11.400}
$GPGLC,9960,,,,,,,,,,,,*75
$GPGLL,5251.0093,N,00518.8170,E,094736,A,A*43
{"class":"TPV","mode":3,"lat":52.850155000,"lon":5.313616667,"altHAE":42.800,"altMSL":-4.000,"magvar":1.6,"geoidSep":46.800,"eph":11.400}
$GPGSA,A,3,07,08,10,16,20,21,26,27,29,76,75,70,1.10,0.60,0.90*0B
{"class":"TPV","mode":3,"lat":52.850155000,"lon":5.313616667,"altHAE":42.800,"altMSL":-4.000,"epv":20.700,"magvar":1.6,"geoidSep":46.800,"eph":11.400,"sep":20.900}
$GPGSV,3,1,12,07,10,333,39,08,12,279,35,10,16,158,33,16,74,249,37*73
$GPGSV,3,2,12,20,36,138,34,21,66,078,39,26,57,179,33,27,45,281,38*7A
$GPGSV,3,3,12,29,11,091,46,76,48,226,32,75,14,188,27,70,27,083,31*79
{"class":"SKY","xdop":0.50,"ydop":0.59,"vdop":0.90,"tdop":0.60,"hdop":0.60,"gdop":1.40,"pdop":1.10,"satellites":[{"PRN":7,"el":10.0,"az":333.0,"ss":39.0,"used":true,"gnssid":0,"svid":7},{"PRN":8,"el":12.0,"az":279.0,"ss":35.0,"used":true,"gnssid":0,"svid":8},{"PRN":10,"el":16.0,"az":158.0,"ss":33.0,"used":true,"gnssid":0,"svid":10},{"PRN":16,"el":74.0,"az":249.0,"ss":37.0,"used":true,"gnssid":0,"svid":16},{"PRN":20,"el":36.0,"az":138.0,"ss":34.0,"used":true,"gnssid":0,"svid":20},{"PRN":21,"el":66.0,"az":78.0,"ss":39.0,"used":true,"gnssid":0,"svid":21},{"PRN":26,"el":57.0,"az":179.0,"ss":33.0,"used":true,"gnssid":0,"svid":26},{"PRN":27,"el":45.0,"az":281.0,"ss":38.0,"used":true,"gnssid":0,"svid":27},{"PRN":29,"el":11.0,"az":91.0,"ss":46.0,"used":true,"gnssid":0,"svid":29},{"PRN":76,"el":48.0,"az":226.0,"ss":32.0,"used":true,"gnssid":6,"svid":12},{"PRN":75,"el":14.0,"az":188.0,"ss":27.0,"used":true,"gnssid":6,"svid":11},{"PRN":70,"el":27.0,"az":83.0,"ss":31.0,"used":true,"gnssid":6,"svid":6}]}
$SDHDG,231.5,,,1.3,E*32
$GPRMC,094737,A,5251.0093,N,00518.8170,E,5.6,230.5,200818,1.4,E,A*1F
$GPVTG,230.5,T,229.1,M,5.6,N,10.4,K,A*19
$GPZDA,094737,20,08,2018,-01,00*6B
$GPAAM,,,,N,*38
$SDHDG,231.6,,,1.3,E*31
$GPAPB,,,,,,,,,,,,,,,N*26
$GPBOD,,T,,M,,*47
$SDHDG,231.8,,,1.3,E*3F
$GPRMB,,,,,,,,,,,,,,N*04
$GPXTE,,,,,N,N*5E
$SDHDG,231.8,,,1.3,E*3F
$SDDBT,18.0,f,5.4,M,3.0,F*3D
{"class":"TPV","mode":3,"time":"2018-08-20T09:47:37.000Z","ept":0.005,"lat":52.850155000,"lon":5.313616667,"epx":7.467,"epy":8.881,"epv":20.700,"track":230.5000,"magtrack":231.8000,"magvar":1.4,"speed":2.881,"geoidSep":43.514,"eph":11.400,"sep":20.900,"depth":5.400}
$SDDPT,5.4,0.4,*7E
$SDMTW,,C*1A
$SDVLW,,N,545.6,N,1109.4,N,393.6,N*44
$SDVHW,233.2,T,231.8,M,6.6,N,12.3,K*7A
$SDHDG,231.8,,,1.3,E*3F
{"class":"TPV","mode":3,"time":"2018-08-20T09:47:37.000Z","ept":0.005,"lat":52.850155000,"lon":5.313616667,"epx":7.467,"epy":8.881,"epv":20.700,"track":230.5000,"magtrack":231.8000,"magvar":1.4,"speed":2.881,"geoidSep":43.514,"eph":11.400,"sep":20.900,"depth":5.400}
$WIMWD,327.8,T,326.4,M,11.3,N,5.8,M*69
$WIMWV,73.7,R,11.1,N,A*21
$WIMWV,94.9,T,11.3,N,A*22
$IIXDR,C,,C,AIRTEMP,A,-3.0,D,HEEL,A,3.7,D,TRIM,P,,B,BARO,A,-4.2,D,RUDDER*28
$SDHDG,231.8,,,1.3,E*3F
{"class":"TPV","mode":3,"time":"2018-08-20T09:47:37.000Z","ept":0.005,"lat":52.850155000,"lon":5.313616667,"epx":7.467,"epy":8.881,"epv":20.700,"track":230.5000,"magtrack":231.8000,"magvar":1.4,"speed":2.881,"geoidSep":43.514,"eph":11.400,"sep":20.900,"depth":5.400}
$SDHDG,231.7,,,1.3,E*30
{"class":"TPV","mode":3,"time":"2018-08-20T09:47:37.000Z","ept":0.005,"lat":52.850155000,"lon":5.313616667,"epx":7.467,"epy":8.881,"epv":20.700,"track":230.5000,"magtrack":231.7000,"magvar":1.4,"speed":2.881,"geoidSep":43.514,"eph":11.400,"sep":20.900,"depth":5.400}
$SDHDG,231.6,,,1.3,E*31
{"class":"TPV","mode":3,"time":"2018-08-20T09:47:37.000Z","ept":0.005,"lat":52.850155000,"lon":5.313616667,"epx":7.467,"epy":8.881,"epv":20.700,"track":230.5000,"magtrack":231.6000,"magvar":1.4,"speed":2.881,"geoidSep":43.514,"eph":11.400,"sep":20.900,"depth":5.400}
$SDHDG,231.5,,,1.3,E*32
{"class":"TPV","mode":3,"time":"2018-08-20T09:47:37.000Z","ept":0.005,"lat":52.850155000,"lon":5.313616667,"epx":7.467,"epy":8.881,"epv":20.700,"track":230.5000,"magtrack":231.5000,"magvar":1.4,"speed":2.881,"geoidSep":43.514,"eph":11.400,"sep":20.900,"depth":5.400}
$SDHDG,231.3,,,1.3,E*34
{"class":"TPV","mode":3,"time":"2018-08-20T09:47:37.000Z","ept":0.005,"lat":52.850155000,"lon":5.313616667,"epx":7.467,"epy":8.881,"epv":20.700,"track":230.5000,"magtrack":231.3000,"magvar":1.4,"speed":2.881,"geoidSep":43.514,"eph":11.400,"sep":20.900,"depth":5.400}
$GPGGA,094737,5251.0085,N,00518.8151,E,1,12,0.60,-4,M,46.8,M,,*4B
$GPGLC,9960,,,,,,,,,,,,*75
$GPGLL,5251.0084,N,00518.8149,E,094737,A,A*4E
{"class":"TPV","mode":3,"time":"2018-08-20T09:47:37.000Z","ept":0.005,"lat":52.850140000,"lon":5.313581667,"altHAE":42.800,"altMSL":-4.000,"epx":7.467,"epy":8.881,"epv":20.700,"track":230.5000,"magtrack":231.3000,"magvar":1.4,"speed":2.881,"geoidSep":46.800,"eph":11.400,"sep":20.900,"depth":5.400}
$GPGSA,A,3,07,08,10,16,20,21,26,27,29,76,75,70,1.10,0.60,0.90*0B
{"class":"TPV","mode":3,"time":"2018-08-20T09:47:37.000Z","ept":0.005,"lat":52.850140000,"lon":5.313581667,"altHAE":42.800,"altMSL":-4.000,"epx":7.467,"epy":8.881,"epv":20.700,"track":230.5000,"magtrack":231.3000,"magvar":1.4,"speed":2.881,"geoidSep":46.800,"eph":11.400,"sep":20.900,"depth":5.400}
$GPGSV,3,1,12,07,10,333,39,08,12,279,35,10,16,158,33,16,74,249,37*73
$GPGSV,3,2,12,20,36,138,34,21,66,078,39,26,57,179,33,27,45,281,38*7A
$GPGSV,3,3,12,29,11,091,46,76,48,226,32,75,14,188,27,70,27,083,31*79
{"class":"TPV","mode":3,"time":"2018-08-20T09:47:37.000Z","ept":0.005,"lat":52.850140000,"lon":5.313581667,"altHAE":42.800,"altMSL":-4.000,"epx":7.467,"epy":8.881,"epv":20.700,"track":230.5000,"magtrack":231.3000,"magvar":1.4,"speed":2.881,"geoidSep":46.800,"eph":11.400,"sep":20.900,"depth":5.400}
{"class":"SKY","xdop":0.50,"ydop":0.59,"vdop":0.90,"tdop":0.60,"hdop":0.60,"gdop":1.40,"pdop":1.10,"satellites":[{"PRN":7,"el":10.0,"az":333.0,"ss":39.0,"used":true,"gnssid":0,"svid":7},{"PRN":8,"el":12.0,"az":279.0,"ss":35.0,"used":true,"gnssid":0,"svid":8},{"PRN":10,"el":16.0,"az":158.0,"ss":33.0,"used":true,"gnssid":0,"svid":10},{"PRN":16,"el":74.0,"az":249.0,"ss":37.0,"used":true,"gnssid":0,"svid":16},{"PRN":20,"el":36.0,"az":138.0,"ss":34.0,"used":true,"gnssid":0,"svid":20},{"PRN":21,"el":66.0,"az":78.0,"ss":39.0,"used":true,"gnssid":0,"svid":21},{"PRN":26,"el":57.0,"az":179.0,"ss":33.0,"used":true,"gnssid":0,"svid":26},{"PRN":27,"el":45.0,"az":281.0,"ss":38.0,"used":true,"gnssid":0,"svid":27},{"PRN":29,"el":11.0,"az":91.0,"ss":46.0,"used":true,"gnssid":0,"svid":29},{"PRN":76,"el":48.0,"az":226.0,"ss":32.0,"used":true,"gnssid":6,"svid":12},{"PRN":75,"el":14.0,"az":188.0,"ss":27.0,"used":true,"gnssid":6,"svid":11},{"PRN":70,"el":27.0,"az":83.0,"ss":31.0,"used":true,"gnssid":6,"svid":6}]}
$GPRMC,094738,A,5251.0084,N,00518.8149,E,5.8,235.1,200818,1.4,E,A*13
$SDHDG,231.2,,,1.3,E*35
{"class":"TPV","mode":3,"time":"2018-08-20T09:47:38.000Z","ept":0.005,"lat":52.850140000,"lon":5.313581667,"epx":7.467,"epy":8.881,"epv":20.700,"track":235.1000,"magtrack":231.2000,"magvar":1.4,"speed":2.984,"eps":17.76,"epc":41.40,"geoidSep":43.514,"eph":11.400,"sep":20.900}
$GPVTG,235.1,T,233.7,M,5.8,N,10.7,K,A*18
{"class":"TPV","mode":3,"time":"2018-08-20T09:47:38.000Z","ept":0.005,"lat":52.850140000,"lon":5.313581667,"epx":7.467,"epy":8.881,"epv":20.700,"track":235.1000,"magtrack":233.7000,"magvar":1.4,"speed":2.984,"eps":17.76,"epc":41.40,"geoidSep":43.514,"eph":11.400,"sep":20.900}
$GPZDA,094738,20,08,2018,-01,00*64
{"class":"TPV","mode":3,"time":"2018-08-20T09:47:38.000Z","ept":0.005,"lat":52.850140000,"lon":5.313581667,"epx":7.467,"epy":8.881,"epv":20.700,"track":235.1000,"magtrack":233.7000,"magvar":1.4,"speed":2.984,"eps":17.76,"epc":41.40,"geoidSep":43.514,"eph":11.400,"sep":20.900}
$GPAAM,,,,N,*38
$GPAPB,,,,,,,,,,,,,,,N*26
$SDHDG,231.0,,,1.3,E*37
{"class":"TPV","mode":3,"time":"2018-08-20T09:47:38.000Z","ept":0.005,"lat":52.850140000,"lon":5.313581667,"epx":7.467,"epy":8.881,"epv":20.700,"track":235.1000,"magtrack":231.0000,"magvar":1.4,"speed":2.984,"eps":17.76,"epc":41.40,"geoidSep":43.514,"eph":11.400,"sep":20.900}
$GPBOD,,T,,M,,*47
$SDHDG,230.8,,,1.3,E*3E
{"class":"TPV","mode":3,"time":"2018-08-20T09:47:38.000Z","ept":0.005,"lat":52.850140000,"lon":5.313581667,"epx":7.467,"epy":8.881,"epv":20.700,"track":235.1000,"magtrack":230.8000,"magvar":1.4,"speed":2.984,"eps":17.76,"epc":41.40,"geoidSep":43.514,"eph":11.400,"sep":20.900}
$GPRMB,,,,,,,,,,,,,,N*04
$GPXTE,,,,,N,N*5E
$SDHDG,230.7,,,1.3,E*31
{"class":"TPV","mode":3,"time":"2018-08-20T09:47:38.000Z","ept":0.005,"lat":52.850140000,"lon":5.313581667,"epx":7.467,"epy":8.881,"epv":20.700,"track":235.1000,"magtrack":230.7000,"magvar":1.4,"speed":2.984,"eps":17.76,"epc":41.40,"geoidSep":43.514,"eph":11.400,"sep":20.900}
$SDDBT,17.5,f,5.3,M,2.9,F*38
{"class":"TPV","mode":3,"time":"2018-08-20T09:47:38.000Z","ept":0.005,"lat":52.850140000,"lon":5.313581667,"epx":7.467,"epy":8.881,"epv":20.700,"track":235.1000,"magtrack":230.7000,"magvar":1.4,"speed":2.984,"eps":17.76,"epc":41.40,"geoidSep":43.514,"eph":11.400,"sep":20.900,"depth":5.300}
$SDDPT,5.3,0.4,*79
$SDMTW,,C*1A
$SDVLW,,N,545.6,N,1109.4,N,393.6,N*44
$SDVHW,231.9,T,230.6,M,6.6,N,12.2,K*7D
$SDHDG,230.6,,,1.3,E*30
{"class":"TPV","mode":3,"time":"2018-08-20T09:47:38.000Z","ept":0.005,"lat":52.850140000,"lon":5.313581667,"epx":7.467,"epy":8.881,"epv":20.700,"track":235.1000,"magtrack":230.6000,"magvar":1.4,"speed":2.984,"eps":17.76,"epc":41.40,"geoidSep":43.514,"eph":11.400,"sep":20.900,"depth":5.300}
$WIMWD,328.3,T,326.9,M,11.2,N,5.8,M*61
$WIMWV,53.0,R,13.0,N,A*27
$WIMWV,95.8,T,11.2,N,A*23
$IIXDR,C,,C,AIRTEMP,A,-2.8,D,HEEL,A,5.2,D,TRIM,P,,B,BARO,A,-4.1,D,RUDDER*21
$SDHDG,230.5,,,1.3,E*33
{"class":"TPV","mode":3,"time":"2018-08-20T09:47:38.000Z","ept":0.005,"lat":52.850140000,"lon":5.313581667,"epx":7.467,"epy":8.881,"epv":20.700,"track":235.1000,"magtrack":230.5000,"magvar":1.4,"speed":2.984,"eps":17.76,"epc":41.40,"geoidSep":43.514,"eph":11.400,"sep":20.900,"depth":5.300}
$SDHDG,230.4,,,1.3,E*32
{"class":"TPV","mode":3,"time":"2018-08-20T09:47:38.000Z","ept":0.005,"lat":52.850140000,"lon":5.313581667,"epx":7.467,"epy":8.881,"epv":20.700,"track":235.1000,"magtrack":230.4000,"magvar":1.4,"speed":2.984,"eps":17.76,"epc":41.40,"geoidSep":43.514,"eph":11.400,"sep":20.900,"depth":5.300}
$SDHDG,230.4,,,1.3,E*32
{"class":"TPV","mode":3,"time":"2018-08-20T09:47:38.000Z","ept":0.005,"lat":52.850140000,"lon":5.313581667,"epx":7.467,"epy":8.881,"epv":20.700,"track":235.1000,"magtrack":230.4000,"magvar":1.4,"speed":2.984,"eps":17.76,"epc":41.40,"geoidSep":43.514,"eph":11.400,"sep":20.900,"depth":5.300}
$SDHDG,230.5,,,1.3,E*33
{"class":"TPV","mode":3,"time":"2018-08-20T09:47:38.000Z","ept":0.005,"lat":52.850140000,"lon":5.313581667,"epx":7.467,"epy":8.881,"epv":20.700,"track":235.1000,"magtrack":230.5000,"magvar":1.4,"speed":2.984,"eps":17.76,"epc":41.40,"geoidSep":43.514,"eph":11.400,"sep":20.900,"depth":5.300}
$SDHDG,230.6,,,1.3,E*30
{"class":"TPV","mode":3,"time":"2018-08-20T09:47:38.000Z","ept":0.005,"lat":52.850140000,"lon":5.313581667,"epx":7.467,"epy":8.881,"epv":20.700,"track":235.1000,"magtrack":230.6000,"magvar":1.4,"speed":2.984,"eps":17.76,"epc":41.40,"geoidSep":43.514,"eph":11.400,"sep":20.900,"depth":5.300}
$GPGGA,094738,5251.0074,N,00518.8132,E,1,12,0.60,-4,M,46.8,M,,*4F
$GPGLC,9960,,,,,,,,,,,,*75
$GPGLL,5251.0073,N,00518.8130,E,094738,A,A*47
$GPGSA,A,3,07,08,10,16,20,21,26,27,29,76,75,70,1.10,0.60,0.90*0B
{"class":"TPV","mode":3,"time":"2018-08-20T09:47:38.000Z","ept":0.005,"lat":52.850121667,"lon":5.313550000,"altHAE":42.800,"altMSL":-4.000,"epx":7.467,"epy":8.881,"epv":20.700,"track":235.1000,"magtrack":230.6000,"magvar":1.4,"speed":2.984,"climb":0.000,"eps":17.76,"epc":41.40,"geoidSep":46.800,"eph":11.400,"sep":20.900,"depth":5.300}
$GPGSV,3,1,12,07,10,333,37,08,12,279,34,10,16,158,33,16,74,249,37*7C
$GPGSV,3,2,12,20,36,138,34,21,66,078,39,26,57,179,32,27,45,281,38*7B
$GPGSV,3,3,12,29,11,091,46,76,48,226,30,75,14,188,27,70,27,083,31*7B
{"class":"TPV","mode":3,"time":"2018-08-20T09:47:38.000Z","ept":0.005,"lat":52.850121667,"lon":5.313550000,"altHAE":42.800,"altMSL":-4.000,"epx":7.467,"epy":8.881,"epv":20.700,"track":235.1000,"magtrack":230.6000,"magvar":1.4,"speed":2.984,"climb":0.000,"eps":17.76,"epc":41.40,"geoidSep":46.800,"eph":11.400,"sep":20.900,"depth":5.300}
{"class":"SKY","xdop":0.50,"ydop":0.59,"vdop":0.90,"tdop":0.60,"hdop":0.60,"gdop":1.40,"pdop":1.10,"satellites":[{"PRN":7,"el":10.0,"az":333.0,"ss":37.0,"used":true,"gnssid":0,"svid":7},{"PRN":8,"el":12.0,"az":279.0,"ss":34.0,"used":true,"gnssid":0,"svid":8},{"PRN":10,"el":16.0,"az":158.0,"ss":33.0,"used":true,"gnssid":0,"svid":10},{"PRN":16,"el":74.0,"az":249.0,"ss":37.0,"used":true,"gnssid":0,"svid":16},{"PRN":20,"el":36.0,"az":138.0,"ss":34.0,"used":true,"gnssid":0,"svid":20},{"PRN":21,"el":66.0,"az":78.0,"ss":39.0,"used":true,"gnssid":0,"svid":21},{"PRN":26,"el":57.0,"az":179.0,"ss":32.0,"used":true,"gnssid":0,"svid":26},{"PRN":27,"el":45.0,"az":281.0,"ss":38.0,"used":true,"gnssid":0,"svid":27},{"PRN":29,"el":11.0,"az":91.0,"ss":46.0,"used":true,"gnssid":0,"svid":29},{"PRN":76,"el":48.0,"az":226.0,"ss":30.0,"used":true,"gnssid":6,"svid":12},{"PRN":75,"el":14.0,"az":188.0,"ss":27.0,"used":true,"gnssid":6,"svid":11},{"PRN":70,"el":27.0,"az":83.0,"ss":31.0,"used":true,"gnssid":6,"svid":6}]}
$GPRMC,094739,A,5251.0073,N,00518.8130,E,5.7,229.9,200818,1.4,E,A*1E
$SDHDG,230.8,,,1.3,E*3E
{"class":"TPV","mode":3,"time":"2018-08-20T09:47:39.000Z","ept":0.005,"lat":52.850121667,"lon":5.313550000,"epx":7.467,"epy":8.881,"epv":20.700,"track":229.9000,"magtrack":230.8000,"magvar":1.4,"speed":2.932,"eps":17.76,"epc":41.40,"geoidSep":43.514,"eph":11.400,"sep":20.900}
$GPVTG,229.9,T,228.5,M,5.7,N,10.5,K,A*18
{"class":"TPV","mode":3,"time":"2018-08-20T09:47:39.000Z","ept":0.005,"lat":52.850121667,"lon":5.313550000,"epx":7.467,"epy":8.881,"epv":20.700,"track":229.9000,"magtrack":228.5000,"magvar":1.4,"speed":2.932,"eps":17.76,"epc":41.40,"geoidSep":43.514,"eph":11.400,"sep":20.900}
$GPZDA,094739,20,08,2018,-01,00*65
{"class":"TPV","mode":3,"time":"2018-08-20T09:47:39.000Z","ept":0.005,"lat":52.850121667,"lon":5.313550000,"epx":7.467,"epy":8.881,"epv":20.700,"track":229.9000,"magtrack":228.5000,"magvar":1.4,"speed":2.932,"eps":17.76,"epc":41.40,"geoidSep":43.514,"eph":11.400,"sep":20.900}
$GPAAM,,,,N,*38
$GPAPB,,,,,,,,,,,,,,,N*26
$SDHDG,231.0,,,1.3,E*37
{"class":"TPV","mode":3,"time":"2018-08-20T09:47:39.000Z","ept":0.005,"lat":52.850121667,"lon":5.313550000,"epx":7.467,"epy":8.881,"epv":20.700,"track":229.9000,"magtrack":231.0000,"magvar":1.4,"speed":2.932,"eps":17.76,"epc":41.40,"geoidSep":43.514,"eph":11.400,"sep":20.900}
$GPBOD,,T,,M,,*47
$SDHDG,231.3,,,1.3,E*34
{"class":"TPV","mode":3,"time":"2018-08-20T09:47:39.000Z","ept":0.005,"lat":52.850121667,"lon":5.313550000,"epx":7.467,"epy":8.881,"epv":20.700,"track":229.9000,"magtrack":231.3000,"magvar":1.4,"speed":2.932,"eps":17.76,"epc":41.40,"geoidSep":43.514,"eph":11.400,"sep":20.900}
$GPRMB,,,,,,,,,,,,,,N*04
$GPXTE,,,,,N,N*5E
$SDHDG,231.5,,,1.3,E*32
{"class":"TPV","mode":3,"time":"2018-08-20T09:47:39.000Z","ept":0.005,"lat":52.850121667,"lon":5.313550000,"epx":7.467,"epy":8.881,"epv":20.700,"track":229.9000,"magtrack":231.5000,"magvar":1.4,"speed":2.932,"eps":17.76,"epc":41.40,"geoidSep":43.514,"eph":11.400,"sep":20.900}
$SDDBT,17.8,f,5.4,M,2.9,F*32
{"class":"TPV","mode":3,"time":"2018-08-20T09:47:39.000Z","ept":0.005,"lat":52.850121667,"lon":5.313550000,"epx":7.467,"epy":8.881,"epv":20.700,"track":229.9000,"magtrack":231.5000,"magvar":1.4,"speed":2.932,"eps":17.76,"epc":41.40,"geoidSep":43.514,"eph":11.400,"sep":20.900,"depth":5.400}
$SDDPT,5.4,0.4,*7E
$SDMTW,,C*1A
$SDVLW,,N,545.6,N,1109.4,N,393.6,N*44
$SDVHW,233.2,T,231.8,M,6.7,N,12.4,K*7C
$SDHDG,231.8,,,1.3,E*3F
{"class":"TPV","mode":3,"time":"2018-08-20T09:47:39.000Z","ept":0.005,"lat":52.850121667,"lon":5.313550000,"epx":7.467,"epy":8.881,"epv":20.700,"track":229.9000,"magtrack":231.8000,"magvar":1.4,"speed":2.932,"eps":17.76,"epc":41.40,"geoidSep":43.514,"eph":11.400,"sep":20.900,"depth":5.400}
$WIMWD,327.4,T,326.1,M,11.3,N,5.8,M*60
$WIMWV,64.7,R,14.0,N,A*23
$WIMWV,94.5,T,11.3,N,A*2E
$IIXDR,C,,C,AIRTEMP,A,-2.9,D,HEEL,A,2.1,D,TRIM,P,,B,BARO,A,-4.1,D,RUDDER*24
$SDHDG,232.0,,,1.3,E*34
{"class":"TPV","mode":3,"time":"2018-08-20T09:47:39.000Z","ept":0.005,"lat":52.850121667,"lon":5.313550000,"epx":7.467,"epy":8.881,"epv":20.700,"track":229.9000,"magtrack":232.0000,"magvar":1.4,"speed":2.932,"eps":17.76,"epc":41.40,"geoidSep":43.514,"eph":11.400,"sep":20.900,"depth":5.400}
$SDHDG,232.3,,,1.3,E*37
{"class":"TPV","mode":3,"time":"2018-08-20T09:47:39.000Z","ept":0.005,"lat":52.850121667,"lon":5.313550000,"epx":7.467,"epy":8.881,"epv":20.700,"track":229.9000,"magtrack":232.3000,"magvar":1.4,"speed":2.932,"eps":17.76,"epc":41.40,"geoidSep":43.514,"eph":11.400,"sep":20.900,"depth":5.400}
$SDHDG,232.4,,,1.3,E*30
{"class":"TPV","mode":3,"time":"2018-08-20T09:47:39.000Z","ept":0.005,"lat":52.850121667,"lon":5.313550000,"epx":7.467,"epy":8.881,"epv":20.700,"track":229.9000,"magtrack":232.4000,"magvar":1.4,"speed":2.932,"eps":17.76,"epc":41.40,"geoidSep":43.514,"eph":11.400,"sep":20.900,"depth":5.400}
$SDHDG,232.5,,,1.3,E*31
{"class":"TPV","mode":3,"time":"2018-08-20T09:47:39.000Z","ept":0.005,"lat":52.850121667,"lon":5.313550000,"epx":7.467,"epy":8.881,"epv":20.700,"track":229.9000,"magtrack":232.5000,"magvar":1.4,"speed":2.932,"eps":17.76,"epc":41.40,"geoidSep":43.514,"eph":11.400,"sep":20.900,"depth":5.400}
$SDHDG,232.6,,,1.3,E*32
{"class":"TPV","mode":3,"time":"2018-08-20T09:47:39.000Z","ept":0.005,"lat":52.850121667,"lon":5.313550000,"epx":7.467,"epy":8.881,"epv":20.700,"track":229.9000,"magtrack":232.6000,"magvar":1.4,"speed":2.932,"eps":17.76,"epc":41.40,"geoidSep":43.514,"eph":11.400,"sep":20.900,"depth":5.400}
$GPGGA,094739,5251.0066,N,00518.8114,E,1,12,0.60,-4,M,46.8,M,,*49
$GPGLC,9960,,,,,,,,,,,,*75
$GPGLL,5251.0065,N,00518.8112,E,094739,A,A*41
$GPGSA,A,3,07,08,10,16,20,21,26,27,29,76,75,70,1.10,0.60,0.90*0B
{"class":"TPV","mode":3,"time":"2018-08-20T09:47:39.000Z","ept":0.005,"lat":52.850108333,"lon":5.313520000,"altHAE":42.800,"altMSL":-4.000,"epx":7.467,"epy":8.881,"epv":20.700,"track":229.9000,"magtrack":232.6000,"magvar":1.4,"speed":2.932,"climb":0.000,"eps":17.76,"epc":41.40,"geoidSep":46.800,"eph":11.400,"sep":20.900,"depth":5.400}
$GPGSV,3,1,12,07,10,333,36,08,12,279,34,10,16,158,32,16,74,249,37*7C
$GPGSV,3,2,12,20,36,138,34,21,66,078,39,26,57,179,33,27,45,281,39*7B
$GPGSV,3,3,12,29,11,091,46,76,48,226,30,75,14,188,26,70,27,083,30*7B
{"class":"TPV","mode":3,"time":"2018-08-20T09:47:39.000Z","ept":0.005,"lat":52.850108333,"lon":5.313520000,"altHAE":42.800,"altMSL":-4.000,"epx":7.467,"epy":8.881,"epv":20.700,"track":229.9000,"magtrack":232.6000,"magvar":1.4,"speed":2.932,"climb":0.000,"eps":17.76,"epc":41.40,"geoidSep":46.800,"eph":11.400,"sep":20.900,"depth":5.400}
{"class":"SKY","xdop":0.50,"ydop":0.59,"vdop":0.90,"tdop":0.60,"hdop":0.60,"gdop":1.40,"pdop":1.10,"satellites":[{"PRN":7,"el":10.0,"az":333.0,"ss":36.0,"used":true,"gnssid":0,"svid":7},{"PRN":8,"el":12.0,"az":279.0,"ss":34.0,"used":true,"gnssid":0,"svid":8},{"PRN":10,"el":16.0,"az":158.0,"ss":32.0,"used":true,"gnssid":0,"svid":10},{"PRN":16,"el":74.0,"az":249.0,"ss":37.0,"used":true,"gnssid":0,"svid":16},{"PRN":20,"el":36.0,"az":138.0,"ss":34.0,"used":true,"gnssid":0,"svid":20},{"PRN":21,"el":66.0,"az":78.0,"ss":39.0,"used":true,"gnssid":0,"svid":21},{"PRN":26,"el":57.0,"az":179.0,"ss":33.0,"used":true,"gnssid":0,"svid":26},{"PRN":27,"el":45.0,"az":281.0,"ss":39.0,"used":true,"gnssid":0,"svid":27},{"PRN":29,"el":11.0,"az":91.0,"ss":46.0,"used":true,"gnssid":0,"svid":29},{"PRN":76,"el":48.0,"az":226.0,"ss":30.0,"used":true,"gnssid":6,"svid":12},{"PRN":75,"el":14.0,"az":188.0,"ss":26.0,"used":true,"gnssid":6,"svid":11},{"PRN":70,"el":27.0,"az":83.0,"ss":30.0,"used":true,"gnssid":6,"svid":6}]}
$GPRMC,094740,A,5251.0065,N,00518.8112,E,5.6,235.1,200818,1.4,E,A*13
$GPVTG,235.1,T,233.7,M,5.6,N,10.4,K,A*15
{"class":"TPV","mode":3,"time":"2018-08-20T09:47:40.000Z","ept":0.005,"lat":52.850108333,"lon":5.313520000,"epx":7.467,"epy":8.881,"epv":20.700,"track":235.1000,"magtrack":233.7000,"magvar":1.4,"speed":2.881,"eps":17.76,"epc":41.40,"geoidSep":43.514,"eph":11.400,"sep":20.900}
$SDHDG,232.5,,,1.3,E*31
{"class":"TPV","mode":3,"time":"2018-08-20T09:47:40.000Z","ept":0.005,"lat":52.850108333,"lon":5.313520000,"epx":7.467,"epy":8.881,"epv":20.700,"track":235.1000,"magtrack":232.5000,"magvar":1.4,"speed":2.881,"eps":17.76,"epc":41.40,"geoidSep":43.514,"eph":11.400,"sep":20.900}
$GPZDA,094740,20,08,2018,-01,00*6B
{"class":"TPV","mode":3,"time":"2018-08-20T09:47:40.000Z","ept":0.005,"lat":52.850108333,"lon":5.313520000,"epx":7.467,"epy":8.881,"epv":20.700,"track":235.1000,"magtrack":232.5000,"magvar":1.4,"speed":2.881,"eps":17.76,"epc":41.40,"geoidSep":43.514,"eph":11.400,"sep":20.900}
$GPAAM,,,,N,*38
$GPAPB,,,,,,,,,,,,,,,N*26
$SDHDG,232.4,,,1.3,E*30
{"class":"TPV","mode":3,"time":"2018-08-20T09:47:40.000Z","ept":0.005,"lat":52.850108333,"lon":5.313520000,"epx":7.467,"epy":8.881,"epv":20.700,"track":235.1000,"magtrack":232.4000,"magvar":1.4,"speed":2.881,"eps":17.76,"epc":41.40,"geoidSep":43.514,"eph":11.400,"sep":20.900}
$GPBOD,,T,,M,,*47
$SDHDG,232.1,,,1.3,E*35
{"class":"TPV","mode":3,"time":"2018-08-20T09:47:40.000Z","ept":0.005,"lat":52.850108333,"lon":5.313520000,"epx":7.467,"epy":8.881,"epv":20.700,"track":235.1000,"magtrack":232.1000,"magvar":1.4,"speed":2.881,"eps":17.76,"epc":41.40,"geoidSep":43.514,"eph":11.400,"sep":20.900}
$GPRMB,,,,,,,,,,,,,,N*04
$GPXTE,,,,,N,N*5E
$SDDBT,17.7,f,5.4,M,2.9,F*3D
{"class":"TPV","mode":3,"time":"2018-08-20T09:47:40.000Z","ept":0.005,"lat":52.850108333,"lon":5.313520000,"epx":7.467,"epy":8.881,"epv":20.700,"track":235.1000,"magtrack":232.1000,"magvar":1.4,"speed":2.881,"eps":17.76,"epc":41.40,"geoidSep":43.514,"eph":11.400,"sep":20.900,"depth":5.400}
$SDHDG,232.0,,,1.3,E*34
{"class":"TPV","mode":3,"time":"2018-08-20T09:47:40.000Z","ept":0.005,"lat":52.850108333,"lon":5.313520000,"epx":7.467,"epy":8.881,"epv":20.700,"track":235.1000,"magtrack":232.0000,"magvar":1.4,"speed":2.881,"eps":17.76,"epc":41.40,"geoidSep":43.514,"eph":11.400,"sep":20.900,"depth":5.400}
$SDDPT,5.4,0.4,*7E
$SDMTW,,C*1A
$SDVLW,,N,545.6,N,1109.4,N,393.6,N*44
$SDVHW,233.3,T,231.9,M,6.6,N,12.3,K*7A
$WIMWD,327.5,T,326.1,M,11.4,N,5.8,M*66
$SDHDG,231.8,,,1.3,E*3F
{"class":"TPV","mode":3,"time":"2018-08-20T09:47:40.000Z","ept":0.005,"lat":52.850108333,"lon":5.313520000,"epx":7.467,"epy":8.881,"epv":20.700,"track":235.1000,"magtrack":231.8000,"magvar":1.4,"speed":2.881,"eps":17.76,"epc":41.40,"geoidSep":43.514,"eph":11.400,"sep":20.900,"depth":5.400}
$WIMWV,62.2,R,12.0,N,A*26
$WIMWV,94.1,T,11.4,N,A*2D
$IIXDR,C,,C,AIRTEMP,A,-2.8,D,HEEL,A,4.7,D,TRIM,P,,B,BARO,A,-4.1,D,RUDDER*25
$SDHDG,231.6,,,1.3,E*31
{"class":"TPV","mode":3,"time":"2018-08-20T09:47:40.000Z","ept":0.005,"lat":52.850108333,"lon":5.313520000,"epx":7.467,"epy":8.881,"epv":20.700,"track":235.1000,"magtrack":231.6000,"magvar":1.4,"speed":2.881,"eps":17.76,"epc":41.40,"geoidSep":43.514,"eph":11.400,"sep":20.900,"depth":5.400}
$SDHDG,231.4,,,1.3,E*33
{"class":"TPV","mode":3,"time":"2018-08-20T09:47:40.000Z","ept":0.005,"lat":52.850108333,"lon":5.313520000,"epx":7.467,"epy":8.881,"epv":20.700,"track":235.1000,"magtrack":231.4000,"magvar":1.4,"speed":2.881,"eps":17.76,"epc":41.40,"geoidSep":43.514,"eph":11.400,"sep":20.900,"depth":5.400}
$SDHDG,231.3,,,1.3,E*34
{"class":"TPV","mode":3,"time":"2018-08-20T09:47:40.000Z","ept":0.005,"lat":52.850108333,"lon":5.313520000,"epx":7.467,"epy":8.881,"epv":20.700,"track":235.1000,"magtrack":231.3000,"magvar":1.4,"speed":2.881,"eps":17.76,"epc":41.40,"geoidSep":43.514,"eph":11.400,"sep":20.900,"depth":5.400}
$SDHDG,231.1,,,1.3,E*36
{"class":"TPV","mode":3,"time":"2018-08-20T09:47:40.000Z","ept":0.005,"lat":52.850108333,"lon":5.313520000,"epx":7.467,"epy":8.881,"epv":20.700,"track":235.1000,"magtrack":231.1000,"magvar":1.4,"speed":2.881,"eps":17.76,"epc":41.40,"geoidSep":43.514,"eph":11.400,"sep":20.900,"depth":5.400}
$GPGGA,094740,5251.0057,N,00518.8094,E,1,12,0.60,-4,M,46.8,M,,*4C
$SDHDG,231.0,,,1.3,E*37
{"class":"TPV","mode":3,"time":"2018-08-20T09:47:40.000Z","ept":0.005,"lat":52.850095000,"lon":5.313490000,"altHAE":42.800,"altMSL":-4.000,"epx":7.467,"epy":8.881,"epv":20.700,"track":235.1000,"magtrack":231.0000,"magvar":1.4,"speed":2.881,"climb":0.000,"eps":17.76,"epc":41.40,"geoidSep":46.800,"eph":11.400,"sep":20.900,"depth":5.400}
$GPGLC,9960,,,,,,,,,,,,*75
$GPGLL,5251.0057,N,00518.8094,E,094740,A,A*41
$GPGSA,A,3,07,08,10,16,20,21,26,27,29,76,75,70,1.10,0.60,0.90*0B
{"class":"TPV","mode":3,"time":"2018-08-20T09:47:40.000Z","ept":0.005,"lat":52.850095000,"lon":5.313490000,"altHAE":42.800,"altMSL":-4.000,"epx":7.467,"epy":8.881,"epv":20.700,"track":235.1000,"magtrack":231.0000,"magvar":1.4,"speed":2.881,"climb":0.000,"eps":17.76,"epc":41.40,"geoidSep":46.800,"eph":11.400,"sep":20.900,"depth":5.400}
$GPGSV,3,1,12,07,10,333,37,08,12,279,34,10,16,158,31,16,74,247,37*70
$GPGSV,3,2,12,20,36,138,35,21,66,078,38,26,57,179,32,27,45,281,39*7A
$GPGSV,3,3,12,29,11,091,45,76,48,226,30,75,14,188,27,70,27,083,30*79
{"class":"TPV","mode":3,"time":"2018-08-20T09:47:40.000Z","ept":0.005,"lat":52.850095000,"lon":5.313490000,"altHAE":42.800,"altMSL":-4.000,"epx":7.467,"epy":8.881,"epv":20.700,"track":235.1000,"magtrack":231.0000,"magvar":1.4,"speed":2.881,"climb":0.000,"eps":17.76,"epc":41.40,"geoidSep":46.800,"eph":11.400,"sep":20.900,"depth":5.400}
{"class":"SKY","xdop":0.50,"ydop":0.59,"vdop":0.90,"tdop":0.60,"hdop":0.60,"gdop":1.40,"pdop":1.10,"satellites":[{"PRN":7,"el":10.0,"az":333.0,"ss":37.0,"used":true,"gnssid":0,"svid":7},{"PRN":8,"el":12.0,"az":279.0,"ss":34.0,"used":true,"gnssid":0,"svid":8},{"PRN":10,"el":16.0,"az":158.0,"ss":31.0,"used":true,"gnssid":0,"svid":10},{"PRN":16,"el":74.0,"az":247.0,"ss":37.0,"used":true,"gnssid":0,"svid":16},{"PRN":20,"el":36.0,"az":138.0,"ss":35.0,"used":true,"gnssid":0,"svid":20},{"PRN":21,"el":66.0,"az":78.0,"ss":38.0,"used":true,"gnssid":0,"svid":21},{"PRN":26,"el":57.0,"az":179.0,"ss":32.0,"used":true,"gnssid":0,"svid":26},{"PRN":27,"el":45.0,"az":281.0,"ss":39.0,"used":true,"gnssid":0,"svid":27},{"PRN":29,"el":11.0,"az":91.0,"ss":45.0,"used":true,"gnssid":0,"svid":29},{"PRN":76,"el":48.0,"az":226.0,"ss":30.0,"used":true,"gnssid":6,"svid":12},{"PRN":75,"el":14.0,"az":188.0,"ss":27.0,"used":true,"gnssid":6,"svid":11},{"PRN":70,"el":27.0,"az":83.0,"ss":30.0,"used":true,"gnssid":6,"svid":6}]}
$GPRMC,094741,A,5251.0055,N,00518.8090,E,6.3,226.5,200818,1.4,E,A*1A
$GPVTG,226.5,T,225.1,M,6.3,N,11.7,K,A*16
{"class":"TPV","mode":3,"time":"2018-08-20T09:47:41.000Z","ept":0.005,"lat":52.850091667,"lon":5.313483333,"epx":7.468,"epy":8.884,"epv":20.700,"track":226.5000,"magtrack":225.1000,"magvar":1.4,"speed":3.241,"eps":17.77,"epc":41.40,"geoidSep":43.514,"eph":11.400,"sep":20.900}
$GPZDA,094741,20,08,2018,-01,00*6A
{"class":"TPV","mode":3,"time":"2018-08-20T09:47:41.000Z","ept":0.005,"lat":52.850091667,"lon":5.313483333,"epx":7.468,"epy":8.884,"epv":20.700,"track":226.5000,"magtrack":225.1000,"magvar":1.4,"speed":3.241,"eps":17.77,"epc":41.40,"geoidSep":43.514,"eph":11.400,"sep":20.900}
$SDHDG,231.0,,,1.3,E*37
{"class":"TPV","mode":3,"time":"2018-08-20T09:47:41.000Z","ept":0.005,"lat":52.850091667,"lon":5.313483333,"epx":7.468,"epy":8.884,"epv":20.700,"track":226.5000,"magtrack":231.0000,"magvar":1.4,"speed":3.241,"eps":17.77,"epc":41.40,"geoidSep":43.514,"eph":11.400,"sep":20.900}
$GPAAM,,,,N,*38
$GPAPB,,,,,,,,,,,,,,,N*26
$SDHDG,231.0,,,1.3,E*37
{"class":"TPV","mode":3,"time":"2018-08-20T09:47:41.000Z","ept":0.005,"lat":52.850091667,"lon":5.313483333,"epx":7.468,"epy":8.884,"epv":20.700,"track":226.5000,"magtrack":231.0000,"magvar":1.4,"speed":3.241,"eps":17.77,"epc":41.40,"geoidSep":43.514,"eph":11.400,"sep":20.900}
$GPBOD,,T,,M,,*47
$SDHDG,231.1,,,1.3,E*36
{"class":"TPV","mode":3,"time":"2018-08-20T09:47:41.000Z","ept":0.005,"lat":52.850091667,"lon":5.313483333,"epx":7.468,"epy":8.884,"epv":20.700,"track":226.5000,"magtrack":231.1000,"magvar":1.4,"speed":3.241,"eps":17.77,"epc":41.40,"geoidSep":43.514,"eph":11.400,"sep":20.900}
$GPRMB,,,,,,,,,,,,,,N*04
$GPXTE,,,,,N,N*5E
$SDDBT,17.5,f,5.3,M,2.9,F*38
{"class":"TPV","mode":3,"time":"2018-08-20T09:47:41.000Z","ept":0.005,"lat":52.850091667,"lon":5.313483333,"epx":7.468,"epy":8.884,"epv":20.700,"track":226.5000,"magtrack":231.1000,"magvar":1.4,"speed":3.241,"eps":17.77,"epc":41.40,"geoidSep":43.514,"eph":11.400,"sep":20.900,"depth":5.300}
$SDHDG,231.3,,,1.3,E*34
{"class":"TPV","mode":3,"time":"2018-08-20T09:47:41.000Z","ept":0.005,"lat":52.850091667,"lon":5.313483333,"epx":7.468,"epy":8.884,"epv":20.700,"track":226.5000,"magtrack":231.3000,"magvar":1.4,"speed":3.241,"eps":17.77,"epc":41.40,"geoidSep":43.514,"eph":11.400,"sep":20.900,"depth":5.300}
$SDDPT,5.3,0.4,*79
$SDMTW,,C*1A
$SDVLW,,N,545.6,N,1109.4,N,393.6,N*44
$SDVHW,232.8,T,231.4,M,6.8,N,12.6,K*76
$WIMWD,327.2,T,325.9,M,11.3,N,5.8,M*6D
$SDHDG,231.5,,,1.3,E*32
{"class":"TPV","mode":3,"time":"2018-08-20T09:47:41.000Z","ept":0.005,"lat":52.850091667,"lon":5.313483333,"epx":7.468,"epy":8.884,"epv":20.700,"track":226.5000,"magtrack":231.5000,"magvar":1.4,"speed":3.241,"eps":17.77,"epc":41.40,"geoidSep":43.514,"eph":11.400,"sep":20.900,"depth":5.300}
$WIMWV,63.1,R,14.0,N,A*22
$WIMWV,94.3,T,11.3,N,A*28
$IIXDR,C,,C,AIRTEMP,A,-2.9,D,HEEL,A,2.2,D,TRIM,P,,B,BARO,A,-4.1,D,RUDDER*27
$SDHDG,231.7,,,1.3,E*30
{"class":"TPV","mode":3,"time":"2018-08-20T09:47:41.000Z","ept":0.005,"lat":52.850091667,"lon":5.313483333,"epx":7.468,"epy":8.884,"epv":20.700,"track":226.5000,"magtrack":231.7000,"magvar":1.4,"speed":3.241,"eps":17.77,"epc":41.40,"geoidSep":43.514,"eph":11.400,"sep":20.900,"depth":5.300}
$SDHDG,232.0,,,1.3,E*34
{"class":"TPV","mode":3,"time":"2018-08-20T09:47:41.000Z","ept":0.005,"lat":52.850091667,"lon":5.313483333,"epx":7.468,"epy":8.884,"epv":20.700,"track":226.5000,"magtrack":232.0000,"magvar":1.4,"speed":3.241,"eps":17.77,"epc":41.40,"geoidSep":43.514,"eph":11.400,"sep":20.900,"depth":5.300}
$SDHDG,232.2,,,1.3,E*36
{"class":"TPV","mode":3,"time":"2018-08-20T09:47:41.000Z","ept":0.005,"lat":52.850091667,"lon":5.313483333,"epx":7.468,"epy":8.884,"epv":20.700,"track":226.5000,"magtrack":232.2000,"magvar":1.4,"speed":3.241,"eps":17.77,"epc":41.40,"geoidSep":43.514,"eph":11.400,"sep":20.900,"depth":5.300}
$SDHDG,232.3,,,1.3,E*37
{"class":"TPV","mode":3,"time":"2018-08-20T09:47:41.000Z","ept":0.005,"lat":52.850091667,"lon":5.313483333,"epx":7.468,"epy":8.884,"epv":20.700,"track":226.5000,"magtrack":232.3000,"magvar":1.4,"speed":3.241,"eps":17.77,"epc":41.40,"geoidSep":43.514,"eph":11.400,"sep":20.900,"depth":5.300}
$GPGGA,094741,5251.0046,N,00518.8070,E,1,12,0.60,-4,M,46.8,M,,*47
$GPGLC,9960,,,,,,,,,,,,*75
$SDHDG,232.4,,,1.3,E*30
{"class":"TPV","mode":3,"time":"2018-08-20T09:47:41.000Z","ept":0.005,"lat":52.850076667,"lon":5.313450000,"altHAE":42.800,"altMSL":-4.000,"epx":7.468,"epy":8.884,"epv":20.700,"track":226.5000,"magtrack":232.4000,"magvar":1.4,"speed":3.241,"climb":0.000,"eps":17.77,"epc":41.40,"geoidSep":46.800,"eph":11.400,"sep":20.900,"depth":5.300}
$GPGLL,5251.0046,N,00518.8070,E,094741,A,A*4A
$GPGSA,A,3,07,08,10,16,20,21,26,27,29,76,75,70,1.10,0.60,0.90*0B
{"class":"TPV","mode":3,"time":"2018-08-20T09:47:41.000Z","ept":0.005,"lat":52.850076667,"lon":5.313450000,"altHAE":42.800,"altMSL":-4.000,"epx":7.468,"epy":8.884,"epv":20.700,"track":226.5000,"magtrack":232.4000,"magvar":1.4,"speed":3.241,"climb":0.000,"eps":17.77,"epc":41.40,"geoidSep":46.800,"eph":11.400,"sep":20.900,"depth":5.300}
$GPGSV,3,1,12,07,10,333,36,08,12,279,33,10,16,158,32,16,74,247,37*75
$GPGSV,3,2,12,20,36,138,35,21,66,078,38,26,57,179,33,27,45,281,39*7B
$GPGSV,3,3,12,29,11,091,45,76,48,226,27,75,14,188,27,70,27,083,31*7E
{"class":"TPV","mode":3,"time":"2018-08-20T09:47:41.000Z","ept":0.005,"lat":52.850076667,"lon":5.313450000,"altHAE":42.800,"altMSL":-4.000,"epx":7.468,"epy":8.884,"epv":20.700,"track":226.5000,"magtrack":232.4000,"magvar":1.4,"speed":3.241,"climb":0.000,"eps":17.77,"epc":41.40,"geoidSep":46.800,"eph":11.400,"sep":20.900,"depth":5.300}
{"class":"SKY","xdop":0.50,"ydop":0.59,"vdop":0.90,"tdop":0.60,"hdop":0.60,"gdop":1.40,"pdop":1.10,"satellites":[{"PRN":7,"el":10.0,"az":333.0,"ss":36.0,"used":true,"gnssid":0,"svid":7},{"PRN":8,"el":12.0,"az":279.0,"ss":33.0,"used":true,"gnssid":0,"svid":8},{"PRN":10,"el":16.0,"az":158.0,"ss":32.0,"used":true,"gnssid":0,"svid":10},{"PRN":16,"el":74.0,"az":247.0,"ss":37.0,"used":true,"gnssid":0,"svid":16},{"PRN":20,"el":36.0,"az":138.0,"ss":35.0,"used":true,"gnssid":0,"svid":20},{"PRN":21,"el":66.0,"az":78.0,"ss":38.0,"used":true,"gnssid":0,"svid":21},{"PRN":26,"el":57.0,"az":179.0,"ss":33.0,"used":true,"gnssid":0,"svid":26},{"PRN":27,"el":45.0,"az":281.0,"ss":39.0,"used":true,"gnssid":0,"svid":27},{"PRN":29,"el":11.0,"az":91.0,"ss":45.0,"used":true,"gnssid":0,"svid":29},{"PRN":76,"el":48.0,"az":226.0,"ss":27.0,"used":true,"gnssid":6,"svid":12},{"PRN":75,"el":14.0,"az":188.0,"ss":27.0,"used":true,"gnssid":6,"svid":11},{"PRN":70,"el":27.0,"az":83.0,"ss":31.0,"used":true,"gnssid":6,"svid":6}]}
$GPRMC,094742,A,5251.0045,N,00518.8068,E,5.2,237.3,200818,1.4,E,A*1B
$GPVTG,237.3,T,235.9,M,5.2,N,9.6,K,A*23
{"class":"TPV","mode":3,"time":"2018-08-20T09:47:42.000Z","ept":0.005,"lat":52.850075000,"lon":5.313446667,"epx":7.468,"epy":8.884,"epv":20.700,"track":237.3000,"magtrack":235.9000,"magvar":1.4,"speed":2.675,"eps":17.77,"epc":41.40,"geoidSep":43.514,"eph":11.400,"sep":20.900}
$GPZDA,094742,20,08,2018,-01,00*69
{"class":"TPV","mode":3,"time":"2018-08-20T09:47:42.000Z","ept":0.005,"lat":52.850075000,"lon":5.313446667,"epx":7.468,"epy":8.884,"epv":20.700,"track":237.3000,"magtrack":235.9000,"magvar":1.4,"speed":2.675,"eps":17.77,"epc":41.40,"geoidSep":43.514,"eph":11.400,"sep":20.900}
$SDHDG,232.4,,,1.3,E*30
{"class":"TPV","mode":3,"time":"2018-08-20T09:47:42.000Z","ept":0.005,"lat":52.850075000,"lon":5.313446667,"epx":7.468,"epy":8.884,"epv":20.700,"track":237.3000,"magtrack":232.4000,"magvar":1.4,"speed":2.675,"eps":17.77,"epc":41.40,"geoidSep":43.514,"eph":11.400,"sep":20.900}
$GPAAM,,,,N,*38
$GPAPB,,,,,,,,,,,,,,,N*26
$SDHDG,232.4,,,1.3,E*30
{"class":"TPV","mode":3,"time":"2018-08-20T09:47:42.000Z","ept":0.005,"lat":52.850075000,"lon":5.313446667,"epx":7.468,"epy":8.884,"epv":20.700,"track":237.3000,"magtrack":232.4000,"magvar":1.4,"speed":2.675,"eps":17.77,"epc":41.40,"geoidSep":43.514,"eph":11.400,"sep":20.900}
$GPBOD,,T,,M,,*47
$GPRMB,,,,,,,,,,,,,,N*04
$SDHDG,232.3,,,1.3,E*37
{"class":"TPV","mode":3,"time":"2018-08-20T09:47:42.000Z","ept":0.005,"lat":52.850075000,"lon":5.313446667,"epx":7.468,"epy":8.884,"epv":20.700,"track":237.3000,"magtrack":232.3000,"magvar":1.4,"speed":2.675,"eps":17.77,"epc":41.40,"geoidSep":43.514,"eph":11.400,"sep":20.900}
$GPXTE,,,,,N,N*5E
$SDDBT,17.9,f,5.4,M,2.9,F*33
{"class":"TPV","mode":3,"time":"2018-08-20T09:47:42.000Z","ept":0.005,"lat":52.850075000,"lon":5.313446667,"epx":7.468,"epy":8.884,"epv":20.700,"track":237.3000,"magtrack":232.3000,"magvar":1.4,"speed":2.675,"eps":17.77,"epc":41.40,"geoidSep":43.514,"eph":11.400,"sep":20.900,"depth":5.400}
$SDHDG,232.1,,,1.3,E*35
{"class":"TPV","mode":3,"time":"2018-08-20T09:47:42.000Z","ept":0.005,"lat":52.850075000,"lon":5.313446667,"epx":7.468,"epy":8.884,"epv":20.700,"track":237.3000,"magtrack":232.1000,"magvar":1.4,"speed":2.675,"eps":17.77,"epc":41.40,"geoidSep":43.514,"eph":11.400,"sep":20.900,"depth":5.400}
$SDDPT,5.4,0.4,*7E
$SDMTW,,C*1A
$SDVLW,,N,545.6,N,1109.4,N,393.6,N*44
$SDVHW,233.4,T,232.0,M,6.7,N,12.4,K*71
$WIMWD,327.6,T,326.2,M,11.4,N,5.9,M*67
$WIMWV,57.3,R,12.0,N,A*21
$WIMWV,94.4,T,11.4,N,A*28
$IIXDR,C,,C,AIRTEMP,A,-4.5,D,HEEL,A,5.5,D,TRIM,P,,B,BARO,A,-4.1,D,RUDDER*2D
$SDHDG,231.8,,,1.3,E*3F
{"class":"TPV","mode":3,"time":"2018-08-20T09:47:42.000Z","ept":0.005,"lat":52.850075000,"lon":5.313446667,"epx":7.468,"epy":8.884,"epv":20.700,"track":237.3000,"magtrack":231.8000,"magvar":1.4,"speed":2.675,"eps":17.77,"epc":41.40,"geoidSep":43.514,"eph":11.400,"sep":20.900,"depth":5.400}
$SDHDG,231.5,,,1.3,E*32
{"class":"TPV","mode":3,"time":"2018-08-20T09:47:42.000Z","ept":0.005,"lat":52.850075000,"lon":5.313446667,"epx":7.468,"epy":8.884,"epv":20.700,"track":237.3000,"magtrack":231.5000,"magvar":1.4,"speed":2.675,"eps":17.77,"epc":41.40,"geoidSep":43.514,"eph":11.400,"sep":20.900,"depth":5.400}
$SDHDG,231.2,,,1.3,E*35
{"class":"TPV","mode":3,"time":"2018-08-20T09:47:42.000Z","ept":0.005,"lat":52.850075000,"lon":5.313446667,"epx":7.468,"epy":8.884,"epv":20.700,"track":237.3000,"magtrack":231.2000,"magvar":1.4,"speed":2.675,"eps":17.77,"epc":41.40,"geoidSep":43.514,"eph":11.400,"sep":20.900,"depth":5.400}
$SDHDG,230.9,,,1.3,E*3F
{"class":"TPV","mode":3,"time":"2018-08-20T09:47:42.000Z","ept":0.005,"lat":52.850075000,"lon":5.313446667,"epx":7.468,"epy":8.884,"epv":20.700,"track":237.3000,"magtrack":230.9000,"magvar":1.4,"speed":2.675,"eps":17.77,"epc":41.40,"geoidSep":43.514,"eph":11.400,"sep":20.900,"depth":5.400}
$SDHDG,230.7,,,1.3,E*31
{"class":"TPV","mode":3,"time":"2018-08-20T09:47:42.000Z","ept":0.005,"lat":52.850075000,"lon":5.313446667,"epx":7.468,"epy":8.884,"epv":20.700,"track":237.3000,"magtrack":230.7000,"magvar":1.4,"speed":2.675,"eps":17.77,"epc":41.40,"geoidSep":43.514,"eph":11.400,"sep":20.900,"depth":5.400}
$GPGGA,094742,5251.0035,N,00518.8049,E,1,12,0.60,-4,M,46.8,M,,*4A
$GPGLC,9960,,,,,,,,,,,,*75
$GPGLL,5251.0034,N,00518.8047,E,094742,A,A*48
$SDHDG,230.6,,,1.3,E*30
{"class":"TPV","mode":3,"time":"2018-08-20T09:47:42.000Z","ept":0.005,"lat":52.850056667,"lon":5.313411667,"altHAE":42.800,"altMSL":-4.000,"epx":7.468,"epy":8.884,"epv":20.700,"track":237.3000,"magtrack":230.6000,"magvar":1.4,"speed":2.675,"climb":0.000,"eps":17.77,"epc":41.40,"geoidSep":46.800,"eph":11.400,"sep":20.900,"depth":5.400}
$GPGSA,A,3,07,08,10,16,20,21,26,27,29,76,75,70,1.10,0.60,0.90*0B
{"class":"TPV","mode":3,"time":"2018-08-20T09:47:42.000Z","ept":0.005,"lat":52.850056667,"lon":5.313411667,"altHAE":42.800,"altMSL":-4.000,"epx":7.468,"epy":8.884,"epv":20.700,"track":237.3000,"magtrack":230.6000,"magvar":1.4,"speed":2.675,"climb":0.000,"eps":17.77,"epc":41.40,"geoidSep":46.800,"eph":11.400,"sep":20.900,"depth":5.400}
$GPGSV,3,1,12,07,10,333,36,08,12,279,33,10,16,158,31,16,74,247,37*76
$GPGSV,3,2,12,20,36,138,37,21,66,078,38,26,57,179,33,27,45,281,39*79
$GPGSV,3,3,12,29,11,091,46,76,48,226,30,75,14,188,26,70,27,083,32*79
{"class":"TPV","mode":3,"time":"2018-08-20T09:47:42.000Z","ept":0.005,"lat":52.850056667,"lon":5.313411667,"altHAE":42.800,"altMSL":-4.000,"epx":7.468,"epy":8.884,"epv":20.700,"track":237.3000,"magtrack":230.6000,"magvar":1.4,"speed":2.675,"climb":0.000,"eps":17.77,"epc":41.40,"geoidSep":46.800,"eph":11.400,"sep":20.900,"depth":5.400}
{"class":"SKY","xdop":0.50,"ydop":0.59,"vdop":0.90,"tdop":0.60,"hdop":0.60,"gdop":1.40,"pdop":1.10,"satellites":[{"PRN":7,"el":10.0,"az":333.0,"ss":36.0,"used":true,"gnssid":0,"svid":7},{"PRN":8,"el":12.0,"az":279.0,"ss":33.0,"used":true,"gnssid":0,"svid":8},{"PRN":10,"el":16.0,"az":158.0,"ss":31.0,"used":true,"gnssid":0,"svid":10},{"PRN":16,"el":74.0,"az":247.0,"ss":37.0,"used":true,"gnssid":0,"svid":16},{"PRN":20,"el":36.0,"az":138.0,"ss":37.0,"used":true,"gnssid":0,"svid":20},{"PRN":21,"el":66.0,"az":78.0,"ss":38.0,"used":true,"gnssid":0,"svid":21},{"PRN":26,"el":57.0,"az":179.0,"ss":33.0,"used":true,"gnssid":0,"svid":26},{"PRN":27,"el":45.0,"az":281.0,"ss":39.0,"used":true,"gnssid":0,"svid":27},{"PRN":29,"el":11.0,"az":91.0,"ss":46.0,"used":true,"gnssid":0,"svid":29},{"PRN":76,"el":48.0,"az":226.0,"ss":30.0,"used":true,"gnssid":6,"svid":12},{"PRN":75,"el":14.0,"az":188.0,"ss":26.0,"used":true,"gnssid":6,"svid":11},{"PRN":70,"el":27.0,"az":83.0,"ss":32.0,"used":true,"gnssid":6,"svid":6}]}
$GPRMC,094743,A,5251.0034,N,00518.8047,E,6.3,225.8,200818,1.4,E,A*1B
$GPVTG,225.8,T,224.4,M,6.3,N,11.7,K,A*1C
{"class":"TPV","mode":3,"time":"2018-08-20T09:47:43.000Z","ept":0.005,"lat":52.850056667,"lon":5.313411667,"epx":7.468,"epy":8.884,"epv":20.700,"track":225.8000,"magtrack":224.4000,"magvar":1.4,"speed":3.241,"eps":17.77,"epc":41.40,"geoidSep":43.514,"eph":11.400,"sep":20.900}
$GPZDA,094743,20,08,2018,-01,00*68
{"class":"TPV","mode":3,"time":"2018-08-20T09:47:43.000Z","ept":0.005,"lat":52.850056667,"lon":5.313411667,"epx":7.468,"epy":8.884,"epv":20.700,"track":225.8000,"magtrack":224.4000,"magvar":1.4,"speed":3.241,"eps":17.77,"epc":41.40,"geoidSep":43.514,"eph":11.400,"sep":20.900}
$SDHDG,230.6,,,1.3,E*30
{"class":"TPV","mode":3,"time":"2018-08-20T09:47:43.000Z","ept":0.005,"lat":52.850056667,"lon":5.313411667,"epx":7.468,"epy":8.884,"epv":20.700,"track":225.8000,"magtrack":230.6000,"magvar":1.4,"speed":3.241,"eps":17.77,"epc":41.40,"geoidSep":43.514,"eph":11.400,"sep":20.900}
$GPAAM,,,,N,*38
$GPAPB,,,,,,,,,,,,,,,N*26
$SDHDG,230.8,,,1.3,E*3E
{"class":"TPV","mode":3,"time":"2018-08-20T09:47:43.000Z","ept":0.005,"lat":52.850056667,"lon":5.313411667,"epx":7.468,"epy":8.884,"epv":20.700,"track":225.8000,"magtrack":230.8000,"magvar":1.4,"speed":3.241,"eps":17.77,"epc":41.40,"geoidSep":43.514,"eph":11.400,"sep":20.900}
$GPBOD,,T,,M,,*47
$GPRMB,,,,,,,,,,,,,,N*04
$GPXTE,,,,,N,N*5E
$SDHDG,231.0,,,1.3,E*37
{"class":"TPV","mode":3,"time":"2018-08-20T09:47:43.000Z","ept":0.005,"lat":52.850056667,"lon":5.313411667,"epx":7.468,"epy":8.884,"epv":20.700,"track":225.8000,"magtrack":231.0000,"magvar":1.4,"speed":3.241,"eps":17.77,"epc":41.40,"geoidSep":43.514,"eph":11.400,"sep":20.900}
$SDDBT,17.6,f,5.3,M,2.9,F*3B
{"class":"TPV","mode":3,"time":"2018-08-20T09:47:43.000Z","ept":0.005,"lat":52.850056667,"lon":5.313411667,"epx":7.468,"epy":8.884,"epv":20.700,"track":225.8000,"magtrack":231.0000,"magvar":1.4,"speed":3.241,"eps":17.77,"epc":41.40,"geoidSep":43.514,"eph":11.400,"sep":20.900,"depth":5.300}
$SDDPT,5.3,0.4,*79
$SDHDG,231.3,,,1.3,E*34
{"class":"TPV","mode":3,"time":"2018-08-20T09:47:43.000Z","ept":0.005,"lat":52.850056667,"lon":5.313411667,"epx":7.468,"epy":8.884,"epv":20.700,"track":225.8000,"magtrack":231.3000,"magvar":1.4,"speed":3.241,"eps":17.77,"epc":41.40,"geoidSep":43.514,"eph":11.400,"sep":20.900,"depth":5.300}
$SDMTW,,C*1A
$SDVLW,,N,545.6,N,1109.4,N,393.6,N*44
$SDVHW,232.8,T,231.5,M,6.8,N,12.6,K*77
$WIMWD,327.5,T,326.1,M,11.4,N,5.9,M*67
$WIMWV,70.1,R,13.0,N,A*27
$WIMWV,94.7,T,11.4,N,A*2B
$IIXDR,C,,C,AIRTEMP,A,-2.8,D,HEEL,A,1.0,D,TRIM,P,,B,BARO,A,-4.0,D,RUDDER*26
$SDHDG,231.6,,,1.3,E*31
{"class":"TPV","mode":3,"time":"2018-08-20T09:47:43.000Z","ept":0.005,"lat":52.850056667,"lon":5.313411667,"epx":7.468,"epy":8.884,"epv":20.700,"track":225.8000,"magtrack":231.6000,"magvar":1.4,"speed":3.241,"eps":17.77,"epc":41.40,"geoidSep":43.514,"eph":11.400,"sep":20.900,"depth":5.300}
$SDHDG,231.9,,,1.3,E*3E
{"class":"TPV","mode":3,"time":"2018-08-20T09:47:43.000Z","ept":0.005,"lat":52.850056667,"lon":5.313411667,"epx":7.468,"epy":8.884,"epv":20.700,"track":225.8000,"magtrack":231.9000,"magvar":1.4,"speed":3.241,"eps":17.77,"epc":41.40,"geoidSep":43.514,"eph":11.400,"sep":20.900,"depth":5.300}
$SDHDG,232.2,,,1.3,E*36
{"class":"TPV","mode":3,"time":"2018-08-20T09:47:43.000Z","ept":0.005,"lat":52.850056667,"lon":5.313411667,"epx":7.468,"epy":8.884,"epv":20.700,"track":225.8000,"magtrack":232.2000,"magvar":1.4,"speed":3.241,"eps":17.77,"epc":41.40,"geoidSep":43.514,"eph":11.400,"sep":20.900,"depth":5.300}
$SDHDG,232.4,,,1.3,E*30
{"class":"TPV","mode":3,"time":"2018-08-20T09:47:43.000Z","ept":0.005,"lat":52.850056667,"lon":5.313411667,"epx":7.468,"epy":8.884,"epv":20.700,"track":225.8000,"magtrack":232.4000,"magvar":1.4,"speed":3.241,"eps":17.77,"epc":41.40,"geoidSep":43.514,"eph":11.400,"sep":20.900,"depth":5.300}
$SDHDG,232.5,,,1.3,E*31
{"class":"TPV","mode":3,"time":"2018-08-20T09:47:43.000Z","ept":0.005,"lat":52.850056667,"lon":5.313411667,"epx":7.468,"epy":8.884,"epv":20.700,"track":225.8000,"magtrack":232.5000,"magvar":1.4,"speed":3.241,"eps":17.77,"epc":41.40,"geoidSep":43.514,"eph":11.400,"sep":20.900,"depth":5.300}
$GPGGA,094743,5251.0025,N,00518.8029,E,1,12,0.60,-4,M,46.8,M,,*4C
$GPGLC,9960,,,,,,,,,,,,*75
$GPGLL,5251.0024,N,00518.8027,E,094743,A,A*4E
$SDHDG,232.7,,,1.3,E*33
{"class":"TPV","mode":3,"time":"2018-08-20T09:47:43.000Z","ept":0.005,"lat":52.850040000,"lon":5.313378333,"altHAE":42.800,"altMSL":-4.000,"epx":7.468,"epy":8.884,"epv":20.700,"track":225.8000,"magtrack":232.7000,"magvar":1.4,"speed":3.241,"climb":0.000,"eps":17.77,"epc":41.40,"geoidSep":46.800,"eph":11.400,"sep":20.900,"depth":5.300}
$GPGSA,A,3,07,08,10,16,20,21,26,27,29,76,75,70,1.10,0.60,0.90*0B
{"class":"TPV","mode":3,"time":"2018-08-20T09:47:43.000Z","ept":0.005,"lat":52.850040000,"lon":5.313378333,"altHAE":42.800,"altMSL":-4.000,"epx":7.468,"epy":8.884,"epv":20.700,"track":225.8000,"magtrack":232.7000,"magvar":1.4,"speed":3.241,"climb":0.000,"eps":17.77,"epc":41.40,"geoidSep":46.800,"eph":11.400,"sep":20.900,"depth":5.300}
$GPGSV,3,1,12,07,10,333,35,08,12,279,32,10,16,158,31,16,74,247,37*74
$GPGSV,3,2,12,20,36,138,37,21,66,078,38,26,57,179,34,27,45,281,39*7E
$GPGSV,3,3,12,29,11,091,45,76,48,226,31,75,14,188,28,70,27,083,31*76
{"class":"TPV","mode":3,"time":"2018-08-20T09:47:43.000Z","ept":0.005,"lat":52.850040000,"lon":5.313378333,"altHAE":42.800,"altMSL":-4.000,"epx":7.468,"epy":8.884,"epv":20.700,"track":225.8000,"magtrack":232.7000,"magvar":1.4,"speed":3.241,"climb":0.000,"eps":17.77,"epc":41.40,"geoidSep":46.800,"eph":11.400,"sep":20.900,"depth":5.300}
{"class":"SKY","xdop":0.50,"ydop":0.59,"vdop":0.90,"tdop":0.60,"hdop":0.60,"gdop":1.40,"pdop":1.10,"satellites":[{"PRN":7,"el":10.0,"az":333.0,"ss":35.0,"used":true,"gnssid":0,"svid":7},{"PRN":8,"el":12.0,"az":279.0,"ss":32.0,"used":true,"gnssid":0,"svid":8},{"PRN":10,"el":16.0,"az":158.0,"ss":31.0,"used":true,"gnssid":0,"svid":10},{"PRN":16,"el":74.0,"az":247.0,"ss":37.0,"used":true,"gnssid":0,"svid":16},{"PRN":20,"el":36.0,"az":138.0,"ss":37.0,"used":true,"gnssid":0,"svid":20},{"PRN":21,"el":66.0,"az":78.0,"ss":38.0,"used":true,"gnssid":0,"svid":21},{"PRN":26,"el":57.0,"az":179.0,"ss":34.0,"used":true,"gnssid":0,"svid":26},{"PRN":27,"el":45.0,"az":281.0,"ss":39.0,"used":true,"gnssid":0,"svid":27},{"PRN":29,"el":11.0,"az":91.0,"ss":45.0,"used":true,"gnssid":0,"svid":29},{"PRN":76,"el":48.0,"az":226.0,"ss":31.0,"used":true,"gnssid":6,"svid":12},{"PRN":75,"el":14.0,"az":188.0,"ss":28.0,"used":true,"gnssid":6,"svid":11},{"PRN":70,"el":27.0,"az":83.0,"ss":31.0,"used":true,"gnssid":6,"svid":6}]}
$GPRMC,094744,A,5251.0024,N,00518.8027,E,5.3,232.0,200818,1.4,E,A*16
$GPVTG,232.0,T,230.6,M,5.3,N,9.8,K,A*20
{"class":"TPV","mode":3,"time":"2018-08-20T09:47:44.000Z","ept":0.005,"lat":52.850040000,"lon":5.313378333,"epx":7.468,"epy":8.884,"epv":20.700,"track":232.0000,"magtrack":230.6000,"magvar":1.4,"speed":2.727,"eps":17.77,"epc":41.40,"geoidSep":43.514,"eph":11.400,"sep":20.900}
$GPZDA,094744,20,08,2018,-01,00*6F
{"class":"TPV","mode":3,"time":"2018-08-20T09:47:44.000Z","ept":0.005,"lat":52.850040000,"lon":5.313378333,"epx":7.468,"epy":8.884,"epv":20.700,"track":232.0000,"magtrack":230.6000,"magvar":1.4,"speed":2.727,"eps":17.77,"epc":41.40,"geoidSep":43.514,"eph":11.400,"sep":20.900}
$SDHDG,232.8,,,1.3,E*3C
{"class":"TPV","mode":3,"time":"2018-08-20T09:47:44.000Z","ept":0.005,"lat":52.850040000,"lon":5.313378333,"epx":7.468,"epy":8.884,"epv":20.700,"track":232.0000,"magtrack":232.8000,"magvar":1.4,"speed":2.727,"eps":17.77,"epc":41.40,"geoidSep":43.514,"eph":11.400,"sep":20.900}
$GPAAM,,,,N,*38
$GPAPB,,,,,,,,,,,,,,,N*26
$SDHDG,232.9,,,1.3,E*3D
{"class":"TPV","mode":3,"time":"2018-08-20T09:47:44.000Z","ept":0.005,"lat":52.850040000,"lon":5.313378333,"epx":7.468,"epy":8.884,"epv":20.700,"track":232.0000,"magtrack":232.9000,"magvar":1.4,"speed":2.727,"eps":17.77,"epc":41.40,"geoidSep":43.514,"eph":11.400,"sep":20.900}
$GPBOD,,T,,M,,*47
$GPRMB,,,,,,,,,,,,,,N*04
$GPXTE,,,,,N,N*5E
$SDHDG,232.9,,,1.3,E*3D
{"class":"TPV","mode":3,"time":"2018-08-20T09:47:44.000Z","ept":0.005,"lat":52.850040000,"lon":5.313378333,"epx":7.468,"epy":8.884,"epv":20.700,"track":232.0000,"magtrack":232.9000,"magvar":1.4,"speed":2.727,"eps":17.77,"epc":41.40,"geoidSep":43.514,"eph":11.400,"sep":20.900}
$SDDBT,17.9,f,5.4,M,2.9,F*33
{"class":"TPV","mode":3,"time":"2018-08-20T09:47:44.000Z","ept":0.005,"lat":52.850040000,"lon":5.313378333,"epx":7.468,"epy":8.884,"epv":20.700,"track":232.0000,"magtrack":232.9000,"magvar":1.4,"speed":2.727,"eps":17.77,"epc":41.40,"geoidSep":43.514,"eph":11.400,"sep":20.900,"depth":5.400}
$SDDPT,5.4,0.4,*7E
$SDMTW,,C*1A
$SDHDG,232.9,,,1.3,E*3D
{"class":"TPV","mode":3,"time":"2018-08-20T09:47:44.000Z","ept":0.005,"lat":52.850040000,"lon":5.313378333,"epx":7.468,"epy":8.884,"epv":20.700,"track":232.0000,"magtrack":232.9000,"magvar":1.4,"speed":2.727,"eps":17.77,"epc":41.40,"geoidSep":43.514,"eph":11.400,"sep":20.900,"depth":5.400}
$SDVLW,,N,545.6,N,1109.4,N,393.6,N*44
$SDVHW,234.3,T,232.9,M,6.7,N,12.5,K*79
$WIMWD,328.0,T,326.6,M,11.5,N,5.9,M*6B
$WIMWV,58.7,R,12.0,N,A*2A
$WIMWV,93.9,T,11.5,N,A*23
$IIXDR,C,,C,AIRTEMP,A,-2.6,D,HEEL,A,5.2,D,TRIM,P,,B,BARO,A,-5.1,D,RUDDER*2E
$SDHDG,233.0,,,1.3,E*35
{"class":"TPV","mode":3,"time":"2018-08-20T09:47:44.000Z","ept":0.005,"lat":52.850040000,"lon":5.313378333,"epx":7.468,"epy":8.884,"epv":20.700,"track":232.0000,"magtrack":233.0000,"magvar":1.4,"speed":2.727,"eps":17.77,"epc":41.40,"geoidSep":43.514,"eph":11.400,"sep":20.900,"depth":5.400}
$SDHDG,233.0,,,1.3,E*35
{"class":"TPV","mode":3,"time":"2018-08-20T09:47:44.000Z","ept":0.005,"lat":52.850040000,"lon":5.313378333,"epx":7.468,"epy":8.884,"epv":20.700,"track":232.0000,"magtrack":233.0000,"magvar":1.4,"speed":2.727,"eps":17.77,"epc":41.40,"geoidSep":43.514,"eph":11.400,"sep":20.900,"depth":5.400}
$SDHDG,233.0,,,1.3,E*35
{"class":"TPV","mode":3,"time":"2018-08-20T09:47:44.000Z","ept":0.005,"lat":52.850040000,"lon":5.313378333,"epx":7.468,"epy":8.884,"epv":20.700,"track":232.0000,"magtrack":233.0000,"magvar":1.4,"speed":2.727,"eps":17.77,"epc":41.40,"geoidSep":43.514,"eph":11.400,"sep":20.900,"depth":5.400}
$SDHDG,233.0,,,1.3,E*35
{"class":"TPV","mode":3,"time":"2018-08-20T09:47:44.000Z","ept":0.005,"lat":52.850040000,"lon":5.313378333,"epx":7.468,"epy":8.884,"epv":20.700,"track":232.0000,"magtrack":233.0000,"magvar":1.4,"speed":2.727,"eps":17.77,"epc":41.40,"geoidSep":43.514,"eph":11.400,"sep":20.900,"depth":5.400}
$SDHDG,233.0,,,1.3,E*35
{"class":"TPV","mode":3,"time":"2018-08-20T09:47:44.000Z","ept":0.005,"lat":52.850040000,"lon":5.313378333,"epx":7.468,"epy":8.884,"epv":20.700,"track":232.0000,"magtrack":233.0000,"magvar":1.4,"speed":2.727,"eps":17.77,"epc":41.40,"geoidSep":43.514,"eph":11.400,"sep":20.900,"depth":5.400}
$GPGGA,094744,5251.0014,N,00518.8008,E,1,12,0.60,-4,M,46.8,M,,*4A
$GPGLC,9960,,,,,,,,,,,,*75
$GPGLL,5251.0014,N,00518.8008,E,094744,A,A*47
$GPGSA,A,3,07,08,10,16,20,21,26,27,29,76,75,70,1.10,0.60,0.90*0B
{"class":"TPV","mode":3,"time":"2018-08-20T09:47:44.000Z","ept":0.005,"lat":52.850023333,"lon":5.313346667,"altHAE":42.800,"altMSL":-4.000,"epx":7.468,"epy":8.884,"epv":20.700,"track":232.0000,"magtrack":233.0000,"magvar":1.4,"speed":2.727,"climb":0.000,"eps":17.77,"epc":41.40,"geoidSep":46.800,"eph":11.400,"sep":20.900,"depth":5.400}
$GPGSV,3,1,12,07,10,333,35,08,12,279,33,10,16,158,30,16,74,247,37*74
$GPGSV,3,2,12,20,36,138,38,21,66,078,38,26,57,179,35,27,45,281,39*70
$GPGSV,3,3,12,29,11,091,46,76,48,226,31,75,14,188,27,70,27,083,31*7A
{"class":"TPV","mode":3,"time":"2018-08-20T09:47:44.000Z","ept":0.005,"lat":52.850023333,"lon":5.313346667,"altHAE":42.800,"altMSL":-4.000,"epx":7.468,"epy":8.884,"epv":20.700,"track":232.0000,"magtrack":233.0000,"magvar":1.4,"speed":2.727,"climb":0.000,"eps":17.77,"epc":41.40,"geoidSep":46.800,"eph":11.400,"sep":20.900,"depth":5.400}
{"class":"SKY","xdop":0.50,"ydop":0.59,"vdop":0.90,"tdop":0.60,"hdop":0.60,"gdop":1.40,"pdop":1.10,"satellites":[{"PRN":7,"el":10.0,"az":333.0,"ss":35.0,"used":true,"gnssid":0,"svid":7},{"PRN":8,"el":12.0,"az":279.0,"ss":33.0,"used":true,"gnssid":0,"svid":8},{"PRN":10,"el":16.0,"az":158.0,"ss":30.0,"used":true,"gnssid":0,"svid":10},{"PRN":16,"el":74.0,"az":247.0,"ss":37.0,"used":true,"gnssid":0,"svid":16},{"PRN":20,"el":36.0,"az":138.0,"ss":38.0,"used":true,"gnssid":0,"svid":20},{"PRN":21,"el":66.0,"az":78.0,"ss":38.0,"used":true,"gnssid":0,"svid":21},{"PRN":26,"el":57.0,"az":179.0,"ss":35.0,"used":true,"gnssid":0,"svid":26},{"PRN":27,"el":45.0,"az":281.0,"ss":39.0,"used":true,"gnssid":0,"svid":27},{"PRN":29,"el":11.0,"az":91.0,"ss":46.0,"used":true,"gnssid":0,"svid":29},{"PRN":76,"el":48.0,"az":226.0,"ss":31.0,"used":true,"gnssid":6,"svid":12},{"PRN":75,"el":14.0,"az":188.0,"ss":27.0,"used":true,"gnssid":6,"svid":11},{"PRN":70,"el":27.0,"az":83.0,"ss":31.0,"used":true,"gnssid":6,"svid":6}]}
$SDHDG,232.9,,,1.3,E*3D
{"class":"TPV","mode":3,"time":"2018-08-20T09:47:44.000Z","ept":0.005,"lat":52.850023333,"lon":5.313346667,"altHAE":42.800,"altMSL":-4.000,"epx":7.468,"epy":8.884,"epv":20.700,"track":232.0000,"magtrack":232.9000,"magvar":1.4,"speed":2.727,"climb":0.000,"eps":17.77,"epc":41.40,"geoidSep":46.800,"eph":11.400,"sep":20.900,"depth":5.400}
$GPRMC,094745,A,5251.0013,N,00518.8005,E,6.7,231.8,200818,1.4,E,A*1F
$GPVTG,231.8,T,230.4,M,6.7,N,12.4,K,A*18
{"class":"TPV","mode":3,"time":"2018-08-20T09:47:45.000Z","ept":0.005,"lat":52.850021667,"lon":5.313341667,"epx":7.468,"epy":8.884,"epv":20.700,"track":231.8000,"magtrack":230.4000,"magvar":1.4,"speed":3.447,"eps":17.77,"epc":41.40,"geoidSep":43.514,"eph":11.400,"sep":20.900}
$GPZDA,094745,20,08,2018,-01,00*6E
{"class":"TPV","mode":3,"time":"2018-08-20T09:47:45.000Z","ept":0.005,"lat":52.850021667,"lon":5.313341667,"epx":7.468,"epy":8.884,"epv":20.700,"track":231.8000,"magtrack":230.4000,"magvar":1.4,"speed":3.447,"eps":17.77,"epc":41.40,"geoidSep":43.514,"eph":11.400,"sep":20.900}
$GPAAM,,,,N,*38
$SDHDG,232.9,,,1.3,E*3D
{"class":"TPV","mode":3,"time":"2018-08-20T09:47:45.000Z","ept":0.005,"lat":52.850021667,"lon":5.313341667,"epx":7.468,"epy":8.884,"epv":20.700,"track":231.8000,"magtrack":232.9000,"magvar":1.4,"speed":3.447,"eps":17.77,"epc":41.40,"geoidSep":43.514,"eph":11.400,"sep":20.900}
$GPAPB,,,,,,,,,,,,,,,N*26
$GPBOD,,T,,M,,*47
$SDHDG,232.9,,,1.3,E*3D
{"class":"TPV","mode":3,"time":"2018-08-20T09:47:45.000Z","ept":0.005,"lat":52.850021667,"lon":5.313341667,"epx":7.468,"epy":8.884,"epv":20.700,"track":231.8000,"magtrack":232.9000,"magvar":1.4,"speed":3.447,"eps":17.77,"epc":41.40,"geoidSep":43.514,"eph":11.400,"sep":20.900}
$GPRMB,,,,,,,,,,,,,,N*04
$GPXTE,,,,,N,N*5E
$SDHDG,232.8,,,1.3,E*3C
{"class":"TPV","mode":3,"time":"2018-08-20T09:47:45.000Z","ept":0.005,"lat":52.850021667,"lon":5.313341667,"epx":7.468,"epy":8.884,"epv":20.700,"track":231.8000,"magtrack":232.8000,"magvar":1.4,"speed":3.447,"eps":17.77,"epc":41.40,"geoidSep":43.514,"eph":11.400,"sep":20.900}
$SDDBT,17.7,f,5.4,M,2.9,F*3D
{"class":"TPV","mode":3,"time":"2018-08-20T09:47:45.000Z","ept":0.005,"lat":52.850021667,"lon":5.313341667,"epx":7.468,"epy":8.884,"epv":20.700,"track":231.8000,"magtrack":232.8000,"magvar":1.4,"speed":3.447,"eps":17.77,"epc":41.40,"geoidSep":43.514,"eph":11.400,"sep":20.900,"depth":5.400}
$SDDPT,5.4,0.4,*7E
$SDMTW,,C*1A
$SDVLW,,N,545.6,N,1109.4,N,393.6,N*44
$SDVHW,234.1,T,232.7,M,6.7,N,12.4,K*74
$SDHDG,232.7,,,1.3,E*33
{"class":"TPV","mode":3,"time":"2018-08-20T09:47:45.000Z","ept":0.005,"lat":52.850021667,"lon":5.313341667,"epx":7.468,"epy":8.884,"epv":20.700,"track":231.8000,"magtrack":232.7000,"magvar":1.4,"speed":3.447,"eps":17.77,"epc":41.40,"geoidSep":43.514,"eph":11.400,"sep":20.900,"depth":5.400}
$WIMWD,327.9,T,326.5,M,11.4,N,5.9,M*6F
$WIMWV,68.5,R,13.0,N,A*2A
$WIMWV,93.6,T,11.4,N,A*2D
$IIXDR,C,,C,AIRTEMP,A,-4.5,D,HEEL,A,2.7,D,TRIM,P,,B,BARO,A,-5.3,D,RUDDER*2B
$SDHDG,232.6,,,1.3,E*32
{"class":"TPV","mode":3,"time":"2018-08-20T09:47:45.000Z","ept":0.005,"lat":52.850021667,"lon":5.313341667,"epx":7.468,"epy":8.884,"epv":20.700,"track":231.8000,"magtrack":232.6000,"magvar":1.4,"speed":3.447,"eps":17.77,"epc":41.40,"geoidSep":43.514,"eph":11.400,"sep":20.900,"depth":5.400}
$SDHDG,232.4,,,1.3,E*30
{"class":"TPV","mode":3,"time":"2018-08-20T09:47:45.000Z","ept":0.005,"lat":52.850021667,"lon":5.313341667,"epx":7.468,"epy":8.884,"epv":20.700,"track":231.8000,"magtrack":232.4000,"magvar":1.4,"speed":3.447,"eps":17.77,"epc":41.40,"geoidSep":43.514,"eph":11.400,"sep":20.900,"depth":5.400}
$SDHDG,232.2,,,1.3,E*36
{"class":"TPV","mode":3,"time":"2018-08-20T09:47:45.000Z","ept":0.005,"lat":52.850021667,"lon":5.313341667,"epx":7.468,"epy":8.884,"epv":20.700,"track":231.8000,"magtrack":232.2000,"magvar":1.4,"speed":3.447,"eps":17.77,"epc":41.40,"geoidSep":43.514,"eph":11.400,"sep":20.900,"depth":5.400}
$SDHDG,232.0,,,1.3,E*34
{"class":"TPV","mode":3,"time":"2018-08-20T09:47:45.000Z","ept":0.005,"lat":52.850021667,"lon":5.313341667,"epx":7.468,"epy":8.884,"epv":20.700,"track":231.8000,"magtrack":232.0000,"magvar":1.4,"speed":3.447,"eps":17.77,"epc":41.40,"geoidSep":43.514,"eph":11.400,"sep":20.900,"depth":5.400}
$SDHDG,231.8,,,1.3,E*3F
{"class":"TPV","mode":3,"time":"2018-08-20T09:47:45.000Z","ept":0.005,"lat":52.850021667,"lon":5.313341667,"epx":7.468,"epy":8.884,"epv":20.700,"track":231.8000,"magtrack":231.8000,"magvar":1.4,"speed":3.447,"eps":17.77,"epc":41.40,"geoidSep":43.514,"eph":11.400,"sep":20.900,"depth":5.400}
$GPGGA,094745,5251.0006,N,00518.7986,E,1,12,0.60,-4,M,46.8,M,,*48
$GPGLC,9960,,,,,,,,,,,,*75
$GPGLL,5251.0006,N,00518.7986,E,094745,A,A*45
$GPGSA,A,3,07,08,10,16,20,21,26,27,29,76,75,70,1.10,0.60,0.90*0B
{"class":"TPV","mode":3,"time":"2018-08-20T09:47:45.000Z","ept":0.005,"lat":52.850010000,"lon":5.313310000,"altHAE":42.800,"altMSL":-4.000,"epx":7.468,"epy":8.884,"epv":20.700,"track":231.8000,"magtrack":231.8000,"magvar":1.4,"speed":3.447,"climb":0.000,"eps":17.77,"epc":41.40,"geoidSep":46.800,"eph":11.400,"sep":20.900,"depth":5.400}
$GPGSV,3,1,12,07,10,333,35,08,12,279,33,10,16,158,32,16,74,247,37*76
$GPGSV,3,2,12,20,36,138,37,21,66,078,38,26,57,179,34,27,45,281,39*7E
$GPGSV,3,3,12,29,11,091,46,76,48,226,26,75,14,188,28,70,27,083,30*72
{"class":"TPV","mode":3,"time":"2018-08-20T09:47:45.000Z","ept":0.005,"lat":52.850010000,"lon":5.313310000,"altHAE":42.800,"altMSL":-4.000,"epx":7.468,"epy":8.884,"epv":20.700,"track":231.8000,"magtrack":231.8000,"magvar":1.4,"speed":3.447,"climb":0.000,"eps":17.77,"epc":41.40,"geoidSep":46.800,"eph":11.400,"sep":20.900,"depth":5.400}
