# Name: B&G Zeus² 9 
# Description: B&G Chartplotter (https://ww2.bandg.com/product/zeus2_9/)
# Submitter: Oleg Roitburd <oroitburd@gmail.com>
# Date: 2018-08-20
# Location: IJsselmeer,NL 52,51N/005,18E
# This file is Copyright (c) 2010 by the GPSD project
# BSD terms apply: see the file COPYING in the distribution root for details.
#
$SDDPT,5.3,0.4,*79
$SDHDG,229.8,,,1.3,E*36
$SDMTW,,C*1A
$SDVLW,,N,545.6,N,1109.4,N,393.6,N*44
$SDVHW,231.3,T,229.9,M,6.6,N,12.3,K*71
$WIMWD,328.2,T,326.8,M,11.2,N,5.8,M*61
$WIMWV,57.5,R,13.0,N,A*26
$WIMWV,96.6,T,11.2,N,A*2E
$IIXDR,C,,C,AIRTEMP,A,-1.0,D,HEEL,A,2.9,D,TRIM,P,,B,BARO,A,-3.9,D,RUDDER*29
$SDHDG,230.0,,,1.3,E*36
$SDHDG,230.3,,,1.3,E*35
$SDHDG,230.6,,,1.3,E*30
$SDHDG,230.9,,,1.3,E*3F
$SDHDG,231.2,,,1.3,E*35
$GPGGA,094736,5251.0094,N,00518.8172,E,1,12,0.60,-4,M,46.8,M,,*4B
$GPGLC,9960,,,,,,,,,,,,*75
$GPGLL,5251.0093,N,00518.8170,E,094736,A,A*43
$GPGSA,A,3,07,08,10,16,20,21,26,27,29,76,75,70,1.10,0.60,0.90*0B
$GPGSV,3,1,12,07,10,333,39,08,12,279,35,10,16,158,33,16,74,249,37*73
$GPGSV,3,2,12,20,36,138,34,21,66,078,39,26,57,179,33,27,45,281,38*7A
$GPGSV,3,3,12,29,11,091,46,76,48,226,32,75,14,188,27,70,27,083,31*79
$SDHDG,231.5,,,1.3,E*32
$GPRMC,094737,A,5251.0093,N,00518.8170,E,5.6,230.5,200818,1.4,E,A*1F
$GPVTG,230.5,T,229.1,M,5.6,N,10.4,K,A*19
$GPZDA,094737,20,08,2018,-01,00*6B
$GPAAM,,,,N,*38
$SDHDG,231.6,,,1.3,E*31
$GPAPB,,,,,,,,,,,,,,,N*26
$GPBOD,,T,,M,,*47
$SDHDG,231.8,,,1.3,E*3F
$GPRMB,,,,,,,,,,,,,,N*04
$GPXTE,,,,,N,N*5E
$SDHDG,231.8,,,1.3,E*3F
$SDDBT,18.0,f,5.4,M,3.0,F*3D
$SDDPT,5.4,0.4,*7E
$SDMTW,,C*1A
$SDVLW,,N,545.6,N,1109.4,N,393.6,N*44
$SDVHW,233.2,T,231.8,M,6.6,N,12.3,K*7A
$SDHDG,231.8,,,1.3,E*3F
$WIMWD,327.8,T,326.4,M,11.3,N,5.8,M*69
$WIMWV,73.7,R,11.1,N,A*21
$WIMWV,94.9,T,11.3,N,A*22
$IIXDR,C,,C,AIRTEMP,A,-3.0,D,HEEL,A,3.7,D,TRIM,P,,B,BARO,A,-4.2,D,RUDDER*28
$SDHDG,231.8,,,1.3,E*3F
$SDHDG,231.7,,,1.3,E*30
$SDHDG,231.6,,,1.3,E*31
$SDHDG,231.5,,,1.3,E*32
$SDHDG,231.3,,,1.3,E*34
$GPGGA,094737,5251.0085,N,00518.8151,E,1,12,0.60,-4,M,46.8,M,,*4B
$GPGLC,9960,,,,,,,,,,,,*75
$GPGLL,5251.0084,N,00518.8149,E,094737,A,A*4E
$GPGSA,A,3,07,08,10,16,20,21,26,27,29,76,75,70,1.10,0.60,0.90*0B
$GPGSV,3,1,12,07,10,333,39,08,12,279,35,10,16,158,33,16,74,249,37*73
$GPGSV,3,2,12,20,36,138,34,21,66,078,39,26,57,179,33,27,45,281,38*7A
$GPGSV,3,3,12,29,11,091,46,76,48,226,32,75,14,188,27,70,27,083,31*79
$GPRMC,094738,A,5251.0084,N,00518.8149,E,5.8,235.1,200818,1.4,E,A*13
$SDHDG,231.2,,,1.3,E*35
$GPVTG,235.1,T,233.7,M,5.8,N,10.7,K,A*18
$GPZDA,094738,20,08,2018,-01,00*64
$GPAAM,,,,N,*38
$GPAPB,,,,,,,,,,,,,,,N*26
$SDHDG,231.0,,,1.3,E*37
$GPBOD,,T,,M,,*47
$SDHDG,230.8,,,1.3,E*3E
$GPRMB,,,,,,,,,,,,,,N*04
$GPXTE,,,,,N,N*5E
$SDHDG,230.7,,,1.3,E*31
$SDDBT,17.5,f,5.3,M,2.9,F*38
$SDDPT,5.3,0.4,*79
$SDMTW,,C*1A
$SDVLW,,N,545.6,N,1109.4,N,393.6,N*44
$SDVHW,231.9,T,230.6,M,6.6,N,12.2,K*7D
$SDHDG,230.6,,,1.3,E*30
$WIMWD,328.3,T,326.9,M,11.2,N,5.8,M*61
$WIMWV,53.0,R,13.0,N,A*27
$WIMWV,95.8,T,11.2,N,A*23
$IIXDR,C,,C,AIRTEMP,A,-2.8,D,HEEL,A,5.2,D,TRIM,P,,B,BARO,A,-4.1,D,RUDDER*21
$SDHDG,230.5,,,1.3,E*33
$SDHDG,230.4,,,1.3,E*32
$SDHDG,230.4,,,1.3,E*32
$SDHDG,230.5,,,1.3,E*33
$SDHDG,230.6,,,1.3,E*30
$GPGGA,094738,5251.0074,N,00518.8132,E,1,12,0.60,-4,M,46.8,M,,*4F
$GPGLC,9960,,,,,,,,,,,,*75
$GPGLL,5251.0073,N,00518.8130,E,094738,A,A*47
$GPGSA,A,3,07,08,10,16,20,21,26,27,29,76,75,70,1.10,0.60,0.90*0B
$GPGSV,3,1,12,07,10,333,37,08,12,279,34,10,16,158,33,16,74,249,37*7C
$GPGSV,3,2,12,20,36,138,34,21,66,078,39,26,57,179,32,27,45,281,38*7B
$GPGSV,3,3,12,29,11,091,46,76,48,226,30,75,14,188,27,70,27,083,31*7B
$GPRMC,094739,A,5251.0073,N,00518.8130,E,5.7,229.9,200818,1.4,E,A*1E
$SDHDG,230.8,,,1.3,E*3E
$GPVTG,229.9,T,228.5,M,5.7,N,10.5,K,A*18
$GPZDA,094739,20,08,2018,-01,00*65
$GPAAM,,,,N,*38
$GPAPB,,,,,,,,,,,,,,,N*26
$SDHDG,231.0,,,1.3,E*37
$GPBOD,,T,,M,,*47
$SDHDG,231.3,,,1.3,E*34
$GPRMB,,,,,,,,,,,,,,N*04
$GPXTE,,,,,N,N*5E
$SDHDG,231.5,,,1.3,E*32
$SDDBT,17.8,f,5.4,M,2.9,F*32
$SDDPT,5.4,0.4,*7E
$SDMTW,,C*1A
$SDVLW,,N,545.6,N,1109.4,N,393.6,N*44
$SDVHW,233.2,T,231.8,M,6.7,N,12.4,K*7C
$SDHDG,231.8,,,1.3,E*3F
$WIMWD,327.4,T,326.1,M,11.3,N,5.8,M*60
$WIMWV,64.7,R,14.0,N,A*23
$WIMWV,94.5,T,11.3,N,A*2E
$IIXDR,C,,C,AIRTEMP,A,-2.9,D,HEEL,A,2.1,D,TRIM,P,,B,BARO,A,-4.1,D,RUDDER*24
$SDHDG,232.0,,,1.3,E*34
$SDHDG,232.3,,,1.3,E*37
$SDHDG,232.4,,,1.3,E*30
$SDHDG,232.5,,,1.3,E*31
$SDHDG,232.6,,,1.3,E*32
$GPGGA,094739,5251.0066,N,00518.8114,E,1,12,0.60,-4,M,46.8,M,,*49
$GPGLC,9960,,,,,,,,,,,,*75
$GPGLL,5251.0065,N,00518.8112,E,094739,A,A*41
$GPGSA,A,3,07,08,10,16,20,21,26,27,29,76,75,70,1.10,0.60,0.90*0B
$GPGSV,3,1,12,07,10,333,36,08,12,279,34,10,16,158,32,16,74,249,37*7C
$GPGSV,3,2,12,20,36,138,34,21,66,078,39,26,57,179,33,27,45,281,39*7B
$GPGSV,3,3,12,29,11,091,46,76,48,226,30,75,14,188,26,70,27,083,30*7B
$GPRMC,094740,A,5251.0065,N,00518.8112,E,5.6,235.1,200818,1.4,E,A*13
$GPVTG,235.1,T,233.7,M,5.6,N,10.4,K,A*15
$SDHDG,232.5,,,1.3,E*31
$GPZDA,094740,20,08,2018,-01,00*6B
$GPAAM,,,,N,*38
$GPAPB,,,,,,,,,,,,,,,N*26
$SDHDG,232.4,,,1.3,E*30
$GPBOD,,T,,M,,*47
$SDHDG,232.1,,,1.3,E*35
$GPRMB,,,,,,,,,,,,,,N*04
$GPXTE,,,,,N,N*5E
$SDDBT,17.7,f,5.4,M,2.9,F*3D
$SDHDG,232.0,,,1.3,E*34
$SDDPT,5.4,0.4,*7E
$SDMTW,,C*1A
$SDVLW,,N,545.6,N,1109.4,N,393.6,N*44
$SDVHW,233.3,T,231.9,M,6.6,N,12.3,K*7A
$WIMWD,327.5,T,326.1,M,11.4,N,5.8,M*66
$SDHDG,231.8,,,1.3,E*3F
$WIMWV,62.2,R,12.0,N,A*26
$WIMWV,94.1,T,11.4,N,A*2D
$IIXDR,C,,C,AIRTEMP,A,-2.8,D,HEEL,A,4.7,D,TRIM,P,,B,BARO,A,-4.1,D,RUDDER*25
$SDHDG,231.6,,,1.3,E*31
$SDHDG,231.4,,,1.3,E*33
$SDHDG,231.3,,,1.3,E*34
$SDHDG,231.1,,,1.3,E*36
$GPGGA,094740,5251.0057,N,00518.8094,E,1,12,0.60,-4,M,46.8,M,,*4C
$SDHDG,231.0,,,1.3,E*37
$GPGLC,9960,,,,,,,,,,,,*75
$GPGLL,5251.0057,N,00518.8094,E,094740,A,A*41
$GPGSA,A,3,07,08,10,16,20,21,26,27,29,76,75,70,1.10,0.60,0.90*0B
$GPGSV,3,1,12,07,10,333,37,08,12,279,34,10,16,158,31,16,74,247,37*70
$GPGSV,3,2,12,20,36,138,35,21,66,078,38,26,57,179,32,27,45,281,39*7A
$GPGSV,3,3,12,29,11,091,45,76,48,226,30,75,14,188,27,70,27,083,30*79
$GPRMC,094741,A,5251.0055,N,00518.8090,E,6.3,226.5,200818,1.4,E,A*1A
$GPVTG,226.5,T,225.1,M,6.3,N,11.7,K,A*16
$GPZDA,094741,20,08,2018,-01,00*6A
$SDHDG,231.0,,,1.3,E*37
$GPAAM,,,,N,*38
$GPAPB,,,,,,,,,,,,,,,N*26
$SDHDG,231.0,,,1.3,E*37
$GPBOD,,T,,M,,*47
$SDHDG,231.1,,,1.3,E*36
$GPRMB,,,,,,,,,,,,,,N*04
$GPXTE,,,,,N,N*5E
$SDDBT,17.5,f,5.3,M,2.9,F*38
$SDHDG,231.3,,,1.3,E*34
$SDDPT,5.3,0.4,*79
$SDMTW,,C*1A
$SDVLW,,N,545.6,N,1109.4,N,393.6,N*44
$SDVHW,232.8,T,231.4,M,6.8,N,12.6,K*76
$WIMWD,327.2,T,325.9,M,11.3,N,5.8,M*6D
$SDHDG,231.5,,,1.3,E*32
$WIMWV,63.1,R,14.0,N,A*22
$WIMWV,94.3,T,11.3,N,A*28
$IIXDR,C,,C,AIRTEMP,A,-2.9,D,HEEL,A,2.2,D,TRIM,P,,B,BARO,A,-4.1,D,RUDDER*27
$SDHDG,231.7,,,1.3,E*30
$SDHDG,232.0,,,1.3,E*34
$SDHDG,232.2,,,1.3,E*36
$SDHDG,232.3,,,1.3,E*37
$GPGGA,094741,5251.0046,N,00518.8070,E,1,12,0.60,-4,M,46.8,M,,*47
$GPGLC,9960,,,,,,,,,,,,*75
$SDHDG,232.4,,,1.3,E*30
$GPGLL,5251.0046,N,00518.8070,E,094741,A,A*4A
$GPGSA,A,3,07,08,10,16,20,21,26,27,29,76,75,70,1.10,0.60,0.90*0B
$GPGSV,3,1,12,07,10,333,36,08,12,279,33,10,16,158,32,16,74,247,37*75
$GPGSV,3,2,12,20,36,138,35,21,66,078,38,26,57,179,33,27,45,281,39*7B
$GPGSV,3,3,12,29,11,091,45,76,48,226,27,75,14,188,27,70,27,083,31*7E
$GPRMC,094742,A,5251.0045,N,00518.8068,E,5.2,237.3,200818,1.4,E,A*1B
$GPVTG,237.3,T,235.9,M,5.2,N,9.6,K,A*23
$GPZDA,094742,20,08,2018,-01,00*69
$SDHDG,232.4,,,1.3,E*30
$GPAAM,,,,N,*38
$GPAPB,,,,,,,,,,,,,,,N*26
$SDHDG,232.4,,,1.3,E*30
$GPBOD,,T,,M,,*47
$GPRMB,,,,,,,,,,,,,,N*04
$SDHDG,232.3,,,1.3,E*37
$GPXTE,,,,,N,N*5E
$SDDBT,17.9,f,5.4,M,2.9,F*33
$SDHDG,232.1,,,1.3,E*35
$SDDPT,5.4,0.4,*7E
$SDMTW,,C*1A
$SDVLW,,N,545.6,N,1109.4,N,393.6,N*44
$SDVHW,233.4,T,232.0,M,6.7,N,12.4,K*71
$WIMWD,327.6,T,326.2,M,11.4,N,5.9,M*67
$WIMWV,57.3,R,12.0,N,A*21
$WIMWV,94.4,T,11.4,N,A*28
$IIXDR,C,,C,AIRTEMP,A,-4.5,D,HEEL,A,5.5,D,TRIM,P,,B,BARO,A,-4.1,D,RUDDER*2D
$SDHDG,231.8,,,1.3,E*3F
$SDHDG,231.5,,,1.3,E*32
$SDHDG,231.2,,,1.3,E*35
$SDHDG,230.9,,,1.3,E*3F
$SDHDG,230.7,,,1.3,E*31
$GPGGA,094742,5251.0035,N,00518.8049,E,1,12,0.60,-4,M,46.8,M,,*4A
$GPGLC,9960,,,,,,,,,,,,*75
$GPGLL,5251.0034,N,00518.8047,E,094742,A,A*48
$SDHDG,230.6,,,1.3,E*30
$GPGSA,A,3,07,08,10,16,20,21,26,27,29,76,75,70,1.10,0.60,0.90*0B
$GPGSV,3,1,12,07,10,333,36,08,12,279,33,10,16,158,31,16,74,247,37*76
$GPGSV,3,2,12,20,36,138,37,21,66,078,38,26,57,179,33,27,45,281,39*79
$GPGSV,3,3,12,29,11,091,46,76,48,226,30,75,14,188,26,70,27,083,32*79
$GPRMC,094743,A,5251.0034,N,00518.8047,E,6.3,225.8,200818,1.4,E,A*1B
$GPVTG,225.8,T,224.4,M,6.3,N,11.7,K,A*1C
$GPZDA,094743,20,08,2018,-01,00*68
$SDHDG,230.6,,,1.3,E*30
$GPAAM,,,,N,*38
$GPAPB,,,,,,,,,,,,,,,N*26
$SDHDG,230.8,,,1.3,E*3E
$GPBOD,,T,,M,,*47
$GPRMB,,,,,,,,,,,,,,N*04
$GPXTE,,,,,N,N*5E
$SDHDG,231.0,,,1.3,E*37
$SDDBT,17.6,f,5.3,M,2.9,F*3B
$SDDPT,5.3,0.4,*79
$SDHDG,231.3,,,1.3,E*34
$SDMTW,,C*1A
$SDVLW,,N,545.6,N,1109.4,N,393.6,N*44
$SDVHW,232.8,T,231.5,M,6.8,N,12.6,K*77
$WIMWD,327.5,T,326.1,M,11.4,N,5.9,M*67
$WIMWV,70.1,R,13.0,N,A*27
$WIMWV,94.7,T,11.4,N,A*2B
$IIXDR,C,,C,AIRTEMP,A,-2.8,D,HEEL,A,1.0,D,TRIM,P,,B,BARO,A,-4.0,D,RUDDER*26
$SDHDG,231.6,,,1.3,E*31
$SDHDG,231.9,,,1.3,E*3E
$SDHDG,232.2,,,1.3,E*36
$SDHDG,232.4,,,1.3,E*30
$SDHDG,232.5,,,1.3,E*31
$GPGGA,094743,5251.0025,N,00518.8029,E,1,12,0.60,-4,M,46.8,M,,*4C
$GPGLC,9960,,,,,,,,,,,,*75
$GPGLL,5251.0024,N,00518.8027,E,094743,A,A*4E
$SDHDG,232.7,,,1.3,E*33
$GPGSA,A,3,07,08,10,16,20,21,26,27,29,76,75,70,1.10,0.60,0.90*0B
$GPGSV,3,1,12,07,10,333,35,08,12,279,32,10,16,158,31,16,74,247,37*74
$GPGSV,3,2,12,20,36,138,37,21,66,078,38,26,57,179,34,27,45,281,39*7E
$GPGSV,3,3,12,29,11,091,45,76,48,226,31,75,14,188,28,70,27,083,31*76
$GPRMC,094744,A,5251.0024,N,00518.8027,E,5.3,232.0,200818,1.4,E,A*16
$GPVTG,232.0,T,230.6,M,5.3,N,9.8,K,A*20
$GPZDA,094744,20,08,2018,-01,00*6F
$SDHDG,232.8,,,1.3,E*3C
$GPAAM,,,,N,*38
$GPAPB,,,,,,,,,,,,,,,N*26
$SDHDG,232.9,,,1.3,E*3D
$GPBOD,,T,,M,,*47
$GPRMB,,,,,,,,,,,,,,N*04
$GPXTE,,,,,N,N*5E
$SDHDG,232.9,,,1.3,E*3D
$SDDBT,17.9,f,5.4,M,2.9,F*33
$SDDPT,5.4,0.4,*7E
$SDMTW,,C*1A
$SDHDG,232.9,,,1.3,E*3D
$SDVLW,,N,545.6,N,1109.4,N,393.6,N*44
$SDVHW,234.3,T,232.9,M,6.7,N,12.5,K*79
$WIMWD,328.0,T,326.6,M,11.5,N,5.9,M*6B
$WIMWV,58.7,R,12.0,N,A*2A
$WIMWV,93.9,T,11.5,N,A*23
$IIXDR,C,,C,AIRTEMP,A,-2.6,D,HEEL,A,5.2,D,TRIM,P,,B,BARO,A,-5.1,D,RUDDER*2E
$SDHDG,233.0,,,1.3,E*35
$SDHDG,233.0,,,1.3,E*35
$SDHDG,233.0,,,1.3,E*35
$SDHDG,233.0,,,1.3,E*35
$SDHDG,233.0,,,1.3,E*35
$GPGGA,094744,5251.0014,N,00518.8008,E,1,12,0.60,-4,M,46.8,M,,*4A
$GPGLC,9960,,,,,,,,,,,,*75
$GPGLL,5251.0014,N,00518.8008,E,094744,A,A*47
$GPGSA,A,3,07,08,10,16,20,21,26,27,29,76,75,70,1.10,0.60,0.90*0B
$GPGSV,3,1,12,07,10,333,35,08,12,279,33,10,16,158,30,16,74,247,37*74
$GPGSV,3,2,12,20,36,138,38,21,66,078,38,26,57,179,35,27,45,281,39*70
$GPGSV,3,3,12,29,11,091,46,76,48,226,31,75,14,188,27,70,27,083,31*7A
$SDHDG,232.9,,,1.3,E*3D
$GPRMC,094745,A,5251.0013,N,00518.8005,E,6.7,231.8,200818,1.4,E,A*1F
$GPVTG,231.8,T,230.4,M,6.7,N,12.4,K,A*18
$GPZDA,094745,20,08,2018,-01,00*6E
$GPAAM,,,,N,*38
$SDHDG,232.9,,,1.3,E*3D
$GPAPB,,,,,,,,,,,,,,,N*26
$GPBOD,,T,,M,,*47
$SDHDG,232.9,,,1.3,E*3D
$GPRMB,,,,,,,,,,,,,,N*04
$GPXTE,,,,,N,N*5E
$SDHDG,232.8,,,1.3,E*3C
$SDDBT,17.7,f,5.4,M,2.9,F*3D
$SDDPT,5.4,0.4,*7E
$SDMTW,,C*1A
$SDVLW,,N,545.6,N,1109.4,N,393.6,N*44
$SDVHW,234.1,T,232.7,M,6.7,N,12.4,K*74
$SDHDG,232.7,,,1.3,E*33
$WIMWD,327.9,T,326.5,M,11.4,N,5.9,M*6F
$WIMWV,68.5,R,13.0,N,A*2A
$WIMWV,93.6,T,11.4,N,A*2D
$IIXDR,C,,C,AIRTEMP,A,-4.5,D,HEEL,A,2.7,D,TRIM,P,,B,BARO,A,-5.3,D,RUDDER*2B
$SDHDG,232.6,,,1.3,E*32
$SDHDG,232.4,,,1.3,E*30
$SDHDG,232.2,,,1.3,E*36
$SDHDG,232.0,,,1.3,E*34
$SDHDG,231.8,,,1.3,E*3F
$GPGGA,094745,5251.0006,N,00518.7986,E,1,12,0.60,-4,M,46.8,M,,*48
$GPGLC,9960,,,,,,,,,,,,*75
$GPGLL,5251.0006,N,00518.7986,E,094745,A,A*45
$GPGSA,A,3,07,08,10,16,20,21,26,27,29,76,75,70,1.10,0.60,0.90*0B
$GPGSV,3,1,12,07,10,333,35,08,12,279,33,10,16,158,32,16,74,247,37*76
$GPGSV,3,2,12,20,36,138,37,21,66,078,38,26,57,179,34,27,45,281,39*7E
$GPGSV,3,3,12,29,11,091,46,76,48,226,26,75,14,188,28,70,27,083,30*72
$SDHDG,231.7,,,1.3,E*30
$GPRMC,094746,A,5251.0005,N,00518.7984,E,5.8,241.3,200818,1.4,E,A*14
$GPVTG,241.3,T,239.9,M,5.8,N,10.7,K,A*1D
$GPZDA,094746,20,08,2018,-01,00*6D
$GPAAM,,,,N,*38
$SDHDG,231.5,,,1.3,E*32
$GPAPB,,,,,,,,,,,,,,,N*26
$GPBOD,,T,,M,,*47
$SDHDG,231.4,,,1.3,E*33
$GPRMB,,,,,,,,,,,,,,N*04
$GPXTE,,,,,N,N*5E
$SDHDG,231.3,,,1.3,E*34
$SDDBT,17.7,f,5.4,M,2.9,F*3D
$SDDPT,5.4,0.4,*7E
$SDMTW,,C*1A
$SDVLW,,N,545.6,N,1109.4,N,393.6,N*44
$SDVHW,232.7,T,231.3,M,6.7,N,12.5,K*72
$SDHDG,231.3,,,1.3,E*34
$WIMWD,328.4,T,327.0,M,11.4,N,5.9,M*69
$WIMWV,57.7,R,13.0,N,A*24
$WIMWV,95.7,T,11.4,N,A*2A
$IIXDR,C,,C,AIRTEMP,A,-2.0,D,HEEL,A,4.6,D,TRIM,P,,B,BARO,A,-3.8,D,RUDDER*22
$SDHDG,231.3,,,1.3,E*34
$SDHDG,231.3,,,1.3,E*34
$SDHDG,231.3,,,1.3,E*34
$SDHDG,231.3,,,1.3,E*34
$SDHDG,231.4,,,1.3,E*33
$GPGGA,094746,5250.9996,N,00518.7962,E,1,12,0.60,-4,M,46.8,M,,*49
$GPGLC,9960,,,,,,,,,,,,*75
$GPGLL,5250.9996,N,00518.7962,E,094746,A,A*44
$GPGSA,A,3,07,08,10,16,20,21,26,27,29,76,75,70,1.10,0.60,0.90*0B
$GPGSV,3,1,12,07,10,333,34,08,12,279,33,10,16,158,32,16,74,247,37*77
$GPGSV,3,2,12,20,36,138,37,21,66,078,38,26,57,179,33,27,45,281,40*77
$GPGSV,3,3,12,29,11,091,46,76,48,226,25,75,14,188,27,70,27,083,30*7E
$GPRMC,094747,A,5250.9996,N,00518.7962,E,5.8,227.7,200818,1.4,E,A*12
$SDHDG,231.5,,,1.3,E*32
$GPVTG,227.7,T,226.3,M,5.8,N,10.7,K,A*1D
$GPZDA,094747,20,08,2018,-01,00*6C
$GPAAM,,,,N,*38
$GPAPB,,,,,,,,,,,,,,,N*26
$SDHDG,231.7,,,1.3,E*30
$GPBOD,,T,,M,,*47
$SDHDG,231.9,,,1.3,E*3E
$GPRMB,,,,,,,,,,,,,,N*04
$GPXTE,,,,,N,N*5E
$SDHDG,232.1,,,1.3,E*35
$SDDBT,17.6,f,5.3,M,2.9,F*3B
$SDDPT,5.3,0.4,*79
$SDMTW,,C*1A
$SDVLW,,N,545.6,N,1109.4,N,393.6,N*44
$SDVHW,233.7,T,232.3,M,6.7,N,12.4,K*71
$SDHDG,232.3,,,1.3,E*37
$WIMWD,327.6,T,326.2,M,11.4,N,5.9,M*67
$WIMWV,64.2,R,13.0,N,A*21
$WIMWV,93.9,T,11.4,N,A*22
$IIXDR,C,,C,AIRTEMP,A,-1.8,D,HEEL,A,1.5,D,TRIM,P,,B,BARO,A,-3.9,D,RUDDER*2E
$SDHDG,232.5,,,1.3,E*31
$SDHDG,232.7,,,1.3,E*33
$SDHDG,232.9,,,1.3,E*3D
$SDHDG,233.0,,,1.3,E*35
$SDHDG,233.0,,,1.3,E*35
$GPGGA,094747,5250.9986,N,00518.7942,E,1,12,0.60,-4,M,46.8,M,,*4B
$GPGLC,9960,,,,,,,,,,,,*75
$GPGLL,5250.9986,N,00518.7942,E,094747,A,A*46
$GPGSA,A,3,07,08,10,16,20,21,26,27,29,76,75,70,1.10,0.60,0.90*0B
$GPGSV,3,1,12,07,10,333,36,08,12,279,33,10,16,158,32,16,74,247,37*75
$GPGSV,3,2,12,20,36,138,38,21,66,078,38,26,57,179,33,27,45,281,39*76
$GPGSV,3,3,12,29,11,091,46,76,48,226,24,75,14,188,26,70,27,083,29*76
$GPRMC,094748,A,5250.9986,N,00518.7942,E,5.6,233.9,200818,1.4,E,A*1B
$SDHDG,233.0,,,1.3,E*35
$GPVTG,233.9,T,232.5,M,5.6,N,10.4,K,A*18
$GPZDA,094748,20,08,2018,-01,00*63
$GPAAM,,,,N,*38
$GPAPB,,,,,,,,,,,,,,,N*26
$SDHDG,232.9,,,1.3,E*3D
$GPBOD,,T,,M,,*47
$SDHDG,232.7,,,1.3,E*33
$GPRMB,,,,,,,,,,,,,,N*04
$GPXTE,,,,,N,N*5E
$SDDBT,17.7,f,5.4,M,2.9,F*3D
$SDHDG,232.6,,,1.3,E*32
$SDDPT,5.4,0.4,*7E
$SDMTW,,C*1A
$SDVLW,,N,545.6,N,1109.4,N,393.6,N*44
$SDVHW,233.7,T,232.3,M,6.8,N,12.6,K*7C
$SDHDG,232.3,,,1.3,E*37
$WIMWD,327.8,T,326.5,M,11.5,N,5.9,M*6F
$WIMWV,60.2,R,13.0,N,A*25
$WIMWV,93.9,T,11.5,N,A*23
$IIXDR,C,,C,AIRTEMP,A,-1.7,D,HEEL,A,5.6,D,TRIM,P,,B,BARO,A,-5.6,D,RUDDER*2F
$SDHDG,232.0,,,1.3,E*34
$SDHDG,231.8,,,1.3,E*3F
$SDHDG,231.5,,,1.3,E*32
$SDHDG,231.4,,,1.3,E*33
$SDHDG,231.3,,,1.3,E*34
$GPGGA,094748,5250.9976,N,00518.7918,E,1,12,0.60,-4,M,46.8,M,,*44
$GPGLC,9960,,,,,,,,,,,,*75
$GPGLL,5250.9976,N,00518.7918,E,094748,A,A*49
$GPGSA,A,3,07,08,10,16,20,21,26,27,29,76,75,70,1.10,0.60,0.90*0B
$GPGSV,3,1,12,07,10,333,36,08,12,279,33,10,16,158,32,16,74,247,37*75
$GPGSV,3,2,12,20,36,137,38,21,66,078,38,26,57,179,31,27,45,281,40*75
$GPGSV,3,3,12,29,11,091,46,76,48,226,25,75,14,188,28,70,27,083,29*79
$GPRMC,094749,A,5250.9976,N,00518.7918,E,5.8,234.4,200818,1.4,E,A*1E
$GPVTG,234.4,T,233.0,M,5.8,N,10.7,K,A*1B
$SDHDG,231.2,,,1.3,E*35
$GPZDA,094749,20,08,2018,-01,00*62
$GPAAM,,,,N,*38
$GPAPB,,,,,,,,,,,,,,,N*26
$SDHDG,231.2,,,1.3,E*35
$GPBOD,,T,,M,,*47
$SDHDG,231.2,,,1.3,E*35
$GPRMB,,,,,,,,,,,,,,N*04
$GPXTE,,,,,N,N*5E
$SDDBT,17.5,f,5.3,M,2.9,F*38
$SDHDG,231.3,,,1.3,E*34
$SDDPT,5.3,0.4,*79
$SDMTW,,C*1A
$SDVLW,,N,545.6,N,1109.4,N,393.6,N*44
$SDVHW,232.8,T,231.4,M,6.8,N,12.7,K*77
$SDHDG,231.4,,,1.3,E*33
$WIMWD,327.5,T,326.1,M,11.4,N,5.9,M*67
$WIMWV,61.1,R,14.0,N,A*20
$WIMWV,94.6,T,11.4,N,A*2A
$IIXDR,C,,C,AIRTEMP,A,0.2,D,HEEL,A,2.8,D,TRIM,P,,B,BARO,A,-3.8,D,RUDDER*07
$SDHDG,231.6,,,1.3,E*31
$SDHDG,231.7,,,1.3,E*30
$SDHDG,231.8,,,1.3,E*3F
$SDHDG,232.0,,,1.3,E*34
$GPGGA,094749,5250.9967,N,00518.7897,E,1,12,0.60,-4,M,46.8,M,,*43
$SDHDG,232.1,,,1.3,E*35
$GPGLC,9960,,,,,,,,,,,,*75
$GPGLL,5250.9967,N,00518.7897,E,094749,A,A*4E
$GPGSA,A,3,07,08,10,16,20,21,26,27,29,76,75,70,1.10,0.60,0.90*0B
$GPGSV,3,1,12,07,10,333,35,08,12,279,32,10,16,158,36,16,74,247,37*73
$GPGSV,3,2,12,20,36,137,36,21,66,078,38,26,57,179,31,27,45,281,40*7B
$GPGSV,3,3,12,29,11,091,45,76,48,226,25,75,14,188,29,70,27,083,29*7B
$GPRMC,094750,A,5250.9967,N,00518.7897,E,5.9,235.1,200818,1.4,E,A*15
$GPVTG,235.1,T,233.7,M,5.9,N,10.9,K,A*17
$SDHDG,232.1,,,1.3,E*35
$GPZDA,094750,20,08,2018,-01,00*6A
$GPAAM,,,,N,*38
$GPAPB,,,,,,,,,,,,,,,N*26
$SDHDG,232.2,,,1.3,E*36
$GPBOD,,T,,M,,*47
$SDHDG,232.2,,,1.3,E*36
$GPRMB,,,,,,,,,,,,,,N*04
$GPXTE,,,,,N,N*5E
$SDDBT,17.8,f,5.4,M,2.9,F*32
$SDHDG,232.1,,,1.3,E*35
$SDDPT,5.4,0.4,*7E
$SDMTW,,C*1A
$SDVLW,,N,545.7,N,1109.4,N,393.6,N*45
$SDVHW,233.5,T,232.1,M,6.8,N,12.7,K*7D
$WIMWD,327.3,T,325.9,M,11.5,N,5.9,M*6B
$SDHDG,232.1,,,1.3,E*35
$WIMWV,65.0,R,12.0,N,A*23
$WIMWV,93.8,T,11.5,N,A*22
$IIXDR,C,,C,AIRTEMP,A,0.9,D,HEEL,A,3.9,D,TRIM,P,,B,BARO,A,-4.3,D,RUDDER*00
$SDHDG,231.9,,,1.3,E*3E
$SDHDG,231.8,,,1.3,E*3F
$SDHDG,231.5,,,1.3,E*32
$SDHDG,231.3,,,1.3,E*34
$GPGGA,094750,5250.9958,N,00518.7876,E,1,12,0.60,-4,M,46.8,M,,*48
$SDHDG,231.1,,,1.3,E*36
$GPGLC,9960,,,,,,,,,,,,*75
$GPGLL,5250.9958,N,00518.7876,E,094750,A,A*45
$GPGSA,A,3,07,08,10,16,20,21,26,27,29,76,75,70,1.10,0.60,0.90*0B
$GPGSV,3,1,12,07,10,333,37,08,12,279,32,10,16,158,37,16,74,247,37*70
$GPGSV,3,2,12,20,36,137,34,21,66,077,38,26,57,179,31,27,45,281,39*78
$GPGSV,3,3,12,29,11,091,46,76,48,226,25,75,14,188,28,70,27,083,29*79
$GPRMC,094751,A,5250.9958,N,00518.7876,E,6.0,233.7,200818,1.4,E,A*1D
$GPVTG,233.7,T,232.3,M,6.0,N,11.1,K,A*11
$SDHDG,230.9,,,1.3,E*3F
$GPZDA,094751,20,08,2018,-01,00*6B
$GPAAM,,,,N,*38
$GPAPB,,,,,,,,,,,,,,,N*26
$SDHDG,230.7,,,1.3,E*31
$GPBOD,,T,,M,,*47
$GPRMB,,,,,,,,,,,,,,N*04
$SDHDG,230.5,,,1.3,E*33
$GPXTE,,,,,N,N*5E
$SDDBT,17.5,f,5.3,M,2.9,F*38
$SDHDG,230.4,,,1.3,E*32
$SDDPT,5.3,0.4,*79
$SDMTW,,C*1A
$SDVLW,,N,545.7,N,1109.4,N,393.6,N*45
$SDVHW,231.7,T,230.3,M,6.8,N,12.6,K*7C
$WIMWD,327.6,T,326.3,M,11.4,N,5.8,M*67
$WIMWV,49.4,R,14.0,N,A*2F
$WIMWV,95.5,T,11.4,N,A*28
$SDHDG,230.3,,,1.3,E*35
$IIXDR,C,,C,AIRTEMP,A,-1.6,D,HEEL,A,5.1,D,TRIM,P,,B,BARO,A,-5.0,D,RUDDER*2F
$SDHDG,230.3,,,1.3,E*35
$SDHDG,230.3,,,1.3,E*35
$SDHDG,230.4,,,1.3,E*32
$SDHDG,230.6,,,1.3,E*30
$GPGGA,094751,5250.9945,N,00518.7854,E,1,12,0.60,-5,M,46.8,M,,*44
$GPGLC,9960,,,,,,,,,,,,*75
$GPGLL,5250.9945,N,00518.7854,E,094751,A,A*48
$SDHDG,230.8,,,1.3,E*3E
$GPGSA,A,3,07,08,10,16,20,21,26,27,29,76,75,70,1.10,0.60,0.90*0B
$GPGSV,3,1,12,07,10,333,36,08,12,279,31,10,16,158,37,16,74,247,37*72
$GPGSV,3,2,12,20,36,137,29,21,66,077,39,26,57,179,33,27,45,281,39*77
$GPGSV,3,3,12,29,11,091,46,76,48,226,25,75,14,188,29,70,27,083,30*70
$GPRMC,094752,A,5250.9945,N,00518.7854,E,6.1,227.0,200818,1.4,E,A*11
$GPVTG,227.0,T,225.6,M,6.1,N,11.3,K,A*13
$GPZDA,094752,20,08,2018,-01,00*68
$SDHDG,231.0,,,1.3,E*37
$GPAAM,,,,N,*38
$GPAPB,,,,,,,,,,,,,,,N*26
$SDHDG,231.2,,,1.3,E*35
$GPBOD,,T,,M,,*47
$GPRMB,,,,,,,,,,,,,,N*04
$GPXTE,,,,,N,N*5E
$SDHDG,231.3,,,1.3,E*34
$SDDBT,17.7,f,5.4,M,2.9,F*3D
$SDDPT,5.4,0.4,*7E
$SDHDG,231.4,,,1.3,E*33
$SDMTW,,C*1A
$SDVLW,,N,545.7,N,1109.4,N,393.6,N*45
$SDVHW,232.8,T,231.4,M,6.7,N,12.4,K*7B
$WIMWD,326.6,T,325.2,M,11.4,N,5.9,M*65
$WIMWV,75.0,R,12.0,N,A*22
$WIMWV,94.1,T,11.4,N,A*2D
$IIXDR,C,,C,AIRTEMP,A,-3.0,D,HEEL,A,1.7,D,TRIM,P,,B,BARO,A,-4.7,D,RUDDER*2F
$SDHDG,231.4,,,1.3,E*33
$SDHDG,231.4,,,1.3,E*33
$SDHDG,231.3,,,1.3,E*34
$SDHDG,231.2,,,1.3,E*35
$SDHDG,231.1,,,1.3,E*36
$GPGGA,094752,5250.9937,N,00518.7838,E,1,12,0.60,-5,M,46.8,M,,*48
$GPGLC,9960,,,,,,,,,,,,*75
$GPGLL,5250.9937,N,00518.7838,E,094752,A,A*44
$GPGSA,A,3,07,08,10,16,20,21,26,27,29,76,75,70,1.10,0.60,0.90*0B
$GPGSV,3,1,12,07,10,333,39,08,12,279,32,10,16,158,36,16,74,247,37*7F
$GPGSV,3,2,12,20,36,137,32,21,66,077,39,26,57,179,33,27,45,281,39*7D
$GPGSV,3,3,12,29,11,091,46,76,48,226,27,75,14,188,28,70,27,083,29*7B
$SDHDG,230.8,,,1.3,E*3E
$GPRMC,094753,A,5250.9936,N,00518.7836,E,5.9,236.1,200818,1.4,E,A*1A
$GPVTG,236.1,T,234.7,M,5.9,N,10.9,K,A*13
$GPZDA,094753,20,08,2018,-01,00*69
$GPAAM,,,,N,*38
$SDHDG,230.6,,,1.3,E*30
$GPAPB,,,,,,,,,,,,,,,N*26
$GPBOD,,T,,M,,*47
$SDHDG,230.4,,,1.3,E*32
$GPRMB,,,,,,,,,,,,,,N*04
$GPXTE,,,,,N,N*5E
$SDHDG,230.3,,,1.3,E*35
$SDDBT,17.6,f,5.3,M,2.9,F*3B
$SDDPT,5.3,0.4,*79
$SDMTW,,C*1A
$SDVLW,,N,545.7,N,1109.4,N,393.7,N*44
$SDVHW,231.7,T,230.3,M,6.7,N,12.4,K*71
$SDHDG,230.3,,,1.3,E*35
$WIMWD,327.3,T,326.0,M,11.4,N,5.8,M*61
$WIMWV,59.0,R,13.0,N,A*2D
$WIMWV,95.3,T,11.4,N,A*2E
$IIXDR,C,,C,AIRTEMP,A,-3.3,D,HEEL,A,4.9,D,TRIM,P,,B,BARO,A,-4.8,D,RUDDER*28
$SDHDG,230.3,,,1.3,E*35
$SDHDG,230.3,,,1.3,E*35
$SDHDG,230.4,,,1.3,E*32
$SDHDG,230.5,,,1.3,E*33
$SDHDG,230.6,,,1.3,E*30
$GPGGA,094753,5250.9928,N,00518.7819,E,1,12,0.60,-5,M,46.8,M,,*44
$GPGLC,9960,,,,,,,,,,,,*75
$GPGLL,5250.9928,N,00518.7819,E,094753,A,A*48
$GPGSA,A,3,07,08,10,16,20,21,26,27,29,76,75,70,1.10,0.60,0.90*0B
$GPGSV,3,1,12,07,10,333,38,08,12,279,32,10,16,158,32,16,74,247,37*7A
$GPGSV,3,2,12,20,36,137,34,21,66,077,39,26,57,179,32,27,45,281,39*7A
$GPGSV,3,3,12,29,11,091,46,76,48,226,28,75,14,188,27,70,27,083,30*73
$SDHDG,230.6,,,1.3,E*30
$GPRMC,094754,A,5250.9927,N,00518.7817,E,5.6,230.3,200818,1.4,E,A*15
$GPVTG,230.3,T,228.9,M,5.6,N,10.4,K,A*16
$GPZDA,094754,20,08,2018,-01,00*6E
$GPAAM,,,,N,*38
$SDHDG,230.7,,,1.3,E*31
$GPAPB,,,,,,,,,,,,,,,N*26
$GPBOD,,T,,M,,*47
$SDHDG,230.7,,,1.3,E*31
$GPRMB,,,,,,,,,,,,,,N*04
$GPXTE,,,,,N,N*5E
$SDHDG,230.7,,,1.3,E*31
$SDDBT,18.0,f,5.4,M,3.0,F*3D
$SDDPT,5.4,0.4,*7E
$SDMTW,,C*1A
$SDVLW,,N,545.7,N,1109.5,N,393.7,N*45
$SDVHW,232.1,T,230.7,M,6.7,N,12.4,K*70
$SDHDG,230.7,,,1.3,E*31
$WIMWD,327.1,T,325.7,M,11.4,N,5.9,M*66
$WIMWV,64.7,R,14.0,N,A*23
$WIMWV,95.1,T,11.4,N,A*2C
$IIXDR,C,,C,AIRTEMP,A,-3.9,D,HEEL,A,3.5,D,TRIM,P,,B,BARO,A,-5.1,D,RUDDER*21
$SDHDG,230.7,,,1.3,E*31
$SDHDG,230.7,,,1.3,E*31
$SDHDG,230.7,,,1.3,E*31
$SDHDG,230.7,,,1.3,E*31
$SDHDG,230.7,,,1.3,E*31
$GPGGA,094754,5250.9918,N,00518.7797,E,1,12,0.60,-5,M,46.8,M,,*49
$GPGLC,9960,,,,,,,,,,,,*75
$GPGLL,5250.9918,N,00518.7797,E,094754,A,A*45
$GPGSA,A,3,07,08,10,16,20,21,26,27,29,76,75,70,1.10,0.60,0.90*0B
$GPGSV,3,1,12,07,10,333,37,08,12,279,33,10,16,158,31,16,74,247,36*76
$GPGSV,3,2,12,20,36,137,35,21,66,077,38,26,57,179,33,27,45,281,38*7A
$GPGSV,3,3,12,29,11,091,45,76,48,226,31,75,14,188,27,70,27,083,29*70
$SDHDG,230.7,,,1.3,E*31
$GPRMC,094755,A,5250.9917,N,00518.7795,E,5.8,238.9,200818,1.4,E,A*1E
$GPVTG,238.9,T,237.5,M,5.8,N,10.7,K,A*1B
$GPZDA,094755,20,08,2018,-01,00*6F
$GPAAM,,,,N,*38
$GPAPB,,,,,,,,,,,,,,,N*26
$SDHDG,230.7,,,1.3,E*31
$GPBOD,,T,,M,,*47
$SDHDG,230.8,,,1.3,E*3E
$GPRMB,,,,,,,,,,,,,,N*04
$GPXTE,,,,,N,N*5E
$SDHDG,230.8,,,1.3,E*3E
$SDDBT,17.7,f,5.4,M,2.9,F*3D
$SDDPT,5.4,0.4,*7E
$SDMTW,,C*1A
$SDVLW,,N,545.7,N,1109.5,N,393.7,N*45
$SDVHW,232.3,T,230.9,M,6.7,N,12.4,K*7C
$SDHDG,230.9,,,1.3,E*3F
$WIMWD,327.1,T,325.7,M,11.5,N,5.9,M*67
$WIMWV,63.8,R,12.0,N,A*2D
$WIMWV,94.8,T,11.5,N,A*25
$IIXDR,C,,C,AIRTEMP,A,-1.4,D,HEEL,A,3.1,D,TRIM,P,,B,BARO,A,-5.0,D,RUDDER*2B
$SDHDG,230.9,,,1.3,E*3F
$SDHDG,230.8,,,1.3,E*3E
$SDHDG,230.7,,,1.3,E*31
$SDHDG,230.5,,,1.3,E*33
$SDHDG,230.4,,,1.3,E*32
$GPGGA,094755,5250.9908,N,00518.7775,E,1,12,0.60,-5,M,46.8,M,,*45
$GPGLC,9960,,,,,,,,,,,,*75
$GPGLL,5250.9908,N,00518.7775,E,094755,A,A*49
$GPGSA,A,3,07,08,10,16,20,21,26,27,29,76,75,70,1.10,0.60,0.90*0B
$GPGSV,3,1,12,07,10,333,36,08,12,279,32,10,16,158,32,16,74,247,34*77
$GPGSV,3,2,12,20,36,137,35,21,66,077,38,26,57,179,32,27,45,281,38*7B
$GPGSV,3,3,12,29,11,091,45,76,48,226,30,75,14,188,28,70,27,083,28*7F
$GPRMC,094756,A,5250.9907,N,00518.7773,E,5.4,229.6,200818,1.4,E,A*17
$SDHDG,230.2,,,1.3,E*34
$GPVTG,229.6,T,228.2,M,5.4,N,10.0,K,A*16
$GPZDA,094756,20,08,2018,-01,00*6C
$GPAAM,,,,N,*38
$GPAPB,,,,,,,,,,,,,,,N*26
$SDHDG,230.1,,,1.3,E*37
$GPBOD,,T,,M,,*47
$SDHDG,229.9,,,1.3,E*37
$GPRMB,,,,,,,,,,,,,,N*04
$GPXTE,,,,,N,N*5E
$SDDBT,17.5,f,5.3,M,2.9,F*38
$SDHDG,229.7,,,1.3,E*39
$SDDPT,5.3,0.4,*79
$SDMTW,,C*1A
$SDVLW,,N,545.7,N,1109.5,N,393.7,N*45
$SDVHW,231.0,T,229.7,M,6.7,N,12.4,K*7A
$SDHDG,229.6,,,1.3,E*38
$WIMWD,327.4,T,326.0,M,11.4,N,5.9,M*67
$WIMWV,56.2,R,13.0,N,A*20
$WIMWV,96.2,T,11.4,N,A*2C
$IIXDR,C,,C,AIRTEMP,A,-3.6,D,HEEL,A,4.7,D,TRIM,P,,B,BARO,A,-4.0,D,RUDDER*2B
$SDHDG,229.6,,,1.3,E*38
$SDHDG,229.6,,,1.3,E*38
$SDHDG,229.8,,,1.3,E*36
$SDHDG,229.9,,,1.3,E*37
$SDHDG,230.1,,,1.3,E*37
$GPGGA,094756,5250.9897,N,00518.7752,E,1,12,0.60,-5,M,46.8,M,,*44
$GPGLC,9960,,,,,,,,,,,,*75
$GPGLL,5250.9897,N,00518.7752,E,094756,A,A*48
$GPGSA,A,3,07,08,10,16,20,21,26,27,29,76,75,70,1.10,0.60,0.90*0B
$GPGSV,3,1,12,07,10,333,36,08,12,279,32,10,16,158,32,16,74,247,34*77
$GPGSV,3,2,12,20,36,137,35,21,66,077,38,26,57,179,31,27,45,281,38*78
$GPGSV,3,3,12,29,11,091,45,76,48,226,30,75,14,188,28,70,27,083,29*7E
$GPRMC,094757,A,5250.9897,N,00518.7752,E,5.7,229.9,200818,1.4,E,A*11
$GPVTG,229.9,T,228.5,M,5.7,N,10.5,K,A*18
$SDHDG,230.2,,,1.3,E*34
$GPZDA,094757,20,08,2018,-01,00*6D
$GPAAM,,,,N,*38
$GPAPB,,,,,,,,,,,,,,,N*26
$SDHDG,230.3,,,1.3,E*35
$GPBOD,,T,,M,,*47
$SDHDG,230.2,,,1.3,E*34
$GPRMB,,,,,,,,,,,,,,N*04
$GPXTE,,,,,N,N*5E
$SDDBT,17.8,f,5.4,M,2.9,F*32
$SDHDG,230.1,,,1.3,E*37
$SDDPT,5.4,0.4,*7E
$SDMTW,,C*1A
$SDVLW,,N,545.7,N,1109.5,N,393.7,N*45
$SDVHW,231.4,T,230.1,M,6.7,N,12.5,K*71
$SDHDG,230.0,,,1.3,E*36
$WIMWD,327.2,T,325.8,M,11.5,N,5.9,M*6B
$WIMWV,74.0,R,14.0,N,A*25
$WIMWV,95.9,T,11.5,N,A*25
$IIXDR,C,,C,AIRTEMP,A,-3.5,D,HEEL,A,3.4,D,TRIM,P,,B,BARO,A,-4.7,D,RUDDER*2B
$SDHDG,229.8,,,1.3,E*36
$SDHDG,229.6,,,1.3,E*38
$SDHDG,229.3,,,1.3,E*3D
$SDHDG,229.1,,,1.3,E*3F
$SDHDG,228.9,,,1.3,E*36
$GPGGA,094757,5250.9889,N,00518.7728,E,1,12,0.60,-5,M,46.8,M,,*47
$GPGLC,9960,,,,,,,,,,,,*75
$GPGLL,5250.9889,N,00518.7728,E,094757,A,A*4B
$GPGSA,A,3,07,08,10,16,20,21,26,27,29,76,75,70,1.10,0.60,0.90*0B
$GPGSV,3,1,12,07,10,333,36,08,12,279,33,10,16,158,32,16,74,247,34*76
$GPGSV,3,2,12,20,36,137,36,21,66,077,37,26,57,179,35,27,45,281,37*7F
$GPGSV,3,3,12,29,11,091,45,76,48,226,31,75,14,188,28,70,27,083,29*7F
$GPRMC,094758,A,5250.9889,N,00518.7728,E,5.9,234.0,200818,1.4,E,A*17
$GPVTG,234.0,T,232.6,M,5.9,N,10.9,K,A*17
$SDHDG,228.7,,,1.3,E*38
$GPZDA,094758,20,08,2018,-01,00*62
$GPAAM,,,,N,*38
$GPAPB,,,,,,,,,,,,,,,N*26
$SDHDG,228.6,,,1.3,E*39
$GPBOD,,T,,M,,*47
$SDHDG,228.5,,,1.3,E*3A
$GPRMB,,,,,,,,,,,,,,N*04
$GPXTE,,,,,N,N*5E
$SDDBT,17.6,f,5.3,M,2.9,F*3B
$SDHDG,228.6,,,1.3,E*39
$SDDPT,5.3,0.4,*79
$SDMTW,,C*1A
$SDVLW,,N,545.7,N,1109.5,N,393.7,N*45
$SDVHW,230.0,T,228.7,M,6.8,N,12.7,K*76
$SDHDG,228.7,,,1.3,E*38
$WIMWD,327.3,T,325.9,M,11.6,N,5.9,M*68
$WIMWV,61.0,R,14.0,N,A*21
$WIMWV,96.9,T,11.6,N,A*25
$IIXDR,C,,C,AIRTEMP,A,0.3,D,HEEL,A,3.2,D,TRIM,P,,B,BARO,A,0.4,D,RUDDER*2F
$SDHDG,228.9,,,1.3,E*36
$SDHDG,229.1,,,1.3,E*3F
$SDHDG,229.4,,,1.3,E*3A
$SDHDG,229.6,,,1.3,E*38
$GPGGA,094758,5250.9881,N,00518.7709,E,1,12,0.60,-5,M,46.8,M,,*43
$SDHDG,229.9,,,1.3,E*37
$GPGLC,9960,,,,,,,,,,,,*75
$GPGLL,5250.9881,N,00518.7709,E,094758,A,A*4F
$GPGSA,A,3,07,08,10,16,20,21,26,27,29,76,75,70,1.10,0.60,0.90*0B
$GPGSV,3,1,12,07,10,333,35,08,12,279,33,10,16,158,32,16,74,247,34*75
$GPGSV,3,2,12,20,36,137,35,21,66,077,38,26,57,179,34,27,45,281,38*7D
$GPGSV,3,3,12,29,11,091,45,76,48,226,31,75,14,188,28,70,27,083,29*7F
$GPRMC,094759,A,5250.9881,N,00518.7709,E,5.8,223.1,200818,1.4,E,A*1B
$GPVTG,223.1,T,221.7,M,5.8,N,10.7,K,A*1C
$SDHDG,230.3,,,1.3,E*35
$GPZDA,094759,20,08,2018,-01,00*63
$GPAAM,,,,N,*38
$GPAPB,,,,,,,,,,,,,,,N*26
$GPBOD,,T,,M,,*47
$SDHDG,230.6,,,1.3,E*30
$GPRMB,,,,,,,,,,,,,,N*04
$GPXTE,,,,,N,N*5E
$SDDBT,17.7,f,5.4,M,2.9,F*3D
$SDHDG,230.7,,,1.3,E*31
$SDDPT,5.4,0.4,*7E
$SDMTW,,C*1A
$SDVLW,,N,545.7,N,1109.5,N,393.7,N*45
$SDVHW,232.2,T,230.8,M,6.7,N,12.5,K*7D
$WIMWD,327.1,T,325.7,M,11.6,N,6.0,M*6E
$SDHDG,230.8,,,1.3,E*3E
$WIMWV,57.8,R,11.1,N,A*28
$WIMWV,95.4,T,11.6,N,A*2B
$IIXDR,C,,C,AIRTEMP,A,-1.0,D,HEEL,A,4.0,D,TRIM,P,,B,BARO,A,-3.7,D,RUDDER*28
$SDHDG,230.9,,,1.3,E*3F
$SDHDG,230.9,,,1.3,E*3F
$SDHDG,230.8,,,1.3,E*3E
$SDHDG,230.8,,,1.3,E*3E
$GPGGA,094759,5250.9870,N,00518.7691,E,1,12,0.60,-5,M,46.8,M,,*4C
$SDHDG,230.9,,,1.3,E*3F
$GPGLC,9960,,,,,,,,,,,,*75
$GPGLL,5250.9870,N,00518.7691,E,094759,A,A*40
$GPGSA,A,3,07,08,10,16,20,21,26,27,29,76,75,70,1.10,0.60,0.90*0B
$GPGSV,3,1,12,07,10,333,35,08,12,279,33,10,16,158,35,16,74,247,35*73
$GPGSV,3,2,12,20,36,137,34,21,66,077,38,26,57,179,33,27,45,281,38*7B
$GPGSV,3,3,12,29,11,091,45,76,48,226,30,75,14,188,27,70,27,083,30*79
$GPRMC,094800,A,5250.9869,N,00518.7688,E,6.3,228.1,200818,1.4,E,A*15
$GPVTG,228.1,T,226.7,M,6.3,N,11.7,K,A*19
$SDHDG,230.9,,,1.3,E*3F
$SDHDG,231.0,,,1.3,E*37
$GPZDA,094800,20,08,2018,-01,00*60
$GPAAM,,,,N,*38
$GPAPB,,,,,,,,,,,,,,,N*26
$GPBOD,,T,,M,,*47
$SDHDG,231.1,,,1.3,E*36
$GPRMB,,,,,,,,,,,,,,N*04
$GPXTE,,,,,N,N*5E
$SDDBT,17.7,f,5.4,M,2.9,F*3D
$SDHDG,231.2,,,1.3,E*35
$SDDPT,5.4,0.4,*7E
$SDMTW,,C*1A
$SDVLW,,N,545.7,N,1109.5,N,393.7,N*45
$SDVHW,232.7,T,231.3,M,6.7,N,12.4,K*73
$WIMWD,327.1,T,325.7,M,11.5,N,5.9,M*67
$SDHDG,231.4,,,1.3,E*33
$WIMWV,68.8,R,13.0,N,A*27
$WIMWV,94.4,T,11.5,N,A*29
$IIXDR,C,,C,AIRTEMP,A,-3.8,D,HEEL,A,2.2,D,TRIM,P,,B,BARO,A,-4.7,D,RUDDER*21
$SDHDG,231.5,,,1.3,E*32
$SDHDG,231.6,,,1.3,E*31
$SDHDG,231.8,,,1.3,E*3F
$SDHDG,231.9,,,1.3,E*3E
$GPGGA,094800,5250.9859,N,00518.7669,E,1,12,0.60,-5,M,46.8,M,,*43
$SDHDG,232.1,,,1.3,E*35
$GPGLC,9960,,,,,,,,,,,,*75
$GPGLL,5250.9859,N,00518.7669,E,094800,A,A*4F
$GPGSA,A,3,07,08,10,16,20,21,26,27,29,76,75,70,1.10,0.60,0.90*0B
$GPGSV,3,1,12,07,10,333,34,08,12,279,34,10,16,158,34,16,74,247,35*74
$GPGSV,3,2,12,20,36,137,34,21,66,077,38,26,56,178,34,27,45,281,38*7C
$GPGSV,3,3,12,29,11,091,45,76,48,226,29,75,14,188,26,70,27,083,29*78
$GPRMC,094801,A,5250.9859,N,00518.7669,E,5.7,232.4,200818,1.4,E,A*11
$GPVTG,232.4,T,231.0,M,5.7,N,10.5,K,A*12
$SDHDG,232.1,,,1.3,E*35
$SDHDG,232.2,,,1.3,E*36
$GPZDA,094801,20,08,2018,-01,00*61
$GPAAM,,,,N,*38
$GPAPB,,,,,,,,,,,,,,,N*26
$GPBOD,,T,,M,,*47
$GPRMB,,,,,,,,,,,,,,N*04
$SDHDG,232.2,,,1.3,E*36
$GPXTE,,,,,N,N*5E
$SDDBT,17.9,f,5.4,M,2.9,F*33
$SDHDG,232.3,,,1.3,E*37
$SDDPT,5.4,0.4,*7E
$SDMTW,,C*1A
$SDVLW,,N,545.7,N,1109.5,N,393.7,N*45
$SDVHW,233.6,T,232.3,M,6.7,N,12.4,K*70
$WIMWD,327.4,T,326.0,M,11.5,N,5.9,M*66
$SDHDG,232.3,,,1.3,E*37
$WIMWV,61.1,R,13.0,N,A*27
$WIMWV,93.8,T,11.5,N,A*22
$IIXDR,C,,C,AIRTEMP,A,-4.0,D,HEEL,A,4.6,D,TRIM,P,,B,BARO,A,-4.6,D,RUDDER*2D
$SDHDG,232.3,,,1.3,E*37
$SDHDG,232.3,,,1.3,E*37
$SDHDG,232.3,,,1.3,E*37
$SDHDG,232.4,,,1.3,E*30
$GPGGA,094801,5250.9849,N,00518.7650,E,1,12,0.60,-4,M,46.8,M,,*48
$GPGLC,9960,,,,,,,,,,,,*75
$SDHDG,232.5,,,1.3,E*31
$GPGLL,5250.9849,N,00518.7650,E,094801,A,A*45
$GPGSA,A,3,07,08,10,16,20,21,26,27,29,76,75,70,1.10,0.60,0.90*0B
$GPGSV,3,1,12,07,10,333,34,08,12,279,34,10,16,158,33,16,74,247,35*73
$GPGSV,3,2,12,20,36,137,35,21,66,077,38,26,56,178,34,27,45,281,37*72
$GPGSV,3,3,12,29,11,091,45,76,48,226,29,75,14,188,26,70,27,083,29*78
$GPRMC,094802,A,5250.9848,N,00518.7648,E,5.8,229.9,200818,1.4,E,A*19
$GPVTG,229.9,T,228.5,M,5.8,N,10.7,K,A*15
$SDHDG,232.6,,,1.3,E*32
$SDHDG,232.8,,,1.3,E*3C
$GPZDA,094802,20,08,2018,-01,00*62
$GPAAM,,,,N,*38
$GPAPB,,,,,,,,,,,,,,,N*26
$GPBOD,,T,,M,,*47
$GPRMB,,,,,,,,,,,,,,N*04
$SDHDG,233.0,,,1.3,E*35
$GPXTE,,,,,N,N*5E
$SDDBT,17.6,f,5.3,M,2.9,F*3B
$SDHDG,233.1,,,1.3,E*34
$SDDPT,5.3,0.4,*79
$SDMTW,,C*1A
$SDVLW,,N,545.7,N,1109.5,N,393.7,N*45
$SDVHW,234.5,T,233.1,M,6.6,N,12.3,K*71
$WIMWD,327.3,T,325.9,M,11.5,N,5.9,M*6B
$SDHDG,233.2,,,1.3,E*37
$WIMWV,68.4,R,14.0,N,A*2C
$WIMWV,92.8,T,11.5,N,A*23
$IIXDR,C,,C,AIRTEMP,A,-4.9,D,HEEL,A,3.1,D,TRIM,P,,B,BARO,A,-4.9,D,RUDDER*2B
$SDHDG,233.2,,,1.3,E*37
$SDHDG,233.2,,,1.3,E*37
$SDHDG,233.1,,,1.3,E*34
$SDHDG,233.0,,,1.3,E*35
$GPGGA,094802,5250.9841,N,00518.7632,E,1,12,0.60,-4,M,46.8,M,,*47
$GPGLC,9960,,,,,,,,,,,,*75
$GPGLL,5250.9841,N,00518.7632,E,094802,A,A*4A
$SDHDG,232.9,,,1.3,E*3D
$GPGSA,A,3,07,08,10,16,20,21,26,27,29,76,75,70,1.10,0.60,0.90*0B
$GPGSV,3,1,12,07,10,333,33,08,12,279,34,10,16,158,33,16,74,247,34*75
$GPGSV,3,2,12,20,36,137,37,21,66,077,37,26,56,178,34,27,45,282,38*73
$GPGSV,3,3,12,29,11,091,46,76,48,226,29,75,14,188,27,70,27,083,30*72
$GPRMC,094803,A,5250.9840,N,00518.7629,E,5.7,233.2,200818,1.4,E,A*18
$GPVTG,233.2,T,231.8,M,5.7,N,10.5,K,A*1D
$SDHDG,232.8,,,1.3,E*3C
$SDHDG,232.7,,,1.3,E*33
$GPZDA,094803,20,08,2018,-01,00*63
$GPAAM,,,,N,*38
$GPAPB,,,,,,,,,,,,,,,N*26
$GPBOD,,T,,M,,*47
$GPRMB,,,,,,,,,,,,,,N*04
$GPXTE,,,,,N,N*5E
$SDHDG,232.6,,,1.3,E*32
$SDDBT,17.7,f,5.4,M,2.9,F*3D
$SDDPT,5.4,0.4,*7E
$SDHDG,232.5,,,1.3,E*31
$SDMTW,,C*1A
$SDVLW,,N,545.7,N,1109.5,N,393.7,N*45
$SDVHW,233.8,T,232.4,M,6.7,N,12.4,K*79
$WIMWD,327.7,T,326.3,M,11.6,N,6.0,M*6F
$WIMWV,57.1,R,14.0,N,A*25
$WIMWV,93.8,T,11.6,N,A*21
$SDHDG,232.3,,,1.3,E*37
$IIXDR,C,,C,AIRTEMP,A,-3.5,D,HEEL,A,4.8,D,TRIM,P,,B,BARO,A,-4.8,D,RUDDER*2F
$SDHDG,232.2,,,1.3,E*36
$SDHDG,232.2,,,1.3,E*36
$SDHDG,232.3,,,1.3,E*37
$SDHDG,232.4,,,1.3,E*30
$GPGLC,9960,,,,,,,,,,,,*75
$GPGLL,5250.9830,N,00518.7607,E,094803,A,A*4B
$GPGSA,A,3,07,08,10,16,20,21,26,27,29,76,75,70,1.10,0.60,0.90*0B
$GPGSV,3,1,12,07,10,333,34,08,12,279,34,10,16,158,34,16,74,247,35*74
$GPGSV,3,2,12,20,36,137,39,21,66,077,37,26,56,178,33,27,45,282,39*7B
$GPGSV,3,3,12,29,11,091,45,76,48,226,28,75,14,188,28,70,27,083,30*7F
$SDHDG,232.6,,,1.3,E*32
$GPRMC,094804,A,5250.9830,N,00518.7607,E,6.4,232.3,200818,1.4,E,A*14
$GPVTG,232.3,T,230.9,M,6.4,N,11.8,K,A*11
$GPVTG,232.3,T,230.9,M,6.4,N,11.8,K,A*11
$SDHDG,232.7,,,1.3,E*33
$GPZDA,094804,20,08,2018,-01,00*64
$SDHDG,232.8,,,1.3,E*3C
$GPAAM,,,,N,*38
$GPAPB,,,,,,,,,,,,,,,N*26
$GPBOD,,T,,M,,*47
$GPRMB,,,,,,,,,,,,,,N*04
$GPXTE,,,,,N,N*5E
$SDHDG,232.9,,,1.3,E*3D
$SDDBT,17.7,f,5.4,M,2.9,F*3D
$SDDPT,5.4,0.4,*7E
$SDMTW,,C*1A
$SDVLW,,N,545.7,N,1109.5,N,393.7,N*45
$SDVHW,234.4,T,233.0,M,6.7,N,12.5,K*76
$SDHDG,233.0,,,1.3,E*35
$WIMWD,327.3,T,325.9,M,11.7,N,6.0,M*63
$WIMWV,71.4,R,13.0,N,A*23
$WIMWV,93.1,T,11.7,N,A*29
$IIXDR,C,,C,AIRTEMP,A,-2.1,D,HEEL,A,1.8,D,TRIM,P,,B,BARO,A,-5.1,D,RUDDER*27
$SDHDG,233.0,,,1.3,E*35
$SDHDG,233.0,,,1.3,E*35
$SDHDG,232.9,,,1.3,E*3D
$SDHDG,232.7,,,1.3,E*33
$SDHDG,232.6,,,1.3,E*32
$GPGGA,094804,5250.9822,N,00518.7589,E,1,12,0.60,-4,M,46.8,M,,*47
$GPGLC,9960,,,,,,,,,,,,*75
$GPGLL,5250.9822,N,00518.7589,E,094804,A,A*4A
$GPGSA,A,3,07,08,10,16,20,21,26,27,29,76,75,70,1.10,0.60,0.90*0B
$GPGSV,3,1,12,07,10,333,31,08,12,279,34,10,16,158,32,16,74,247,35*77
$GPGSV,3,2,12,20,36,137,38,21,66,077,37,26,56,178,31,27,45,282,39*78
$GPGSV,3,3,12,29,11,091,45,76,48,226,24,75,14,188,27,70,27,083,30*7C
$GPRMC,094805,A,5250.9821,N,00518.7587,E,5.4,227.7,200818,1.4,E,A*1D
$SDHDG,232.4,,,1.3,E*30
$GPVTG,227.7,T,226.3,M,5.4,N,10.0,K,A*16
$SDHDG,232.3,,,1.3,E*37
$GPZDA,094805,20,08,2018,-01,00*65
$GPAAM,,,,N,*38
$GPAPB,,,,,,,,,,,,,,,N*26
$GPBOD,,T,,M,,*47
$SDHDG,232.2,,,1.3,E*36
$GPRMB,,,,,,,,,,,,,,N*04
$GPXTE,,,,,N,N*5E
$SDDBT,17.5,f,5.3,M,2.9,F*38
$SDHDG,232.1,,,1.3,E*35
$SDDPT,5.3,0.4,*79
$SDMTW,,C*1A
$SDVLW,,N,545.7,N,1109.5,N,393.7,N*45
$SDVHW,233.5,T,232.1,M,6.9,N,12.8,K*73
$SDHDG,232.1,,,1.3,E*35
$WIMWD,328.1,T,326.7,M,11.6,N,6.0,M*62
$WIMWV,59.9,R,13.0,N,A*24
$WIMWV,94.7,T,11.6,N,A*29
$IIXDR,C,,C,AIRTEMP,A,-3.2,D,HEEL,A,5.1,D,TRIM,P,,B,BARO,A,-5.1,D,RUDDER*28
$SDHDG,232.1,,,1.3,E*35
$SDHDG,232.1,,,1.3,E*35
$SDHDG,232.2,,,1.3,E*36
$SDHDG,232.3,,,1.3,E*37
$SDHDG,232.4,,,1.3,E*30
$GPGGA,094805,5250.9812,N,00518.7569,E,1,12,0.60,-4,M,46.8,M,,*4B
$GPGLC,9960,,,,,,,,,,,,*75
$GPGLL,5250.9812,N,00518.7569,E,094805,A,A*46
$GPGSA,A,3,07,08,10,16,20,21,26,27,29,76,75,70,1.10,0.60,0.90*0B
$GPGSV,3,1,12,07,10,333,31,08,12,279,33,10,16,158,31,16,74,247,37*71
$GPGSV,3,2,12,20,36,137,37,21,66,077,38,26,56,178,31,27,45,282,39*78
$GPGSV,3,3,12,29,11,091,44,76,48,226,24,75,14,188,27,70,27,083,31*7C
$GPRMC,094806,A,5250.9811,N,00518.7567,E,5.9,234.4,200818,1.4,E,A*1F
$GPVTG,234.4,T,233.0,M,5.9,N,10.9,K,A*14
$SDHDG,232.5,,,1.3,E*31
$SDHDG,232.6,,,1.3,E*32
$GPZDA,094806,20,08,2018,-01,00*66
$GPAAM,,,,N,*38
$GPAPB,,,,,,,,,,,,,,,N*26
$GPBOD,,T,,M,,*47
$SDHDG,232.7,,,1.3,E*33
$GPRMB,,,,,,,,,,,,,,N*04
$GPXTE,,,,,N,N*5E
$SDDBT,17.8,f,5.4,M,2.9,F*32
$SDHDG,232.8,,,1.3,E*3C
$SDDPT,5.4,0.4,*7E
$SDMTW,,C*1A
$SDVLW,,N,545.7,N,1109.5,N,393.7,N*45
$SDVHW,234.3,T,232.9,M,6.8,N,12.6,K*75
$SDHDG,232.9,,,1.3,E*3D
$WIMWD,328.2,T,326.8,M,11.6,N,6.0,M*6E
$WIMWV,70.2,R,14.0,N,A*23
$WIMWV,94.0,T,11.6,N,A*2E
$IIXDR,C,,C,AIRTEMP,A,-4.1,D,HEEL,A,2.9,D,TRIM,P,,B,BARO,A,-5.0,D,RUDDER*22
$SDHDG,232.9,,,1.3,E*3D
$SDHDG,232.9,,,1.3,E*3D
$SDHDG,232.9,,,1.3,E*3D
$SDHDG,232.8,,,1.3,E*3C
$GPGGA,094806,5250.9804,N,00518.7548,E,1,12,0.60,-4,M,46.8,M,,*4C
$SDHDG,232.7,,,1.3,E*33
$GPGLC,9960,,,,,,,,,,,,*75
$GPGLL,5250.9804,N,00518.7548,E,094806,A,A*41
$GPGSA,A,3,07,08,10,16,20,21,26,27,29,76,75,70,1.10,0.60,0.90*0B
$GPGSV,3,1,12,07,10,333,36,08,12,279,33,10,16,158,31,16,74,247,36*77
$GPGSV,3,2,12,20,36,137,38,21,66,077,38,26,56,178,34,27,45,282,40*7C
$GPGSV,3,3,12,29,11,091,44,76,48,226,25,75,14,188,28,70,27,083,30*73
$GPRMC,094807,A,5250.9803,N,00518.7546,E,6.4,232.4,200818,1.4,E,A*16
$GPVTG,232.4,T,231.0,M,6.4,N,11.8,K,A*1E
$SDHDG,232.5,,,1.3,E*31
$SDHDG,232.4,,,1.3,E*30
$GPZDA,094807,20,08,2018,-01,00*67
$GPAAM,,,,N,*38
$GPAPB,,,,,,,,,,,,,,,N*26
$GPBOD,,T,,M,,*47
$SDHDG,232.2,,,1.3,E*36
$GPRMB,,,,,,,,,,,,,,N*04
$GPXTE,,,,,N,N*5E
$SDDBT,17.8,f,5.4,M,2.9,F*32
$SDHDG,232.0,,,1.3,E*34
$SDDPT,5.4,0.4,*7E
$SDMTW,,C*1A
$SDVLW,,N,545.7,N,1109.5,N,393.7,N*45
$SDVHW,233.3,T,231.9,M,6.8,N,12.6,K*71
$SDHDG,231.9,,,1.3,E*3E
$WIMWD,328.5,T,327.1,M,11.7,N,6.0,M*60
$WIMWV,58.8,R,14.0,N,A*23
$WIMWV,94.9,T,11.7,N,A*26
$IIXDR,C,,C,AIRTEMP,A,-1.2,D,HEEL,A,4.6,D,TRIM,P,,B,BARO,A,-3.5,D,RUDDER*2E
$SDHDG,231.8,,,1.3,E*3F
$SDHDG,231.7,,,1.3,E*30
$SDHDG,231.8,,,1.3,E*3F
$SDHDG,231.8,,,1.3,E*3F
$GPGGA,094807,5250.9794,N,00518.7526,E,1,12,0.60,-4,M,46.8,M,,*43
$SDHDG,231.9,,,1.3,E*3E
$GPGLC,9960,,,,,,,,,,,,*75
$GPGLL,5250.9794,N,00518.7526,E,094807,A,A*4E
$GPGSA,A,3,07,08,10,16,20,21,26,27,29,76,75,70,1.10,0.60,0.90*0B
$GPGSV,3,1,12,07,10,333,35,08,12,279,33,10,16,158,31,16,74,247,36*74
$GPGSV,3,2,12,20,36,137,38,21,66,077,37,26,56,178,33,27,45,282,40*74
$GPGSV,3,3,12,29,11,091,44,76,48,226,24,75,14,188,27,70,27,083,31*7C
$GPRMC,094808,A,5250.9792,N,00518.7524,E,6.1,226.8,200818,1.4,E,A*16
$GPVTG,226.8,T,225.4,M,6.1,N,11.3,K,A*18
$SDHDG,232.0,,,1.3,E*34
$SDHDG,232.1,,,1.3,E*35
$GPZDA,094808,20,08,2018,-01,00*68
$GPAAM,,,,N,*38
$GPAPB,,,,,,,,,,,,,,,N*26
$GPBOD,,T,,M,,*47
$SDHDG,232.3,,,1.3,E*37
$GPRMB,,,,,,,,,,,,,,N*04
$GPXTE,,,,,N,N*5E
$SDDBT,17.5,f,5.3,M,2.9,F*38
$SDHDG,232.3,,,1.3,E*37
$SDDPT,5.3,0.4,*79
$SDMTW,,C*1A
$SDVLW,,N,545.7,N,1109.5,N,393.7,N*45
$SDVHW,233.8,T,232.4,M,6.9,N,12.8,K*7B
$WIMWD,328.2,T,326.8,M,11.8,N,6.1,M*61
$SDHDG,232.4,,,1.3,E*30
$WIMWV,72.5,R,12.0,N,A*20
$WIMWV,94.6,T,11.8,N,A*26
$IIXDR,C,,C,AIRTEMP,A,0.6,D,HEEL,A,2.4,D,TRIM,P,,B,BARO,A,-3.7,D,RUDDER*00
$SDHDG,232.4,,,1.3,E*30
$SDHDG,232.3,,,1.3,E*37
$SDHDG,232.2,,,1.3,E*36
$SDHDG,232.0,,,1.3,E*34
$GPGGA,094808,5250.9784,N,00518.7504,E,1,12,0.60,-4,M,46.8,M,,*4D
$SDHDG,231.9,,,1.3,E*3E
$GPGLC,9960,,,,,,,,,,,,*75
$GPGLL,5250.9784,N,00518.7504,E,094808,A,A*40
$GPGSA,A,3,07,08,10,16,20,21,26,27,29,76,75,70,1.10,0.60,0.90*0B
$GPGSV,3,1,12,07,10,333,35,08,12,279,34,10,16,158,34,16,74,247,36*76
$GPGSV,3,2,12,20,36,137,37,21,66,077,37,26,56,178,32,27,45,282,40*7A
$GPGSV,3,3,12,29,11,091,47,76,48,226,24,75,14,188,27,70,27,083,30*7E
$GPRMC,094809,A,5250.9783,N,00518.7502,E,6.2,232.7,200818,1.4,E,A*1A
$GPVTG,232.7,T,231.3,M,6.2,N,11.4,K,A*14
$SDHDG,231.7,,,1.3,E*30
$SDHDG,231.6,,,1.3,E*31
$GPZDA,094809,20,08,2018,-01,00*69
$GPAAM,,,,N,*38
$GPAPB,,,,,,,,,,,,,,,N*26
$GPBOD,,T,,M,,*47
$SDHDG,231.4,,,1.3,E*33
$GPRMB,,,,,,,,,,,,,,N*04
$GPXTE,,,,,N,N*5E
$SDDBT,17.6,f,5.3,M,2.9,F*3B
$SDHDG,231.3,,,1.3,E*34
$SDDPT,5.3,0.4,*79
$SDMTW,,C*1A
$SDVLW,,N,545.7,N,1109.5,N,393.7,N*45
$SDVHW,232.6,T,231.2,M,6.8,N,12.7,K*7F
$WIMWD,329.1,T,327.7,M,11.8,N,6.1,M*6D
$SDHDG,231.1,,,1.3,E*36
$WIMWV,61.7,R,13.0,N,A*21
$WIMWV,96.5,T,11.8,N,A*27
$IIXDR,C,,C,AIRTEMP,A,0.2,D,HEEL,A,5.4,D,TRIM,P,,B,BARO,A,0.7,D,RUDDER*2D
$SDHDG,231.0,,,1.3,E*37
$SDHDG,230.8,,,1.3,E*3E
$SDHDG,230.7,,,1.3,E*31
$SDHDG,230.7,,,1.3,E*31
$GPGGA,094809,5250.9774,N,00518.7480,E,1,12,0.60,-4,M,46.8,M,,*4E
$SDHDG,230.7,,,1.3,E*31
$GPGLC,9960,,,,,,,,,,,,*75
$GPGLL,5250.9774,N,00518.7480,E,094809,A,A*43
$GPGSA,A,3,07,08,10,16,20,21,26,27,29,76,75,70,1.10,0.60,0.90*0B
$GPGSV,3,1,12,07,10,333,34,08,12,279,34,10,16,158,37,16,74,247,36*74
$GPGSV,3,2,12,20,36,137,36,21,66,077,38,26,56,178,32,27,45,282,39*7A
$GPGSV,3,3,12,29,11,091,46,76,48,226,24,75,14,188,26,70,27,083,30*7E
$GPRMC,094810,A,5250.9773,N,00518.7478,E,5.7,228.3,200818,1.4,E,A*18
$GPVTG,228.3,T,226.9,M,5.7,N,10.5,K,A*11
$SDHDG,230.9,,,1.3,E*3F
$SDHDG,231.1,,,1.3,E*36
$GPZDA,094810,20,08,2018,-01,00*61
$GPAAM,,,,N,*38
$GPAPB,,,,,,,,,,,,,,,N*26
$GPBOD,,T,,M,,*47
$GPRMB,,,,,,,,,,,,,,N*04
$SDHDG,231.4,,,1.3,E*33
$GPXTE,,,,,N,N*5E
$SDDBT,17.7,f,5.4,M,2.9,F*3D
$SDHDG,231.7,,,1.3,E*30
$SDDPT,5.4,0.4,*7E
$SDMTW,,C*1A
$SDVLW,,N,545.7,N,1109.5,N,393.7,N*45
$SDVHW,233.3,T,231.9,M,6.9,N,12.8,K*7E
$WIMWD,328.8,T,327.4,M,11.8,N,6.1,M*66
$SDHDG,232.1,,,1.3,E*35
$WIMWV,66.1,R,14.0,N,A*27
$WIMWV,95.7,T,11.8,N,A*26
$IIXDR,C,,C,AIRTEMP,A,0.7,D,HEEL,A,1.7,D,TRIM,P,,B,BARO,A,-1.3,D,RUDDER*07
$SDHDG,232.5,,,1.3,E*31
$SDHDG,232.8,,,1.3,E*3C
$SDHDG,233.1,,,1.3,E*34
$SDHDG,233.4,,,1.3,E*31
$GPGGA,094810,5250.9763,N,00518.7459,E,1,12,0.60,-5,M,46.8,M,,*45
$GPGLC,9960,,,,,,,,,,,,*75
$SDHDG,233.7,,,1.3,E*32
$GPGLL,5250.9763,N,00518.7459,E,094810,A,A*49
$GPGSA,A,3,07,08,10,16,20,21,26,27,29,76,75,70,1.10,0.60,0.90*0B
$GPGSV,3,1,12,07,10,333,35,08,12,279,34,10,16,158,37,16,74,247,36*75
$GPGSV,3,2,12,20,36,137,35,21,66,077,38,26,56,178,31,27,45,282,39*7A
$GPGSV,3,3,12,29,11,091,46,76,48,225,23,75,14,188,28,70,27,083,30*74
$GPRMC,094811,A,5250.9762,N,00518.7457,E,5.8,233.5,200818,1.4,E,A*17
$GPVTG,233.5,T,232.1,M,5.8,N,10.7,K,A*1D
$SDHDG,233.9,,,1.3,E*3C
$SDHDG,234.0,,,1.3,E*32
$GPZDA,094811,20,08,2018,-01,00*60
$GPAAM,,,,N,*38
$GPAPB,,,,,,,,,,,,,,,N*26
$GPBOD,,T,,M,,*47
$GPRMB,,,,,,,,,,,,,,N*04
$SDHDG,234.1,,,1.3,E*33
$GPXTE,,,,,N,N*5E
$SDDBT,17.7,f,5.4,M,2.9,F*3D
$SDHDG,234.1,,,1.3,E*33
$SDDPT,5.4,0.4,*7E
$SDMTW,,C*1A
$SDVLW,,N,545.7,N,1109.5,N,393.7,N*45
$SDVHW,235.5,T,234.1,M,6.8,N,12.7,K*7D
$WIMWD,329.1,T,327.7,M,11.8,N,6.1,M*6D
$SDHDG,234.1,,,1.3,E*33
$WIMWV,57.6,R,11.1,N,A*26
$WIMWV,93.9,T,11.8,N,A*2E
$IIXDR,C,,C,AIRTEMP,A,-1.1,D,HEEL,A,5.0,D,TRIM,P,,B,BARO,A,-3.9,D,RUDDER*26
$SDHDG,234.0,,,1.3,E*32
$SDHDG,233.9,,,1.3,E*3C
$SDHDG,233.7,,,1.3,E*32
$SDHDG,233.6,,,1.3,E*33
$GPGGA,094811,5250.9752,N,00518.7437,E,1,12,0.60,-5,M,46.8,M,,*4E
$GPGLC,9960,,,,,,,,,,,,*75
$GPGLL,5250.9752,N,00518.7437,E,094811,A,A*42
$SDHDG,233.5,,,1.3,E*30
$GPGSA,A,3,07,08,10,16,20,21,26,27,29,76,75,70,1.10,0.60,0.90*0B
$GPGSV,3,1,12,07,10,333,36,08,12,279,35,10,16,158,38,16,74,247,36*78
$GPGSV,3,2,12,20,36,137,34,21,66,077,39,26,56,178,33,27,45,282,38*79
$GPGSV,3,3,12,29,11,091,46,76,48,225,24,75,14,188,27,70,27,083,31*7D
$GPRMC,094812,A,5250.9751,N,00518.7435,E,6.4,231.4,200818,1.4,E,A*1C
$GPVTG,231.4,T,230.0,M,6.4,N,11.8,K,A*1C
$SDHDG,233.4,,,1.3,E*31
$SDHDG,233.5,,,1.3,E*30
$GPZDA,094812,20,08,2018,-01,00*63
$GPAAM,,,,N,*38
$GPAPB,,,,,,,,,,,,,,,N*26
$GPBOD,,T,,M,,*47
$GPRMB,,,,,,,,,,,,,,N*04
$GPXTE,,,,,N,N*5E
$SDHDG,233.6,,,1.3,E*33
$SDDBT,17.3,f,5.2,M,2.8,F*3E
$SDDPT,5.2,0.4,*78
$SDHDG,233.9,,,1.3,E*3C
$SDMTW,,C*1A
$SDVLW,,N,545.7,N,1109.5,N,393.7,N*45
$SDVHW,235.3,T,233.9,M,6.9,N,12.8,K*7A
$WIMWD,329.2,T,327.9,M,11.6,N,6.0,M*6F
$WIMWV,65.7,R,14.0,N,A*22
$WIMWV,93.9,T,11.6,N,A*20
$SDHDG,234.2,,,1.3,E*30
$IIXDR,C,,C,AIRTEMP,A,-3.6,D,HEEL,A,2.6,D,TRIM,P,,B,BARO,A,-3.8,D,RUDDER*23
$SDHDG,234.5,,,1.3,E*37
$SDHDG,234.8,,,1.3,E*3A
$SDHDG,235.1,,,1.3,E*32
$SDHDG,235.4,,,1.3,E*37
$GPGGA,094812,5250.9742,N,00518.7415,E,1,12,0.60,-5,M,46.8,M,,*4C
$GPGLC,9960,,,,,,,,,,,,*75
$GPGLL,5250.9742,N,00518.7415,E,094812,A,A*40
$GPGSA,A,3,07,08,10,16,20,21,26,27,29,76,75,70,1.10,0.60,0.90*0B
$GPGSV,3,1,12,07,10,333,35,08,12,279,30,10,16,158,36,16,74,247,37*71
$GPGSV,3,2,12,20,36,137,36,21,66,077,39,26,56,178,32,27,45,282,39*7B
$GPGSV,3,3,12,29,11,091,46,76,48,225,23,75,14,188,28,70,27,083,31*75
$SDHDG,235.6,,,1.3,E*35
$GPRMC,094813,A,5250.9741,N,00518.7413,E,4.3,243.2,200818,1.4,E,A*1E
$GPVTG,243.2,T,241.8,M,4.3,N,8.0,K,A*24
$SDHDG,235.8,,,1.3,E*3B
$GPZDA,094813,20,08,2018,-01,00*62
$GPAAM,,,,N,*38
$SDHDG,235.9,,,1.3,E*3A
$GPAPB,,,,,,,,,,,,,,,N*26
$GPBOD,,T,,M,,*47
$GPRMB,,,,,,,,,,,,,,N*04
$GPXTE,,,,,N,N*5E
$SDHDG,236.0,,,1.3,E*30
$SDDBT,18.0,f,5.4,M,3.0,F*3D
$SDDPT,5.4,0.4,*7E
$SDMTW,,C*1A
$SDVLW,,N,545.7,N,1109.5,N,393.7,N*45
$SDVHW,237.4,T,236.1,M,6.6,N,12.3,K*76
$SDHDG,236.1,,,1.3,E*31
$WIMWD,329.5,T,328.1,M,11.7,N,6.0,M*6E
$WIMWV,54.3,R,14.0,N,A*24
$WIMWV,92.1,T,11.7,N,A*28
$IIXDR,C,,C,AIRTEMP,A,-3.2,D,HEEL,A,5.2,D,TRIM,P,,B,BARO,A,-3.8,D,RUDDER*24
$SDHDG,236.1,,,1.3,E*31
$SDHDG,236.1,,,1.3,E*31
$SDHDG,236.1,,,1.3,E*31
$SDHDG,236.2,,,1.3,E*32
$SDHDG,236.3,,,1.3,E*33
$GPGGA,094813,5250.9731,N,00518.7390,E,1,12,0.60,-5,M,46.8,M,,*43
$GPGLC,9960,,,,,,,,,,,,*75
$GPGLL,5250.9731,N,00518.7390,E,094813,A,A*4F
$GPGSA,A,3,07,08,10,16,20,21,26,27,29,76,75,70,1.10,0.60,0.90*0B
$GPGSV,3,1,12,07,10,333,36,08,12,279,29,10,16,158,32,16,74,247,36*7F
$GPGSV,3,2,12,20,36,137,37,21,66,077,38,26,56,178,33,27,45,282,40*74
$GPGSV,3,3,12,29,11,091,47,76,48,225,24,75,14,188,27,70,27,083,31*7C
$SDHDG,236.5,,,1.3,E*35
$GPRMC,094814,A,5250.9730,N,00518.7388,E,5.7,239.6,200818,1.4,E,A*16
$GPVTG,239.6,T,238.2,M,5.7,N,10.5,K,A*10
$SDHDG,236.7,,,1.3,E*37
$GPZDA,094814,20,08,2018,-01,00*65
$GPAAM,,,,N,*38
$GPAPB,,,,,,,,,,,,,,,N*26
$GPBOD,,T,,M,,*47
$SDHDG,237.0,,,1.3,E*31
$GPRMB,,,,,,,,,,,,,,N*04
$GPXTE,,,,,N,N*5E
$SDHDG,237.2,,,1.3,E*33
$SDDBT,17.5,f,5.3,M,2.9,F*38
$SDDPT,5.3,0.4,*79
$SDMTW,,C*1A
$SDVLW,,N,545.7,N,1109.5,N,393.7,N*45
$SDVHW,238.7,T,237.4,M,6.6,N,12.3,K*7E
$SDHDG,237.4,,,1.3,E*35
$WIMWD,328.9,T,327.6,M,11.8,N,6.1,M*65
$WIMWV,70.8,R,13.0,N,A*2E
$WIMWV,90.4,T,11.8,N,A*20
$IIXDR,C,,C,AIRTEMP,A,-2.2,D,HEEL,A,1.7,D,TRIM,P,,B,BARO,A,-4.8,D,RUDDER*23
$SDHDG,237.5,,,1.3,E*34
$SDHDG,237.6,,,1.3,E*37
$SDHDG,237.7,,,1.3,E*36
$SDHDG,237.7,,,1.3,E*36
$SDHDG,237.6,,,1.3,E*37
$GPGGA,094814,5250.9722,N,00518.7368,E,1,12,0.60,-5,M,46.8,M,,*41
$GPGLC,9960,,,,,,,,,,,,*75
$GPGLL,5250.9722,N,00518.7368,E,094814,A,A*4D
$GPGSA,A,3,07,08,10,16,20,21,26,27,29,76,75,70,1.10,0.60,0.90*0B
$GPGSV,3,1,12,07,10,333,37,08,12,279,29,10,16,158,33,16,74,247,36*7F
$GPGSV,3,2,12,20,36,137,38,21,66,077,38,26,56,178,31,27,45,282,38*76
$GPGSV,3,3,12,29,11,091,47,76,48,225,24,75,14,188,28,70,27,083,30*72
$GPRMC,094815,A,5250.9721,N,00518.7366,E,5.3,239.0,200818,1.4,E,A*15
$SDHDG,237.5,,,1.3,E*34
$GPVTG,239.0,T,237.6,M,5.3,N,9.8,K,A*2C
$SDHDG,237.4,,,1.3,E*35
$GPZDA,094815,20,08,2018,-01,00*64
$GPAAM,,,,N,*38
$GPAPB,,,,,,,,,,,,,,,N*26
$GPBOD,,T,,M,,*47
$SDHDG,237.2,,,1.3,E*33
$GPRMB,,,,,,,,,,,,,,N*04
$GPXTE,,,,,N,N*5E
$SDDBT,17.5,f,5.3,M,2.9,F*38
$SDHDG,237.0,,,1.3,E*31
$SDDPT,5.3,0.4,*79
$SDMTW,,C*1A
$SDVLW,,N,545.7,N,1109.5,N,393.7,N*45
$SDVHW,238.3,T,236.9,M,6.6,N,12.3,K*76
$SDHDG,236.9,,,1.3,E*39
$WIMWD,329.7,T,328.3,M,11.7,N,6.0,M*6E
$WIMWV,51.6,R,14.0,N,A*24
$WIMWV,91.2,T,11.7,N,A*28
$IIXDR,C,,C,AIRTEMP,A,-3.6,D,HEEL,A,5.6,D,TRIM,P,,B,BARO,A,-6.1,D,RUDDER*28
$SDHDG,236.7,,,1.3,E*37
$SDHDG,236.6,,,1.3,E*36
$SDHDG,236.5,,,1.3,E*35
$SDHDG,236.6,,,1.3,E*36
$SDHDG,236.6,,,1.3,E*36
$GPGGA,094815,5250.9714,N,00518.7347,E,1,12,0.60,-5,M,46.8,M,,*48
$GPGLC,9960,,,,,,,,,,,,*75
$GPGLL,5250.9714,N,00518.7347,E,094815,A,A*44
$GPGSA,A,3,07,08,10,16,20,21,26,27,29,76,75,70,1.10,0.60,0.90*0B
$GPGSV,3,1,12,07,10,333,37,08,12,279,27,10,16,158,33,16,74,247,37*70
$GPGSV,3,2,12,20,36,137,37,21,66,077,37,26,56,178,33,27,45,282,38*74
$GPGSV,3,3,12,29,11,091,47,76,48,225,24,75,14,188,27,70,27,083,30*7D
$GPRMC,094816,A,5250.9713,N,00518.7344,E,5.5,237.9,200818,1.4,E,A*16
$SDHDG,236.7,,,1.3,E*37
$GPVTG,237.9,T,236.5,M,5.5,N,10.2,K,A*1D
$SDHDG,236.7,,,1.3,E*37
$GPZDA,094816,20,08,2018,-01,00*67
$GPAAM,,,,N,*38
$GPAPB,,,,,,,,,,,,,,,N*26
$GPBOD,,T,,M,,*47
$SDHDG,236.7,,,1.3,E*37
$GPRMB,,,,,,,,,,,,,,N*04
$GPXTE,,,,,N,N*5E
$SDDBT,17.5,f,5.3,M,2.9,F*38
$SDHDG,236.6,,,1.3,E*36
$SDDPT,5.3,0.4,*79
$SDMTW,,C*1A
$SDVLW,,N,545.7,N,1109.5,N,393.7,N*45
$SDVHW,238.0,T,236.6,M,6.6,N,12.3,K*7A
$SDHDG,236.6,,,1.3,E*36
$WIMWD,329.2,T,327.8,M,11.8,N,6.1,M*61
$WIMWV,78.8,R,12.0,N,A*27
$WIMWV,91.4,T,11.8,N,A*21
$IIXDR,C,,C,AIRTEMP,A,-2.8,D,HEEL,A,1.6,D,TRIM,P,,B,BARO,A,-3.8,D,RUDDER*2F
$SDHDG,236.4,,,1.3,E*34
$SDHDG,236.3,,,1.3,E*33
$SDHDG,236.1,,,1.3,E*31
$SDHDG,235.9,,,1.3,E*3A
$SDHDG,235.6,,,1.3,E*35
$GPGGA,094816,5250.9705,N,00518.7323,E,1,12,0.60,-5,M,46.8,M,,*49
$GPGLC,9960,,,,,,,,,,,,*75
$GPGLL,5250.9705,N,00518.7323,E,094817,A,A*44
$GPGSA,A,3,07,08,10,16,20,21,26,27,29,76,75,70,1.10,0.60,0.90*0B
$GPGSV,3,1,12,07,10,333,37,08,12,279,24,10,16,158,35,16,74,247,37*75
$GPGSV,3,2,12,20,36,137,36,21,66,077,37,26,56,178,33,27,45,282,38*75
$GPGSV,3,3,12,29,11,091,48,76,48,225,24,75,14,188,23,70,27,083,30*76
$GPRMC,094817,A,5250.9705,N,00518.7323,E,5.7,238.1,200818,1.4,E,A*14
$SDHDG,235.3,,,1.3,E*30
$GPVTG,238.1,T,236.7,M,5.7,N,10.5,K,A*1D
$SDHDG,234.9,,,1.3,E*3B
$GPZDA,094817,20,08,2018,-01,00*66
$GPAAM,,,,N,*38
$GPAPB,,,,,,,,,,,,,,,N*26
$GPBOD,,T,,M,,*47
$SDHDG,234.6,,,1.3,E*34
$GPRMB,,,,,,,,,,,,,,N*04
$GPXTE,,,,,N,N*5E
$SDDBT,17.5,f,5.3,M,2.9,F*38
$SDHDG,234.4,,,1.3,E*36
$SDDPT,5.3,0.4,*79
$SDMTW,,C*1A
$SDVLW,,N,545.7,N,1109.5,N,393.7,N*45
$SDVHW,235.7,T,234.3,M,6.8,N,12.7,K*7D
$SDHDG,234.2,,,1.3,E*30
$WIMWD,330.3,T,328.9,M,11.7,N,6.0,M*68
$WIMWV,53.1,R,14.9,N,A*28
$WIMWV,94.0,T,11.7,N,A*2F
$IIXDR,C,,C,AIRTEMP,A,-1.2,D,HEEL,A,5.1,D,TRIM,P,,B,BARO,A,-3.9,D,RUDDER*24
$SDHDG,234.1,,,1.3,E*33
$SDHDG,234.1,,,1.3,E*33
$SDHDG,234.2,,,1.3,E*30
$SDHDG,234.3,,,1.3,E*31
$SDHDG,234.4,,,1.3,E*36
$GPGGA,094817,5250.9696,N,00518.7305,E,1,12,0.60,-5,M,46.8,M,,*47
$GPGLC,9960,,,,,,,,,,,,*75
$GPGLL,5250.9696,N,00518.7305,E,094818,A,A*44
$GPGSA,A,3,07,08,10,16,20,21,26,27,29,76,75,70,1.10,0.60,0.90*0B
$GPGSV,3,1,12,07,10,333,37,08,12,279,24,10,16,158,35,16,74,247,37*75
$GPGSV,3,2,12,20,36,137,36,21,66,077,37,26,56,178,35,27,45,282,38*73
$GPGSV,3,3,12,29,11,091,48,76,48,225,24,75,14,188,24,70,27,083,29*79
$GPRMC,094818,A,5250.9695,N,00518.7303,E,5.6,229.6,200818,1.4,E,A*17
$SDHDG,234.5,,,1.3,E*37
$GPVTG,229.6,T,228.2,M,5.6,N,10.4,K,A*10
$SDHDG,234.5,,,1.3,E*37
$GPZDA,094818,20,08,2018,-01,00*69
$GPAAM,,,,N,*38
$GPAPB,,,,,,,,,,,,,,,N*26
$GPBOD,,T,,M,,*47
$SDHDG,234.4,,,1.3,E*36
$GPRMB,,,,,,,,,,,,,,N*04
$GPXTE,,,,,N,N*5E
$SDDBT,17.8,f,5.4,M,2.9,F*32
$SDHDG,234.3,,,1.3,E*31
$SDDPT,5.4,0.4,*7E
$SDMTW,,C*1A
$SDVLW,,N,545.7,N,1109.5,N,393.7,N*45
$SDVHW,235.6,T,234.2,M,6.6,N,12.3,K*77
$SDHDG,234.1,,,1.3,E*33
$WIMWD,329.5,T,328.1,M,11.7,N,6.0,M*6E
$WIMWV,74.2,R,11.1,N,A*23
$WIMWV,94.1,T,11.7,N,A*2E
$IIXDR,C,,C,AIRTEMP,A,0.5,D,HEEL,A,2.7,D,TRIM,P,,B,BARO,A,-3.7,D,RUDDER*00
$SDHDG,233.9,,,1.3,E*3C
$SDHDG,233.7,,,1.3,E*32
$SDHDG,233.5,,,1.3,E*30
$SDHDG,233.3,,,1.3,E*36
$GPGGA,094818,5250.9688,N,00518.7285,E,1,12,0.60,-5,M,46.8,M,,*4E
$SDHDG,233.1,,,1.3,E*34
$GPGLC,9960,,,,,,,,,,,,*75
$GPGLL,5250.9688,N,00518.7285,E,094819,A,A*43
$GPGSA,A,3,07,08,10,16,20,21,26,27,29,76,75,70,1.10,0.60,0.90*0B
$GPGSV,3,1,12,07,10,333,36,08,12,279,24,10,16,158,36,16,74,247,37*77
$GPGSV,3,2,12,20,36,137,36,21,66,077,37,26,56,178,34,27,45,282,37*7D
$GPGSV,3,3,12,29,11,091,48,76,48,225,25,75,14,188,28,70,27,083,31*7D
$GPRMC,094819,A,5250.9687,N,00518.7283,E,6.0,236.6,200818,1.4,E,A*17
$GPVTG,236.6,T,235.2,M,6.0,N,11.1,K,A*13
$SDHDG,232.9,,,1.3,E*3D
$SDHDG,232.8,,,1.3,E*3C
$GPZDA,094819,20,08,2018,-01,00*68
$GPAAM,,,,N,*38
$GPAPB,,,,,,,,,,,,,,,N*26
$GPBOD,,T,,M,,*47
$GPRMB,,,,,,,,,,,,,,N*04
$SDHDG,232.7,,,1.3,E*33
$GPXTE,,,,,N,N*5E
$SDDBT,17.5,f,5.3,M,2.9,F*38
$SDHDG,232.6,,,1.3,E*32
$SDDPT,5.3,0.4,*79
$SDMTW,,C*1A
$SDVLW,,N,545.7,N,1109.5,N,393.7,N*45
$SDVHW,234.0,T,232.6,M,6.6,N,12.3,K*72
$WIMWD,330.2,T,328.8,M,11.6,N,6.0,M*69
$SDHDG,232.6,,,1.3,E*32
$WIMWV,57.5,R,13.0,N,A*26
$WIMWV,95.8,T,11.6,N,A*27
$IIXDR,C,,C,AIRTEMP,A,0.3,D,HEEL,A,4.4,D,TRIM,P,,B,BARO,A,-3.6,D,RUDDER*02
$SDHDG,232.7,,,1.3,E*33
$SDHDG,232.7,,,1.3,E*33
$SDHDG,232.8,,,1.3,E*3C
$SDHDG,232.9,,,1.3,E*3D
$GPGGA,094819,5250.9680,N,00518.7263,E,1,12,0.60,-5,M,46.8,M,,*4F
$SDHDG,233.0,,,1.3,E*35
$GPGLC,9960,,,,,,,,,,,,*75
$GPGLL,5250.9680,N,00518.7263,E,094820,A,A*49
$GPGSA,A,3,07,08,10,16,20,21,26,27,29,76,75,70,1.10,0.60,0.90*0B
$GPGSV,3,1,12,07,10,333,36,08,12,279,24,10,16,158,36,16,74,247,37*77
$GPGSV,3,2,12,20,36,137,35,21,66,077,38,26,56,178,35,27,45,282,38*7F
$GPGSV,3,3,12,29,11,091,47,76,48,225,24,75,14,188,30,70,27,083,32*79
$GPRMC,094820,A,5250.9680,N,00518.7263,E,5.5,236.1,200818,1.4,E,A*15
$GPVTG,236.1,T,234.7,M,5.5,N,10.2,K,A*14
$SDHDG,233.1,,,1.3,E*34
$SDHDG,233.2,,,1.3,E*37
$GPZDA,094820,20,08,2018,-01,00*62
$GPAAM,,,,N,*38
$GPAPB,,,,,,,,,,,,,,,N*26
$GPBOD,,T,,M,,*47
$GPRMB,,,,,,,,,,,,,,N*04
$SDHDG,233.3,,,1.3,E*36
$GPXTE,,,,,N,N*5E
$SDDBT,17.8,f,5.4,M,2.9,F*32
$SDHDG,233.4,,,1.3,E*31
$SDDPT,5.4,0.4,*7E
$SDMTW,,C*1A
$SDVLW,,N,545.7,N,1109.5,N,393.7,N*45
$SDVHW,234.8,T,233.4,M,6.4,N,12.0,K*78
$WIMWD,329.8,T,328.4,M,11.6,N,6.0,M*67
$SDHDG,233.4,,,1.3,E*31
$WIMWV,68.6,R,11.1,N,A*2A
$WIMWV,95.4,T,11.6,N,A*2B
$IIXDR,C,,C,AIRTEMP,A,0.3,D,HEEL,A,3.0,D,TRIM,P,,B,BARO,A,-3.5,D,RUDDER*02
$SDHDG,233.5,,,1.3,E*30
$SDHDG,233.5,,,1.3,E*30
$SDHDG,233.4,,,1.3,E*31
$SDHDG,233.4,,,1.3,E*31
$GPGGA,094820,5250.9670,N,00518.7244,E,1,12,0.60,-5,M,46.8,M,,*4F
$SDHDG,233.3,,,1.3,E*36
$GPGLC,9960,,,,,,,,,,,,*75
$GPGLL,5250.9669,N,00518.7242,E,094821,A,A*4C
$GPGSA,A,3,07,08,10,16,20,21,26,27,29,76,75,70,1.10,0.60,0.90*0B
$GPGSV,3,1,12,07,10,333,36,08,12,279,33,10,16,158,37,16,74,247,37*70
$GPGSV,3,2,12,20,36,137,34,21,66,077,38,26,56,178,33,27,45,282,38*78
$GPGSV,3,3,12,29,11,091,47,76,48,225,24,75,14,188,29,70,27,083,31*72
$GPRMC,094821,A,5250.9669,N,00518.7242,E,5.9,233.4,200818,1.4,E,A*1C
$GPVTG,233.4,T,232.0,M,5.9,N,10.9,K,A*12
$SDHDG,233.3,,,1.3,E*36
$SDHDG,233.3,,,1.3,E*36
$GPZDA,094821,20,08,2018,-01,00*63
$GPAAM,,,,N,*38
$GPAPB,,,,,,,,,,,,,,,N*26
$GPBOD,,T,,M,,*47
$GPRMB,,,,,,,,,,,,,,N*04
$SDHDG,233.3,,,1.3,E*36
$GPXTE,,,,,N,N*5E
$SDDBT,17.6,f,5.3,M,2.9,F*3B
$SDHDG,233.3,,,1.3,E*36
$SDDPT,5.3,0.4,*79
$SDMTW,,C*1A
$SDVLW,,N,545.7,N,1109.5,N,393.7,N*45
$SDVHW,234.8,T,233.4,M,6.5,N,12.0,K*79
$WIMWD,330.5,T,329.1,M,11.5,N,5.9,M*6F
$SDHDG,233.4,,,1.3,E*31
$WIMWV,60.2,R,13.0,N,A*25
$WIMWV,95.5,T,11.5,N,A*29
$IIXDR,C,,C,AIRTEMP,A,0.5,D,HEEL,A,4.4,D,TRIM,P,,B,BARO,A,-3.6,D,RUDDER*04
$SDHDG,233.5,,,1.3,E*30
$SDHDG,233.7,,,1.3,E*32
$SDHDG,233.8,,,1.3,E*3D
$SDHDG,233.8,,,1.3,E*3D
$GPGGA,094821,5250.9661,N,00518.7222,E,1,12,0.60,-5,M,46.8,M,,*4E
$GPGLC,9960,,,,,,,,,,,,*75
$GPGLL,5250.9660,N,00518.7220,E,094822,A,A*42
$SDHDG,233.9,,,1.3,E*3C
$GPGSA,A,3,07,08,10,16,20,21,26,27,29,76,75,70,1.10,0.60,0.90*0B
$GPGSV,3,1,12,07,10,333,36,08,12,279,33,10,16,158,38,16,74,247,37*7F
$GPGSV,3,2,12,20,36,137,33,21,66,077,39,26,56,178,33,27,45,282,38*7E
$GPGSV,3,3,12,29,11,091,46,76,48,225,25,75,14,188,30,70,27,083,31*7A
$GPRMC,094822,A,5250.9660,N,00518.7220,E,5.6,235.5,200818,1.4,E,A*1A
$GPVTG,235.5,T,234.1,M,5.6,N,10.4,K,A*10
$SDHDG,234.0,,,1.3,E*32
$SDHDG,234.0,,,1.3,E*32
$GPZDA,094822,20,08,2018,-01,00*60
$GPAAM,,,,N,*38
$GPAPB,,,,,,,,,,,,,,,N*26
$GPBOD,,T,,M,,*47
$GPRMB,,,,,,,,,,,,,,N*04
$GPXTE,,,,,N,N*5E
$SDHDG,234.1,,,1.3,E*33
$SDDBT,17.8,f,5.4,M,2.9,F*32
$SDDPT,5.4,0.4,*7E
$SDHDG,234.1,,,1.3,E*33
$SDMTW,,C*1A
$SDVLW,,N,545.7,N,1109.5,N,393.7,N*45
$SDVHW,235.5,T,234.1,M,6.6,N,12.2,K*76
$WIMWD,329.9,T,328.5,M,11.5,N,5.9,M*6E
$WIMWV,60.6,R,11.1,N,A*22
$WIMWV,94.4,T,11.5,N,A*29
$SDHDG,234.1,,,1.3,E*33
$IIXDR,C,,C,AIRTEMP,A,0.6,D,HEEL,A,3.5,D,TRIM,P,,B,BARO,A,-3.8,D,RUDDER*0F
$SDHDG,234.1,,,1.3,E*33
$SDHDG,234.1,,,1.3,E*33
$SDHDG,234.0,,,1.3,E*32
$SDHDG,233.9,,,1.3,E*3C
$GPGGA,094822,5250.9652,N,00518.7203,E,1,12,0.60,-5,M,46.8,M,,*4E
$GPGLC,9960,,,,,,,,,,,,*75
$GPGLL,5250.9652,N,00518.7201,E,094823,A,A*41
$GPGSA,A,3,07,08,10,16,20,21,26,27,29,76,75,70,1.10,0.60,0.90*0B
$GPGSV,3,1,12,07,10,333,37,08,12,279,34,10,16,158,38,16,74,247,37*79
$GPGSV,3,2,12,20,36,137,33,21,66,077,39,26,56,178,32,27,45,282,38*7F
$GPGSV,3,3,12,29,11,091,46,76,48,225,25,75,14,188,29,70,27,083,31*72
$SDHDG,233.7,,,1.3,E*32
$GPRMC,094823,A,5250.9652,N,00518.7201,E,5.7,238.0,200818,1.4,E,A*10
$GPVTG,238.0,T,236.6,M,5.7,N,10.5,K,A*1D
$SDHDG,233.5,,,1.3,E*30
$GPZDA,094823,20,08,2018,-01,00*61
$GPAAM,,,,N,*38
$GPAPB,,,,,,,,,,,,,,,N*26
$GPBOD,,T,,M,,*47
$SDHDG,233.3,,,1.3,E*36
$GPRMB,,,,,,,,,,,,,,N*04
$GPXTE,,,,,N,N*5E
$SDHDG,233.1,,,1.3,E*34
$SDDBT,17.6,f,5.3,M,2.9,F*3B
$SDDPT,5.3,0.4,*79
$SDMTW,,C*1A
$SDVLW,,N,545.7,N,1109.5,N,393.7,N*45
$SDVHW,234.3,T,232.9,M,6.6,N,12.3,K*7E
$SDHDG,232.9,,,1.3,E*3D
$WIMWD,330.0,T,328.6,M,11.4,N,5.8,M*6C
$WIMWV,59.6,R,12.0,N,A*2A
$WIMWV,95.5,T,11.4,N,A*28
$IIXDR,C,,C,AIRTEMP,A,0.9,D,HEEL,A,4.7,D,TRIM,P,,B,BARO,A,-3.9,D,RUDDER*04
$SDHDG,232.7,,,1.3,E*33
$SDHDG,232.6,,,1.3,E*32
$SDHDG,232.4,,,1.3,E*30
$SDHDG,232.3,,,1.3,E*37
$SDHDG,232.3,,,1.3,E*37
$GPGGA,094823,5250.9645,N,00518.7182,E,1,12,0.60,-5,M,46.8,M,,*43
$GPGLC,9960,,,,,,,,,,,,*75
$GPGLL,5250.9644,N,00518.7180,E,094824,A,A*4B
$GPGSA,A,3,07,08,10,16,20,21,26,27,29,76,75,70,1.10,0.60,0.90*0B
$GPGSV,3,1,12,07,10,333,36,08,12,279,33,10,16,158,38,16,74,247,37*7F
$GPGSV,3,2,12,20,36,137,33,21,66,077,40,26,56,178,33,27,45,282,38*70
$GPGSV,3,3,12,29,11,091,45,76,48,225,25,75,14,188,29,70,27,083,32*72
$GPRMC,094824,A,5250.9644,N,00518.7180,E,5.2,237.7,200818,1.4,E,A*17
$SDHDG,232.2,,,1.3,E*36
$GPVTG,235.4,T,234.0,M,5.6,N,10.4,K,A*10
$SDHDG,232.3,,,1.3,E*37
$GPZDA,094824,20,08,2018,-01,00*66
$GPAAM,,,,N,*38
$GPAPB,,,,,,,,,,,,,,,N*26
$GPBOD,,T,,M,,*47
$GPRMB,,,,,,,,,,,,,,N*04
$SDHDG,232.3,,,1.3,E*37
$GPXTE,,,,,N,N*5E
$SDDBT,17.7,f,5.4,M,2.9,F*3D
$SDHDG,232.4,,,1.3,E*30
$SDDPT,5.4,0.4,*7E
$SDMTW,,C*1A
$SDVLW,,N,545.7,N,1109.5,N,393.7,N*45
$SDVHW,233.8,T,232.4,M,6.6,N,12.2,K*7E
$WIMWD,329.9,T,328.5,M,11.3,N,5.8,M*69
$SDHDG,232.5,,,1.3,E*31
$WIMWV,57.5,R,13.0,N,A*26
$WIMWV,96.1,T,11.3,N,A*28
$IIXDR,C,,C,AIRTEMP,A,0.1,D,HEEL,A,3.3,D,TRIM,P,,B,BARO,A,-1.3,D,RUDDER*07
$SDHDG,232.6,,,1.3,E*32
$SDHDG,232.7,,,1.3,E*33
$SDHDG,232.8,,,1.3,E*3C
$SDHDG,232.8,,,1.3,E*3C
