# Name: Eurotech Com-1289
# Chipset: Fastrax iTrax03
# Submitter: Simon Le Pape <simon.le-pape@hotmail.fr>
# Date: 2007-12-10
# Location: Rennes, Ile-etVilaine, France
#	Documentation says this chip emits ZDA and RMC in that order. 
#
# This file is Copyright (c) 2010 by the GPSD project
# BSD terms apply: see the file COPYING in the distribution root for details.
#
$GPGSA,A,3,05,06,07,10,16,21,23,24,30,31,,,1.7,1.1,1.2*30
$GPGSV,3,1,11,01,06,230,35,05,16,114,43,06,65,063,50,07,72,061,47*79
$GPGSV,3,2,11,10,09,057,40,16,35,295,48,21,43,153,53,23,12,316,51*72
$GPGSV,3,3,11,24,51,098,55,30,33,110,50,31,60,230,47*4A
$GPRMC,143748.77,A,4806.3731,N,00138.6217,W,0.00,266.5,121007,2.6,W,A*0A
$GPGGA,143748.77,4806.3731,N,00138.6217,W,1,10,1.1,42.2,M,48.5,M,,*4B
$PFST,FOM,6*63
$GPGSA,A,3,05,06,07,10,16,21,23,24,30,31,,,1.7,1.1,1.2*30
$GPGSV,3,1,11,01,06,230,35,05,16,114,43,06,65,063,50,07,72,061,47*79
$GPGSV,3,2,11,10,09,057,39,16,35,295,48,21,43,153,53,23,12,316,51*7C
$GPGSV,3,3,11,24,51,098,55,30,33,110,50,31,60,230,47*4A
$GPRMC,143749.77,A,4806.3731,N,00138.6217,W,0.00,266.5,121007,2.6,W,A*0B
$GPGGA,143749.77,4806.3731,N,00138.6217,W,1,10,1.1,42.2,M,48.5,M,,*4A
$PFST,FOM,5*60
$GPGSA,A,3,05,06,07,10,16,21,23,24,30,31,,,1.7,1.1,1.2*30
$GPGSV,3,1,11,01,06,230,34,05,16,114,42,06,65,063,50,07,72,061,47*79
$GPGSV,3,2,11,10,09,057,40,16,35,295,48,21,43,153,53,23,12,316,51*72
$GPGSV,3,3,11,24,51,098,55,30,33,110,50,31,60,230,47*4A
$GPRMC,143750.77,A,4806.3731,N,00138.6217,W,0.00,266.5,121007,2.6,W,A*03
$GPGGA,143750.77,4806.3731,N,00138.6217,W,1,10,1.0,42.2,M,48.5,M,,*43
$PFST,FOM,6*63
$GPGSA,A,3,01,05,06,07,16,21,23,24,30,31,,,1.5,1.0,1.2*33
$GPGSV,3,1,11,01,06,230,34,05,16,114,42,06,65,063,50,07,72,061,47*79
$GPGSV,3,2,11,10,09,057,40,16,35,295,48,21,43,153,53,23,12,316,51*72
$GPGSV,3,3,11,24,51,098,,110,50,31,60,230,46*4B
$GPRMC,143751.77,A,4806.3731,N,00138.6217,W,0.00,266.5,121007,2.6,W,A*02
$GPGGA,143751.77,4806.3731,N,00138.6217,W,1,10,1.3,42.2,M,48.5,M,,*41
$PFST,FOM,6*63
$GPGSA,A,3,01,05,06,07,16,21,23,24,30,31,,,1.9,1.3,1.3*3D
$GPGSV,3,1,11,01,06,230,35,05,16,114,42,06,65,063,50,07,72,061,47*78
$GPGSV,3,2,11,10,09,057,40,16,35,295,48,21,43,153,53,23,12,316,51*72
$GPGSV,3,3,11,24,51,098,55,30,33,110,50,31,60,230,46*4B
$GPRMC,143752.77,A,4806.3731,N,00138.6217,W,0.00,266.5,121007,2.6,W,A*01
$GPGGA,143752.77,4806.3731,N,00138.6217,W,1,10,1.1,42.1,M,48.5,M,,*43
$PFST,FOM,5*60
$GPGSA,A,3,05,06,07,10,16,21,23,24,30,31,,,1.7,1.1,1.2*30
$GPGSV,3,1,11,01,06,230,35,05,16,114,42,06,65,063,50,07,72,061,47*78
$GPGSV,3,2,11,10,09,057,41,16,35,295,48,21,44,152,53,23,12,316,51*75
$GPGSV,3,3,11,24,51,098,55,30,33,110,50,31,60,230,46*4B
$GPRMC,143753.77,A,4806.3731,N,00138.6217,W,0.00,266.5,121007,2.6,W,A*00
$GPGGA,143753.77,4806.3731,N,00138.6217,W,1,10,1.1,42.2,M,48.5,M,,*41
$PFST,FOM,3*66
$GPGSA,A,3,05,06,07,10,16,21,23,24,30,31,,,1.7,1.1,1.2*30
$GPGSV,3,1,11,01,06,230,34,05,16,114,42,06,65,063,50,07,72,061,47*79
$GPGSV,3,2,11,10,09,057,41,16,35,295,48,21,44,152,53,23,12,316,51*75
$GPGSV,3,3,11,24,51,098,55,30,33,110,50,31,60,230,46*4B
$GPRMC,143754.77,A,4806.3731,N,00138.6217,W,0.00,266.5,121007,2.6,W,A*07
$GPGGA,143754.77,4806.3731,N,00138.6217,W,1,10,1.1,42.1,M,48.5,M,,*45
$PFST,FOM,2*67
$GPGSA,A,3,05,06,07,10,16,21,23,24,30,31,,,1.7,1.1,1.2*30
$GPGSV,3,1,11,01,06,230,34,05,16,114,41,06,65,063,50,07,72,061,47*7A
$GPGSV,3,2,11,10,09,057,40,16,35,295,48,21,44,152,53,23,12,316,51*74
$GPGSV,3,3,11,24,51,098,55,30,33,110,50,31,60,230,47*4A
$GPRMC,143755.77,A,4806.3731,N,00138.6217,W,0.00,266.5,121007,2.6,W,A*06
$GPGGA,143755.77,4806.3731,N,00138.6217,W,1,10,1.1,42.1,M,48.5,M,,*44
$PFST,FOM,3*66
$GPGSA,A,3,05,06,07,10,16,21,23,24,30,31,,,1.7,1.1,1.2*30
$GPGSV,3,1,11,01,06,230,34,05,16,114,41,06,65,063,49,07,72,061,47*72
$GPGSV,3,2,11,10,09,057,40,16,35,295,48,21,44,152,53,23,12,316,51*74
$GPGSV,3,3,11,24,51,097,55,30,33,110,51,31,60,230,47*44
$GPRMC,143756.77,A,4806.3731,N,00138.6217,W,0.00,266.5,121007,2.6,W,A*05
$GPGGA,143756.77,4806.3731,N,00138.6217,W,1,10,1.1,42.1,M,48.5,M,,*47
$PFST,FOM,3*66
$GPGSA,A,3,05,06,07,10,16,21,23,24,30,31,,,1.7,1.1,1.2*30
$GPGSV,3,1,11,01,06,230,33,05,16,114,42,06,65,063,49,07,72,061,47*76
$GPGSV,3,2,11,10,09,057,39,16,35,295,48,21,44,152,53,23,12,316,51*7A
$GPGSV,3,3,11,24,51,097,54,30,33,110,50,31,60,230,47*44
$GPRMC,143757.77,A,4806.3731,N,00138.6217,W,0.00,266.5,121007,2.6,W,A*04
$GPGGA,143757.77,4806.3731,N,00138.6217,W,1,10,1.3,42.1,M,48.5,M,,*44
$PFST,FOM,5*60
$GPGSA,A,3,05,06,07,10,16,21,23,24,30,31,,,1.9,1.3,1.3*3D
$GPGSV,3,1,11,01,06,230,33,05,16,114,42,06,65,063,49,07,72,061,47*76
$GPGSV,3,2,11,10,09,057,38,16,35,295,48,21,44,152,53,23,12,316,51*7B
$GPGSV,3,3,11,24,51,097,54,30,33,110,50,31,60,230,47*44
$GPRMC,143758.77,A,4806.3731,N,00138.6217,W,0.00,266.5,121007,2.6,W,A*0B
$GPGGA,143758.77,4806.3731,N,00138.6217,W,1,09,1.3,42.1,M,48.5,M,,*43
$PFST,FOM,4*61
$GPGSA,A,3,05,06,07,16,21,23,24,30,31,,,,1.9,1.3,1.3*3C
$GPGSV,3,1,11,01,06,230,32,05,16,114,42,06,65,063,49,07,72,061,46*76
$GPGSV,3,2,11,10,09,057,37,16,35,295,48,21,44,152,53,23,12,316,51*74
$GPGSV,3,3,11,24,51,097,54,30,33,110,50,31,60,230,47*44
$GPRMC,143759.77,A,4806.3731,N,00138.6216,W,0.00,266.5,121007,2.6,W,A*0B
$GPGGA,143759.77,4806.3731,N,00138.6216,W,1,09,1.3,42.1,M,48.5,M,,*43
$PFST,FOM,4*61
$GPGSA,A,3,05,06,07,16,21,23,24,30,31,,,,2.2,1.3,1.7*30
$GPGSV,3,1,11,01,06,230,32,05,16,114,42,06,65,063,49,07,72,061,46*76
$GPGSV,3,2,11,10,09,057,38,16,35,295,48,21,44,152,53,23,12,316,51*7B
$GPGSV,3,3,11,24,51,097,54,30,33,110,50,31,60,230,47*44
$GPRMC,143800.77,A,4806.3732,N,00138.6216,W,0.00,266.5,121007,2.6,W,A*0B
$GPGGA,143800.77,4806.3732,N,00138.6216,W,1,09,1.3,42.1,M,48.5,M,,*43
$PFST,FOM,5*60
$GPGSA,A,3,05,06,07,16,21,23,24,30,31,,,,1.9,1.3,1.3*3C
$GPGSV,3,1,11,01,06,230,31,05,16,114,42,06,65,063,49,07,72,061,46*75
$GPGSV,3,2,11,10,09,057,38,16,35,295,48,21,44,152,53,23,12,316,51*7B
$GPGSV,3,3,11,24,51,097,54,30,33,110,50,31,60,230,46*45
$GPRMC,143801.77,A,4806.3732,N,00138.6216,W,0.00,266.5,121007,2.6,W,A*0A
$GPGGA,143801.77,4806.3732,N,00138.6216,W,1,10,1.7,42.1,M,48.5,M,,*4E
$PFST,FOM,7*62
