$GPZDA,153347.000,23,04,2010,,*57
$GPGGA,153347.000,3940.6986,N,07544.9356,W,1,09,1.3,75.2,M,-33.8,M,,0000*53
{"class":"TPV","mode":3,"time":"2010-04-23T15:33:47.000Z","ept":0.005,"lat":39.678310000,"lon":-75.748926667,"alt":75.200}
$GPGSA,A,3,26,15,21,27,24,09,18,05,29,,,,1.9,1.3,1.4*33
{"class":"TPV","mode":3,"time":"2010-04-23T15:33:47.000Z","ept":0.005,"lat":39.678310000,"lon":-75.748926667,"alt":75.200,"epv":32.200,"speed":0.000,"climb":0.000}
$GPRMC,153347.000,A,3940.6986,N,07544.9356,W,0.12,87.21,230410,,*29
{"class":"TPV","mode":3,"time":"2010-04-23T15:33:47.000Z","ept":0.005,"lat":39.678310000,"lon":-75.748926667,"alt":75.200,"epv":32.200,"track":87.2100,"speed":0.062,"climb":0.000}
$GPVTG,87.21,T,,M,0.12,N,0.2,K*5D
$GPZDA,153348.000,23,04,2010,,*58
$GPGGA,153348.000,3940.6986,N,07544.9356,W,1,09,1.3,75.0,M,-33.8,M,,0000*5E
$GPGSA,A,3,26,15,21,27,24,09,18,05,29,,,,1.9,1.3,1.4*33
$GPRMC,153348.000,A,3940.6986,N,07544.9356,W,0.12,82.56,230410,,*23
{"class":"TPV","mode":3,"time":"2010-04-23T15:33:48.000Z","ept":0.005,"lat":39.678310000,"lon":-75.748926667,"alt":75.000,"epv":32.200,"track":82.5600,"speed":0.062,"climb":0.000}
$GPVTG,82.56,T,,M,0.12,N,0.2,K*58
$GPZDA,153349.000,23,04,2010,,*59
$GPGGA,153349.000,3940.6986,N,07544.9357,W,1,09,1.3,74.6,M,-33.8,M,,0000*59
$GPGSA,A,3,26,15,21,27,24,09,18,05,29,,,,1.9,1.3,1.4*33
$GPRMC,153349.000,A,3940.6986,N,07544.9357,W,0.09,115.18,230410,,*1C
{"class":"TPV","mode":3,"time":"2010-04-23T15:33:49.000Z","ept":0.005,"lat":39.678310000,"lon":-75.748928333,"alt":74.600,"epv":32.200,"track":115.1800,"speed":0.046,"climb":0.000}
$GPVTG,115.18,T,,M,0.09,N,0.2,K*67
$GPZDA,153350.000,23,04,2010,,*51
$GPGGA,153350.000,3940.6986,N,07544.9357,W,1,09,1.3,74.4,M,-33.8,M,,0000*53
$GPGSA,A,3,26,15,21,27,24,09,18,05,29,,,,1.9,1.3,1.4*33
$GPGSV,3,1,12,26,82,270,40,21,73,256,40,24,66,289,38,18,58,312,45*7E
$GPGSV,3,2,12,27,51,116,44,15,47,048,40,09,46,136,40,22,26,291,22*76
$GPGSV,3,3,12,06,13,303,28,03,06,312,,29,06,199,20,05,05,096,25*77
{"class":"SKY","xdop":0.77,"ydop":1.02,"vdop":1.40,"tdop":1.11,"hdop":1.30,"gdop":2.19,"pdop":1.90,"satellites":[{"PRN":26,"el":82,"az":270,"ss":40,"used":true,"gnssid":0,"svid":26},{"PRN":21,"el":73,"az":256,"ss":40,"used":true,"gnssid":0,"svid":21},{"PRN":24,"el":66,"az":289,"ss":38,"used":true,"gnssid":0,"svid":24},{"PRN":18,"el":58,"az":312,"ss":45,"used":true,"gnssid":0,"svid":18},{"PRN":27,"el":51,"az":116,"ss":44,"used":true,"gnssid":0,"svid":27},{"PRN":15,"el":47,"az":48,"ss":40,"used":true,"gnssid":0,"svid":15},{"PRN":9,"el":46,"az":136,"ss":40,"used":true,"gnssid":0,"svid":9},{"PRN":22,"el":26,"az":291,"ss":22,"used":false,"gnssid":0,"svid":22},{"PRN":6,"el":13,"az":303,"ss":28,"used":false,"gnssid":0,"svid":6},{"PRN":3,"el":6,"az":312,"ss":0,"used":false,"gnssid":0,"svid":3},{"PRN":29,"el":6,"az":199,"ss":20,"used":true,"gnssid":0,"svid":29},{"PRN":5,"el":5,"az":96,"ss":25,"used":true,"gnssid":0,"svid":5}]}
$GPRMC,153350.000,A,3940.6986,N,07544.9357,W,0.09,87.19,230410,,*2F
{"class":"TPV","mode":3,"time":"2010-04-23T15:33:50.000Z","ept":0.005,"lat":39.678310000,"lon":-75.748928333,"alt":74.400,"epx":11.511,"epy":15.333,"epv":32.200,"track":87.1900,"speed":0.046,"climb":0.000}
$GPVTG,87.19,T,,M,0.09,N,0.2,K*5C
$GPZDA,153351.000,23,04,2010,,*50
$GPGGA,153351.000,3940.6985,N,07544.9358,W,1,09,1.3,74.1,M,-33.8,M,,0000*5B
$GPGSA,A,3,26,15,21,27,24,09,18,05,29,,,,1.9,1.3,1.4*33
$GPRMC,153351.000,A,3940.6985,N,07544.9358,W,0.09,91.11,230410,,*2D
{"class":"TPV","mode":3,"time":"2010-04-23T15:33:51.000Z","ept":0.005,"lat":39.678308333,"lon":-75.748930000,"alt":74.100,"epx":11.511,"epy":15.333,"epv":32.200,"track":91.1100,"speed":0.046,"climb":0.000}
$GPVTG,91.11,T,,M,0.09,N,0.2,K*53
$GPZDA,153352.000,23,04,2010,,*53
$GPGGA,153352.000,3940.6985,N,07544.9358,W,1,09,1.3,73.9,M,-33.8,M,,0000*57
$GPGSA,A,3,26,15,21,27,24,09,18,05,29,,,,1.9,1.3,1.4*33
$GPRMC,153352.000,A,3940.6985,N,07544.9358,W,0.07,136.11,230410,,*1C
{"class":"TPV","mode":3,"time":"2010-04-23T15:33:52.000Z","ept":0.005,"lat":39.678308333,"lon":-75.748930000,"alt":73.900,"epx":11.511,"epy":15.333,"epv":32.200,"track":136.1100,"speed":0.036,"climb":0.000}
$GPVTG,136.11,T,,M,0.07,N,0.1,K*62
$GPZDA,153353.000,23,04,2010,,*52
$GPGGA,153353.000,3940.6985,N,07544.9358,W,1,09,1.3,74.0,M,-33.8,M,,0000*58
$GPGSA,A,3,26,15,21,27,24,09,18,05,29,,,,1.9,1.3,1.4*33
$GPRMC,153353.000,A,3940.6985,N,07544.9358,W,0.10,73.57,230410,,*29
{"class":"TPV","mode":3,"time":"2010-04-23T15:33:53.000Z","ept":0.005,"lat":39.678308333,"lon":-75.748930000,"alt":74.000,"epx":11.511,"epy":15.333,"epv":32.200,"track":73.5700,"speed":0.051,"climb":0.000}
$GPVTG,73.57,T,,M,0.10,N,0.2,K*55
$GPZDA,153354.000,23,04,2010,,*55
$GPGGA,153354.000,3940.6985,N,07544.9358,W,1,09,1.3,73.9,M,-33.8,M,,0000*51
$GPGSA,A,3,26,15,21,27,24,09,18,05,29,,,,1.9,1.3,1.4*33
$GPRMC,153354.000,A,3940.6985,N,07544.9358,W,0.06,86.02,230410,,*23
{"class":"TPV","mode":3,"time":"2010-04-23T15:33:54.000Z","ept":0.005,"lat":39.678308333,"lon":-75.748930000,"alt":73.900,"epx":11.511,"epy":15.333,"epv":32.200,"track":86.0200,"speed":0.031,"climb":0.000}
$GPVTG,86.02,T,,M,0.06,N,0.1,K*5B
$GPZDA,153355.000,23,04,2010,,*54
$GPGGA,153355.000,3940.6985,N,07544.9358,W,1,09,1.3,73.9,M,-33.8,M,,0000*50
$GPGSA,A,3,26,15,21,27,24,09,18,05,29,,,,1.9,1.3,1.4*33
$GPGSV,3,1,12,26,82,270,40,21,73,256,40,24,66,289,38,18,58,312,45*7E
$GPGSV,3,2,12,27,51,116,44,15,47,048,40,09,46,136,40,22,26,291,19*7E
$GPGSV,3,3,12,06,13,303,,03,06,312,10,29,06,199,23,05,05,096,25*7F
{"class":"SKY","xdop":0.77,"ydop":1.02,"vdop":1.40,"tdop":1.11,"hdop":1.30,"gdop":2.19,"pdop":1.90,"satellites":[{"PRN":26,"el":82,"az":270,"ss":40,"used":true,"gnssid":0,"svid":26},{"PRN":21,"el":73,"az":256,"ss":40,"used":true,"gnssid":0,"svid":21},{"PRN":24,"el":66,"az":289,"ss":38,"used":true,"gnssid":0,"svid":24},{"PRN":18,"el":58,"az":312,"ss":45,"used":true,"gnssid":0,"svid":18},{"PRN":27,"el":51,"az":116,"ss":44,"used":true,"gnssid":0,"svid":27},{"PRN":15,"el":47,"az":48,"ss":40,"used":true,"gnssid":0,"svid":15},{"PRN":9,"el":46,"az":136,"ss":40,"used":true,"gnssid":0,"svid":9},{"PRN":22,"el":26,"az":291,"ss":19,"used":false,"gnssid":0,"svid":22},{"PRN":6,"el":13,"az":303,"ss":0,"used":false,"gnssid":0,"svid":6},{"PRN":3,"el":6,"az":312,"ss":10,"used":false,"gnssid":0,"svid":3},{"PRN":29,"el":6,"az":199,"ss":23,"used":true,"gnssid":0,"svid":29},{"PRN":5,"el":5,"az":96,"ss":25,"used":true,"gnssid":0,"svid":5}]}
$GPRMC,153355.000,A,3940.6985,N,07544.9358,W,0.11,71.30,230410,,*2D
{"class":"TPV","mode":3,"time":"2010-04-23T15:33:55.000Z","ept":0.005,"lat":39.678308333,"lon":-75.748930000,"alt":73.900,"epx":11.511,"epy":15.333,"epv":32.200,"track":71.3000,"speed":0.057,"climb":0.000}
$GPVTG,71.30,T,,M,0.11,N,0.2,K*57
$GPZDA,153356.000,23,04,2010,,*57
$GPGGA,153356.000,3940.6985,N,07544.9358,W,1,09,1.3,73.9,M,-33.8,M,,0000*53
$GPGSA,A,3,26,15,21,27,24,09,18,05,29,,,,1.9,1.3,1.4*33
$GPRMC,153356.000,A,3940.6985,N,07544.9358,W,0.04,127.06,230410,,*1D
{"class":"TPV","mode":3,"time":"2010-04-23T15:33:56.000Z","ept":0.005,"lat":39.678308333,"lon":-75.748930000,"alt":73.900,"epx":11.511,"epy":15.333,"epv":32.200,"track":127.0600,"speed":0.021,"climb":0.000}
$GPVTG,127.06,T,,M,0.04,N,0.1,K*67
$GPZDA,153357.000,23,04,2010,,*56
$GPGGA,153357.000,3940.6985,N,07544.9358,W,1,09,1.3,73.7,M,-33.8,M,,0000*5C
$GPGSA,A,3,26,15,21,27,24,09,18,05,29,,,,1.9,1.3,1.4*33
$GPRMC,153357.000,A,3940.6985,N,07544.9358,W,0.09,191.66,230410,,*1A
{"class":"TPV","mode":3,"time":"2010-04-23T15:33:57.000Z","ept":0.005,"lat":39.678308333,"lon":-75.748930000,"alt":73.700,"epx":11.511,"epy":15.333,"epv":32.200,"track":191.6600,"speed":0.046,"climb":0.000}
$GPVTG,191.66,T,,M,0.09,N,0.2,K*62
$GPZDA,153358.000,23,04,2010,,*59
$GPGGA,153358.000,3940.6985,N,07544.9358,W,1,09,1.3,73.7,M,-33.8,M,,0000*53
$GPGSA,A,3,26,15,21,27,24,09,18,05,29,,,,1.9,1.3,1.4*33
$GPRMC,153358.000,A,3940.6985,N,07544.9358,W,0.05,118.29,230410,,*13
{"class":"TPV","mode":3,"time":"2010-04-23T15:33:58.000Z","ept":0.005,"lat":39.678308333,"lon":-75.748930000,"alt":73.700,"epx":11.511,"epy":15.333,"epv":32.200,"track":118.2900,"speed":0.026,"climb":0.000}
$GPVTG,118.29,T,,M,0.05,N,0.1,K*67
$GPZDA,153359.000,23,04,2010,,*58
$GPGGA,153359.000,3940.6985,N,07544.9359,W,1,09,1.3,73.2,M,-33.8,M,,0000*56
$GPRMC,153359.000,A,3940.6985,N,07544.9359,W,0.12,206.85,230410,,*1F
{"class":"TPV","mode":3,"time":"2010-04-23T15:33:59.000Z","ept":0.005,"lat":39.678308333,"lon":-75.748931667,"alt":73.200,"epx":11.511,"epy":15.333,"epv":32.200,"track":206.8500,"speed":0.062,"climb":0.000}
$GPVTG,206.85,T,,M,0.12,N,0.2,K*68
$GPZDA,153400.000,23,04,2010,,*53
$GPGGA,153400.000,3940.6985,N,07544.9359,W,1,09,1.3,72.9,M,-33.8,M,,0000*57
$GPGSA,A,3,26,15,21,27,24,09,18,05,29,,,,1.9,1.3,1.4*33
$GPGSV,3,1,12,26,82,270,39,21,73,256,39,24,66,289,39,18,58,312,45*7F
$GPGSV,3,2,12,27,51,116,43,15,47,048,30,09,46,136,42,22,26,291,14*71
$GPGSV,3,3,12,06,13,303,27,03,06,312,,29,06,199,22,05,05,096,25*7A
{"class":"SKY","xdop":0.77,"ydop":1.02,"vdop":1.40,"tdop":1.11,"hdop":1.30,"gdop":2.19,"pdop":1.90,"satellites":[{"PRN":26,"el":82,"az":270,"ss":39,"used":true,"gnssid":0,"svid":26},{"PRN":21,"el":73,"az":256,"ss":39,"used":true,"gnssid":0,"svid":21},{"PRN":24,"el":66,"az":289,"ss":39,"used":true,"gnssid":0,"svid":24},{"PRN":18,"el":58,"az":312,"ss":45,"used":true,"gnssid":0,"svid":18},{"PRN":27,"el":51,"az":116,"ss":43,"used":true,"gnssid":0,"svid":27},{"PRN":15,"el":47,"az":48,"ss":30,"used":true,"gnssid":0,"svid":15},{"PRN":9,"el":46,"az":136,"ss":42,"used":true,"gnssid":0,"svid":9},{"PRN":22,"el":26,"az":291,"ss":14,"used":false,"gnssid":0,"svid":22},{"PRN":6,"el":13,"az":303,"ss":27,"used":false,"gnssid":0,"svid":6},{"PRN":3,"el":6,"az":312,"ss":0,"used":false,"gnssid":0,"svid":3},{"PRN":29,"el":6,"az":199,"ss":22,"used":true,"gnssid":0,"svid":29},{"PRN":5,"el":5,"az":96,"ss":25,"used":true,"gnssid":0,"svid":5}]}
$GPRMC,153400.000,A,3940.6985,N,07544.9359,W,0.19,205.81,230410,,*18
{"class":"TPV","mode":3,"time":"2010-04-23T15:34:00.000Z","ept":0.005,"lat":39.678308333,"lon":-75.748931667,"alt":72.900,"epx":11.511,"epy":15.333,"epv":32.200,"track":205.8100,"speed":0.098,"climb":0.000}
$GPVTG,205.81,T,,M,0.19,N,0.3,K*65
$GPZDA,153401.000,23,04,2010,,*52
$GPGGA,153401.000,3940.6985,N,07544.9360,W,1,09,1.3,72.6,M,-33.8,M,,0000*53
$GPGSA,A,3,26,15,21,27,24,09,18,05,29,,,,1.9,1.3,1.4*33
$GPRMC,153401.000,A,3940.6985,N,07544.9360,W,0.24,45.90,230410,,*2B
{"class":"TPV","mode":3,"time":"2010-04-23T15:34:01.000Z","ept":0.005,"lat":39.678308333,"lon":-75.748933333,"alt":72.600,"epx":11.511,"epy":15.333,"epv":32.200,"track":45.9000,"speed":0.123,"climb":0.000}
$GPVTG,45.90,T,,M,0.24,N,0.4,K*5A
$GPZDA,153402.000,23,04,2010,,*51
$GPGGA,153402.000,3940.6985,N,07544.9360,W,1,09,1.3,72.4,M,-33.8,M,,0000*52
$GPGSA,A,3,26,15,21,27,24,09,18,05,29,,,,1.9,1.3,1.4*33
$GPRMC,153402.000,A,3940.6985,N,07544.9360,W,0.14,217.87,230410,,*18
{"class":"TPV","mode":3,"time":"2010-04-23T15:34:02.000Z","ept":0.005,"lat":39.678308333,"lon":-75.748933333,"alt":72.400,"epx":11.511,"epy":15.333,"epv":32.200,"track":217.8700,"speed":0.072,"climb":0.000}
$GPVTG,217.87,T,,M,0.14,N,0.3,K*6D
$GPZDA,153403.000,23,04,2010,,*50
$GPGGA,153403.000,3940.6985,N,07544.9360,W,1,09,1.3,72.3,M,-33.8,M,,0000*54
$GPGSA,A,3,26,15,21,27,24,09,18,05,29,,,,1.9,1.3,1.4*33
$GPRMC,153403.000,A,3940.6985,N,07544.9360,W,0.17,48.77,230410,,*2D
{"class":"TPV","mode":3,"time":"2010-04-23T15:34:03.000Z","ept":0.005,"lat":39.678308333,"lon":-75.748933333,"alt":72.300,"epx":11.511,"epy":15.333,"epv":32.200,"track":48.7700,"speed":0.087,"climb":0.000}
$GPVTG,48.77,T,,M,0.17,N,0.3,K*59
$GPZDA,153404.000,23,04,2010,,*57
$GPGGA,153404.000,3940.6985,N,07544.9360,W,1,09,1.3,72.3,M,-33.8,M,,0000*53
$GPGSA,A,3,26,15,21,27,24,09,18,05,29,,,,1.9,1.3,1.4*33
$GPRMC,153404.000,A,3940.6985,N,07544.9360,W,0.12,198.25,230410,,*14
{"class":"TPV","mode":3,"time":"2010-04-23T15:34:04.000Z","ept":0.005,"lat":39.678308333,"lon":-75.748933333,"alt":72.300,"epx":11.511,"epy":15.333,"epv":32.200,"track":198.2500,"speed":0.062,"climb":0.000}
$GPVTG,198.25,T,,M,0.12,N,0.2,K*66
$GPZDA,153405.000,23,04,2010,,*56
$GPGGA,153405.000,3940.6985,N,07544.9360,W,1,09,1.3,72.4,M,-33.8,M,,0000*55
$GPGSA,A,3,26,15,21,27,24,09,18,05,29,,,,1.9,1.3,1.4*33
$GPGSV,3,1,12,26,82,270,39,21,73,256,38,24,66,289,39,18,58,312,44*7F
$GPGSV,3,2,12,27,51,116,43,15,47,048,37,09,46,136,41,22,26,291,11*70
$GPGSV,3,3,12,06,13,303,28,03,06,312,,29,06,199,23,05,05,096,25*74
{"class":"SKY","xdop":0.77,"ydop":1.02,"vdop":1.40,"tdop":1.11,"hdop":1.30,"gdop":2.19,"pdop":1.90,"satellites":[{"PRN":26,"el":82,"az":270,"ss":39,"used":true,"gnssid":0,"svid":26},{"PRN":21,"el":73,"az":256,"ss":38,"used":true,"gnssid":0,"svid":21},{"PRN":24,"el":66,"az":289,"ss":39,"used":true,"gnssid":0,"svid":24},{"PRN":18,"el":58,"az":312,"ss":44,"used":true,"gnssid":0,"svid":18},{"PRN":27,"el":51,"az":116,"ss":43,"used":true,"gnssid":0,"svid":27},{"PRN":15,"el":47,"az":48,"ss":37,"used":true,"gnssid":0,"svid":15},{"PRN":9,"el":46,"az":136,"ss":41,"used":true,"gnssid":0,"svid":9},{"PRN":22,"el":26,"az":291,"ss":11,"used":false,"gnssid":0,"svid":22},{"PRN":6,"el":13,"az":303,"ss":28,"used":false,"gnssid":0,"svid":6},{"PRN":3,"el":6,"az":312,"ss":0,"used":false,"gnssid":0,"svid":3},{"PRN":29,"el":6,"az":199,"ss":23,"used":true,"gnssid":0,"svid":29},{"PRN":5,"el":5,"az":96,"ss":25,"used":true,"gnssid":0,"svid":5}]}
$GPRMC,153405.000,A,3940.6985,N,07544.9360,W,0.21,205.69,230410,,*1A
{"class":"TPV","mode":3,"time":"2010-04-23T15:34:05.000Z","ept":0.005,"lat":39.678308333,"lon":-75.748933333,"alt":72.400,"epx":11.511,"epy":15.333,"epv":32.200,"track":205.6900,"speed":0.108,"climb":0.000}
$GPVTG,205.69,T,,M,0.21,N,0.4,K*6F
