$GPGSV,3,1,00,,,,,,,,,,,,,,,,*7B
$GPGSV,3,2,00,,,,,,,,,,,,,,,,*78
$GPGSV,3,3,00,,,,,,,,,,,,,,,,*79
$PMGNST,01.75,3,F,816,11.1,+00000,20*5E
{"class":"TPV","mode":1}
$GPGSV,3,1,00,,,,,,,,,,,,,,,,*7B
$GPGSV,3,2,00,,,,,,,,,,,,,,,,*78
$GPGSV,3,3,00,,,,,,,,,,,,,,,,*79
$PMGNST,01.75,3,F,816,11.1,+00000,20*5E
{"class":"TPV","mode":1}
$GPGSV,3,1,00,,,,,,,,,,,,,,,,*7B
$GPGSV,3,2,00,,,,,,,,,,,,,,,,*78
$GPGSV,3,3,00,,,,,,,,,,,,,,,,*79
$PMGNST,01.75,3,F,822,11.2,+00000,20*5A
{"class":"TPV","mode":1}
$GPGSV,3,1,00,,,,,,,,,,,,,,,,*7B
$GPGSV,3,2,00,,,,,,,,,,,,,,,,*78
$GPGSV,3,3,00,,,,,,,,,,,,,,,,*79
$PMGNST,01.75,3,F,822,11.2,+00000,20*5A
{"class":"TPV","mode":1}
$GPGSV,3,1,12,09,76,287,,17,38,073,36,26,34,163,,05,33,230,*72
$GPGSV,3,2,12,29,27,161,,18,24,256,,22,24,299,,28,11,055,*73
$GPGSV,3,3,12,14,08,319,,11,03,017,,30,02,232,,24,00,084,*71
{"class":"SKY","satellites":[{"PRN":9,"el":76.0,"az":287.0,"ss":0.0,"used":false,"gnssid":0,"svid":9},{"PRN":17,"el":38.0,"az":73.0,"ss":36.0,"used":false,"gnssid":0,"svid":17},{"PRN":26,"el":34.0,"az":163.0,"ss":0.0,"used":false,"gnssid":0,"svid":26},{"PRN":5,"el":33.0,"az":230.0,"ss":0.0,"used":false,"gnssid":0,"svid":5},{"PRN":29,"el":27.0,"az":161.0,"ss":0.0,"used":false,"gnssid":0,"svid":29},{"PRN":18,"el":24.0,"az":256.0,"ss":0.0,"used":false,"gnssid":0,"svid":18},{"PRN":22,"el":24.0,"az":299.0,"ss":0.0,"used":false,"gnssid":0,"svid":22},{"PRN":28,"el":11.0,"az":55.0,"ss":0.0,"used":false,"gnssid":0,"svid":28},{"PRN":14,"el":8.0,"az":319.0,"ss":0.0,"used":false,"gnssid":0,"svid":14},{"PRN":11,"el":3.0,"az":17.0,"ss":0.0,"used":false,"gnssid":0,"svid":11},{"PRN":30,"el":2.0,"az":232.0,"ss":0.0,"used":false,"gnssid":0,"svid":30},{"PRN":24,"el":0.0,"az":84.0,"ss":0.0,"used":false,"gnssid":0,"svid":24}]}
$PMGNST,01.75,3,F,822,11.2,-00673,20*5E
{"class":"TPV","mode":1}
$GPGLL,5313.2228,N,00634.4228,E,200619.295,A*35
{"class":"TPV","mode":2,"lat":53.220380000,"lon":6.573713333,"magvar":2.0}
$GPGGA,200619.30,5313.2228,N,00634.4228,E,1,05,2.6,00000,M,,,,*2C
{"class":"TPV","mode":3,"lat":53.220380000,"lon":6.573713333,"altHAE":43.053,"altMSL":0.000,"magvar":2.0,"geoidSep":43.053,"eph":49.400}
$GPRMC,200619.30,A,5313.2228,N,00634.4228,E,00.0,000.0,200506,00,W*59
{"class":"TPV","mode":3,"time":"2006-05-20T20:06:19.300Z","ept":0.005,"lat":53.220380000,"lon":6.573713333,"altHAE":43.053,"altMSL":0.000,"track":0.0000,"magtrack":1.9625,"magvar":2.0,"speed":0.000,"geoidSep":43.053,"eph":49.400}
$GPGSA,A,3,26,05,22,09,18,,,,,,,,05.1,02.6,04.4*03
{"class":"TPV","mode":3,"time":"2006-05-20T20:06:19.300Z","ept":0.005,"lat":53.220380000,"lon":6.573713333,"altHAE":43.053,"altMSL":0.000,"epv":101.200,"track":0.0000,"magtrack":1.9625,"magvar":2.0,"speed":0.000,"geoidSep":43.053,"eph":49.400,"sep":96.900}
$GPGSV,3,1,10,09,78,288,39,17,38,071,,05,34,230,45,26,33,163,39*77
$GPGSV,3,2,10,29,26,162,,18,24,255,42,22,24,298,44,28,10,056,*75
$GPGSV,3,3,10,14,09,319,,11,03,016,,136,27,157,,124,28,162,*71
{"class":"SKY","xdop":1.62,"ydop":1.38,"vdop":4.40,"tdop":2.35,"hdop":2.60,"gdop":4.19,"pdop":5.10,"satellites":[{"PRN":9,"el":78.0,"az":288.0,"ss":39.0,"used":true,"gnssid":0,"svid":9},{"PRN":17,"el":38.0,"az":71.0,"ss":0.0,"used":false,"gnssid":0,"svid":17},{"PRN":5,"el":34.0,"az":230.0,"ss":45.0,"used":true,"gnssid":0,"svid":5},{"PRN":26,"el":33.0,"az":163.0,"ss":39.0,"used":true,"gnssid":0,"svid":26},{"PRN":29,"el":26.0,"az":162.0,"ss":0.0,"used":false,"gnssid":0,"svid":29},{"PRN":18,"el":24.0,"az":255.0,"ss":42.0,"used":true,"gnssid":0,"svid":18},{"PRN":22,"el":24.0,"az":298.0,"ss":44.0,"used":true,"gnssid":0,"svid":22},{"PRN":28,"el":10.0,"az":56.0,"ss":0.0,"used":false,"gnssid":0,"svid":28},{"PRN":14,"el":9.0,"az":319.0,"ss":0.0,"used":false,"gnssid":0,"svid":14},{"PRN":11,"el":3.0,"az":16.0,"ss":0.0,"used":false,"gnssid":0,"svid":11},{"PRN":136,"el":27.0,"az":157.0,"ss":0.0,"used":false,"gnssid":1,"svid":136},{"PRN":124,"el":28.0,"az":162.0,"ss":0.0,"used":false,"gnssid":1,"svid":124}]}
$GPGLL,5313.2228,N,00634.4228,E,200620.303,A*31
$GPGGA,200620.30,5313.2228,N,00634.4228,E,1,05,2.5,00000,M,,,,*25
$GPRMC,200620.30,A,5313.2228,N,00634.4228,E,00.0,000.0,200506,00,W*53
{"class":"TPV","mode":3,"time":"2006-05-20T20:06:20.300Z","ept":0.005,"lat":53.220380000,"lon":6.573713333,"altHAE":43.053,"altMSL":0.000,"epx":24.247,"epy":20.724,"epv":101.200,"track":0.0000,"magtrack":1.9625,"magvar":2.0,"speed":0.000,"climb":0.000,"eps":48.35,"epc":201.79,"geoidSep":43.053,"eph":49.400,"sep":96.900}
$GPGSA,A,3,26,05,22,09,18,,,,,,,,05.0,02.5,04.3*06
$PMGNST,01.75,3,T,816,11.1,-00496,00*43
$GPGLL,5313.2227,N,00634.4228,E,200621.297,A*33
$GPGGA,200621.30,5313.2227,N,00634.4228,E,1,05,2.6,00000,M,,,,*28
$GPRMC,200621.30,A,5313.2227,N,00634.4228,E,00.0,000.0,200506,00,W*5D
{"class":"TPV","mode":3,"time":"2006-05-20T20:06:21.300Z","ept":0.005,"lat":53.220378333,"lon":6.573713333,"altHAE":43.053,"altMSL":0.000,"epx":24.247,"epy":20.724,"epv":98.900,"track":0.0000,"magtrack":1.9625,"magvar":2.0,"speed":0.000,"geoidSep":43.053,"eph":47.500,"sep":95.000}
$GPGSA,A,3,26,05,22,09,18,,,,,,,,05.2,02.6,04.5*01
$GPGSV,3,1,10,09,78,288,38,17,38,071,,05,34,230,45,26,33,163,39*76
$GPGSV,3,2,10,29,26,162,,18,24,255,42,22,24,298,44,28,10,056,*75
$GPGSV,3,3,10,14,09,319,,11,03,016,,136,27,157,,124,28,162,*71
{"class":"SKY","xdop":1.62,"ydop":1.38,"vdop":4.50,"tdop":2.35,"hdop":2.60,"gdop":4.19,"pdop":5.20,"satellites":[{"PRN":9,"el":78.0,"az":288.0,"ss":38.0,"used":true,"gnssid":0,"svid":9},{"PRN":17,"el":38.0,"az":71.0,"ss":0.0,"used":false,"gnssid":0,"svid":17},{"PRN":5,"el":34.0,"az":230.0,"ss":45.0,"used":true,"gnssid":0,"svid":5},{"PRN":26,"el":33.0,"az":163.0,"ss":39.0,"used":true,"gnssid":0,"svid":26},{"PRN":29,"el":26.0,"az":162.0,"ss":0.0,"used":false,"gnssid":0,"svid":29},{"PRN":18,"el":24.0,"az":255.0,"ss":42.0,"used":true,"gnssid":0,"svid":18},{"PRN":22,"el":24.0,"az":298.0,"ss":44.0,"used":true,"gnssid":0,"svid":22},{"PRN":28,"el":10.0,"az":56.0,"ss":0.0,"used":false,"gnssid":0,"svid":28},{"PRN":14,"el":9.0,"az":319.0,"ss":0.0,"used":false,"gnssid":0,"svid":14},{"PRN":11,"el":3.0,"az":16.0,"ss":0.0,"used":false,"gnssid":0,"svid":11},{"PRN":136,"el":27.0,"az":157.0,"ss":0.0,"used":false,"gnssid":1,"svid":136},{"PRN":124,"el":28.0,"az":162.0,"ss":0.0,"used":false,"gnssid":1,"svid":124}]}
$GPGLL,5313.2227,N,00634.4228,E,200622.305,A*3A
$GPGGA,200622.31,5313.2227,N,00634.4228,E,1,05,2.5,00000,M,,,,*29
$GPRMC,200622.31,A,5313.2227,N,00634.4228,E,00.0,000.0,200506,00,W*5F
{"class":"TPV","mode":3,"time":"2006-05-20T20:06:22.310Z","ept":0.005,"lat":53.220378333,"lon":6.573713333,"altHAE":43.053,"altMSL":0.000,"epx":24.247,"epy":20.724,"epv":103.500,"track":0.0000,"magtrack":1.9625,"magvar":2.0,"speed":0.000,"climb":0.000,"eps":48.25,"epc":201.39,"geoidSep":43.053,"eph":49.400,"sep":98.800}
$GPGSA,A,3,26,05,22,09,18,,,,,,,,05.0,02.5,04.3*06
$PMGNST,01.75,3,T,816,11.1,-00495,00*40
