# Name: Firefly-IIa
# Chipset: UBLOX NEO-5Q
# Submitter: Said Jackson <saidjack@aol.com>
# Date: 2010-07-07
# Location: Los Gatos, CA, 170 Knowles Drive
$GPGGA,005947.00,3715.6616,N,12157.6709,W,,11,0.8,86.0,M,-30.1,M,,*54
$GPRMC,005947.00,A,3715.6616,N,12157.6709,W,0.0,0.0,080710,,*2F
$GPZDA,005947.00,08,07,2010,+00,00*4E
$GPGGA,005948.00,3715.6616,N,12157.6709,W,,11,0.8,86.0,M,-30.1,M,,*5B
$GPRMC,005948.00,A,3715.6616,N,12157.6709,W,0.0,0.0,080710,,*20
$GPZDA,005948.00,08,07,2010,+00,00*41
$GPGGA,005949.00,3715.6616,N,12157.6709,W,,11,0.8,86.0,M,-30.1,M,,*5A
$GPRMC,005949.00,A,3715.6616,N,12157.6709,W,0.0,0.0,080710,,*21
$GPZDA,005949.00,08,07,2010,+00,00*40
$GPGGA,005950.00,3715.6616,N,12157.6709,W,,11,0.8,86.0,M,-30.1,M,,*52
$GPRMC,005950.00,A,3715.6616,N,12157.6709,W,0.0,0.0,080710,,*29
$GPZDA,005950.00,08,07,2010,+00,00*48
$GPGGA,005951.00,3715.6616,N,12157.6709,W,,11,0.8,86.0,M,-30.1,M,,*53
$GPRMC,005951.00,A,3715.6616,N,12157.6709,W,0.0,0.0,080710,,*28
$GPZDA,005951.00,08,07,2010,+00,00*49
$GPGGA,005952.00,3715.6616,N,12157.6709,W,,11,0.8,86.0,M,-30.1,M,,*50
$GPRMC,005952.00,A,3715.6616,N,12157.6709,W,0.0,0.0,080710,,*2B
$GPZDA,005952.00,08,07,2010,+00,00*4A
$GPGGA,005953.00,3715.6616,N,12157.6709,W,,11,0.8,86.0,M,-30.1,M,,*51
$GPRMC,005953.00,A,3715.6616,N,12157.6709,W,0.0,0.0,080710,,*2A
$GPZDA,005953.00,08,07,2010,+00,00*4B
$GPGGA,005954.00,3715.6616,N,12157.6709,W,,11,0.8,86.0,M,-30.1,M,,*56
$GPRMC,005954.00,A,3715.6616,N,12157.6709,W,0.0,0.0,080710,,*2D
$GPZDA,005954.00,08,07,2010,+00,00*4C
$GPGGA,005955.00,3715.6616,N,12157.6709,W,,11,0.8,86.0,M,-30.1,M,,*57
$GPRMC,005955.00,A,3715.6616,N,12157.6709,W,0.0,0.0,080710,,*2C
$GPZDA,005955.00,08,07,2010,+00,00*4D
$GPGGA,005956.00,3715.6616,N,12157.6709,W,,11,0.8,86.0,M,-30.1,M,,*54
$GPRMC,005956.00,A,3715.6616,N,12157.6709,W,0.0,0.0,080710,,*2F
$GPZDA,005956.00,08,07,2010,+00,00*4E
$GPGGA,005957.00,3715.6616,N,12157.6709,W,,11,0.8,86.0,M,-30.1,M,,*55
$GPRMC,005957.00,A,3715.6616,N,12157.6709,W,0.0,0.0,080710,,*2E
$GPZDA,005957.00,08,07,2010,+00,00*4F
$GPGGA,005958.00,3715.6616,N,12157.6709,W,,11,0.8,86.0,M,-30.1,M,,*5A
$GPRMC,005958.00,A,3715.6616,N,12157.6709,W,0.0,0.0,080710,,*21
$GPZDA,005958.00,08,07,2010,+00,00*40
$GPGGA,005959.00,3715.6614,N,12157.6699,W,,11,0.8,85.9,M,-30.1,M,,*5B
$GPRMC,005959.00,A,3715.6614,N,12157.6699,W,0.0,0.0,080710,,*2A
$GPZDA,005959.00,08,07,2010,+00,00*41
$GPGGA,010000.00,3715.6614,N,12157.6699,W,,11,0.8,85.7,M,-30.1,M,,*54
$GPRMC,010000.00,A,3715.6614,N,12157.6699,W,0.0,0.0,080710,,*2B
$GPZDA,010000.00,08,07,2010,+00,00*40
$GPGGA,010001.00,3715.6614,N,12157.6699,W,,11,0.8,85.7,M,-30.1,M,,*55
$GPRMC,010001.00,A,3715.6614,N,12157.6699,W,0.0,0.0,080710,,*2A
$GPZDA,010001.00,08,07,2010,+00,00*41
$GPGGA,010002.00,3715.6614,N,12157.6699,W,,11,0.8,85.7,M,-30.1,M,,*56
$GPRMC,010002.00,A,3715.6614,N,12157.6699,W,0.0,0.0,080710,,*29
$GPZDA,010002.00,08,07,2010,+00,00*42
$GPGGA,010003.00,3715.6614,N,12157.6699,W,,11,0.8,85.7,M,-30.1,M,,*57
$GPRMC,010003.00,A,3715.6614,N,12157.6699,W,0.0,0.0,080710,,*28
$GPZDA,010003.00,08,07,2010,+00,00*43
$GPGGA,010004.00,3715.6614,N,12157.6699,W,,11,0.8,85.7,M,-30.1,M,,*50
$GPRMC,010004.00,A,3715.6614,N,12157.6699,W,0.0,0.0,080710,,*2F
$GPZDA,010004.00,08,07,2010,+00,00*44
$GPGGA,010005.00,3715.6614,N,12157.6699,W,,11,0.8,85.7,M,-30.1,M,,*51
$GPRMC,010005.00,A,3715.6614,N,12157.6699,W,0.0,0.0,080710,,*2E
$GPZDA,010005.00,08,07,2010,+00,00*45
$GPGGA,010006.00,3715.6614,N,12157.6699,W,,11,0.8,85.7,M,-30.1,M,,*52
$GPRMC,010006.00,A,3715.6614,N,12157.6699,W,0.0,0.0,080710,,*2D
$GPZDA,010006.00,08,07,2010,+00,00*46
$GPGGA,010007.00,3715.6614,N,12157.6699,W,,11,0.8,85.7,M,-30.1,M,,*53
$GPRMC,010007.00,A,3715.6614,N,12157.6699,W,0.0,0.0,080710,,*2C
$GPZDA,010007.00,08,07,2010,+00,00*47
$GPGGA,010008.00,3715.6611,N,12157.6699,W,,11,0.8,85.4,M,-30.1,M,,*5A
$GPRMC,010008.00,A,3715.6611,N,12157.6699,W,0.0,0.0,080710,,*26
$GPZDA,010008.00,08,07,2010,+00,00*48
$GPGGA,010009.00,3715.6609,N,12157.6699,W,,11,0.8,85.4,M,-30.1,M,,*52
$GPRMC,010009.00,A,3715.6609,N,12157.6699,W,0.0,0.0,080710,,*2E
$GPZDA,010009.00,08,07,2010,+00,00*49
