$GPRMC,214350,V,4023.8600,N,00339.1630,W,10.8,0.0,140605,2.5,W,S*21
{"class":"TPV","mode":1}
$GPRMB,V,,,,,,,,,,,,A,S*0E
$GPGGA,214350,4023.8600,N,00339.1630,W,8,09,2.0,695.7,M,51.6,M,,*5A
{"class":"TPV","status":8,"mode":3,"lat":40.397666667,"lon":-3.652716667,"altHAE":747.300,"altMSL":695.700,"magvar":-0.5,"geoidSep":51.600,"eph":38.000}
$GPGSA,A,3,01,02,04,05,06,09,14,25,30,,,,3.6,2.0,3.0*3A
{"class":"TPV","status":8,"mode":3,"lat":40.397666667,"lon":-3.652716667,"altHAE":747.300,"altMSL":695.700,"epv":69.000,"magvar":-0.5,"geoidSep":51.600,"eph":38.000,"sep":68.400}
$GPGSV,3,1,09,01,19,319,41,02,17,093,40,04,09,049,37,05,60,046,49*77
$GPGSV,3,2,09,06,39,195,46,09,40,115,46,14,48,286,47,25,09,307,36*71
$GPGSV,3,3,09,30,67,294,50*48
{"class":"SKY","xdop":0.55,"ydop":0.85,"vdop":3.00,"tdop":0.85,"hdop":2.00,"gdop":1.89,"pdop":3.60,"satellites":[{"PRN":1,"el":19.0,"az":319.0,"ss":41.0,"used":true,"gnssid":0,"svid":1},{"PRN":2,"el":17.0,"az":93.0,"ss":40.0,"used":true,"gnssid":0,"svid":2},{"PRN":4,"el":9.0,"az":49.0,"ss":37.0,"used":true,"gnssid":0,"svid":4},{"PRN":5,"el":60.0,"az":46.0,"ss":49.0,"used":true,"gnssid":0,"svid":5},{"PRN":6,"el":39.0,"az":195.0,"ss":46.0,"used":true,"gnssid":0,"svid":6},{"PRN":9,"el":40.0,"az":115.0,"ss":46.0,"used":true,"gnssid":0,"svid":9},{"PRN":14,"el":48.0,"az":286.0,"ss":47.0,"used":true,"gnssid":0,"svid":14},{"PRN":25,"el":9.0,"az":307.0,"ss":36.0,"used":true,"gnssid":0,"svid":25},{"PRN":30,"el":67.0,"az":294.0,"ss":50.0,"used":true,"gnssid":0,"svid":30}]}
$GPGLL,4023.8600,N,00339.1630,W,214350,V,S*57
{"class":"TPV","mode":1}
$GPBOD,,T,,M,,*47
$PGRME,15.0,M,22.5,M,27.0,M*1A
$PGRMZ,2282,f,3*21
{"class":"TPV","mode":3,"lat":40.397666667,"lon":-3.652716667,"altHAE":747.300,"altMSL":695.554,"epx":22.022,"epy":22.022,"epv":46.716,"magvar":-0.5,"geoidSep":51.600,"eph":38.000,"sep":56.059}
$GPRTE,1,1,c,*37
$GPRMC,214352,V,4023.8660,N,00339.1630,W,10.8,0.0,140605,2.5,W,S*25
{"class":"TPV","mode":1}
$GPRMB,V,,,,,,,,,,,,A,S*0E
$GPGGA,214352,4023.8660,N,00339.1630,W,8,09,2.0,695.7,M,51.6,M,,*5E
$GPGSA,A,3,01,02,04,05,06,09,14,25,30,,,,3.6,2.0,3.0*3A
$GPGSV,3,1,09,01,19,319,41,02,17,093,40,04,09,049,37,05,60,046,49*77
$GPGSV,3,2,09,06,39,195,45,09,40,115,46,14,48,286,47,25,09,307,37*73
$GPGSV,3,3,09,30,67,294,49*40
{"class":"SKY","xdop":0.55,"ydop":0.85,"vdop":3.00,"tdop":0.85,"hdop":2.00,"gdop":1.89,"pdop":3.60,"satellites":[{"PRN":1,"el":19.0,"az":319.0,"ss":41.0,"used":true,"gnssid":0,"svid":1},{"PRN":2,"el":17.0,"az":93.0,"ss":40.0,"used":true,"gnssid":0,"svid":2},{"PRN":4,"el":9.0,"az":49.0,"ss":37.0,"used":true,"gnssid":0,"svid":4},{"PRN":5,"el":60.0,"az":46.0,"ss":49.0,"used":true,"gnssid":0,"svid":5},{"PRN":6,"el":39.0,"az":195.0,"ss":45.0,"used":true,"gnssid":0,"svid":6},{"PRN":9,"el":40.0,"az":115.0,"ss":46.0,"used":true,"gnssid":0,"svid":9},{"PRN":14,"el":48.0,"az":286.0,"ss":47.0,"used":true,"gnssid":0,"svid":14},{"PRN":25,"el":9.0,"az":307.0,"ss":37.0,"used":true,"gnssid":0,"svid":25},{"PRN":30,"el":67.0,"az":294.0,"ss":49.0,"used":true,"gnssid":0,"svid":30}]}
$GPGLL,4023.8660,N,00339.1630,W,214352,V,S*53
{"class":"TPV","mode":1}
$GPBOD,,T,,M,,*47
$PGRME,15.0,M,22.5,M,27.0,M*1A
$PGRMZ,2282,f,3*21
$GPRTE,1,1,c,*37
$GPRMC,214354,V,4023.8720,N,00339.1630,W,10.8,0.0,140605,2.5,W,S*26
$GPRMB,V,,,,,,,,,,,,A,S*0E
$GPGGA,214354,4023.8720,N,00339.1630,W,8,09,2.0,695.7,M,51.6,M,,*5D
$GPGSA,A,3,01,02,04,05,06,09,14,25,30,,,,3.6,2.0,3.0*3A
$GPGSV,3,1,09,01,19,319,41,02,17,093,40,04,09,049,37,05,60,046,49*77
$GPGSV,3,2,09,06,39,195,45,09,40,115,46,14,48,286,47,25,09,307,37*73
$GPGSV,3,3,09,30,67,294,50*48
{"class":"SKY","xdop":0.55,"ydop":0.85,"vdop":3.00,"tdop":0.85,"hdop":2.00,"gdop":1.89,"pdop":3.60,"satellites":[{"PRN":1,"el":19.0,"az":319.0,"ss":41.0,"used":true,"gnssid":0,"svid":1},{"PRN":2,"el":17.0,"az":93.0,"ss":40.0,"used":true,"gnssid":0,"svid":2},{"PRN":4,"el":9.0,"az":49.0,"ss":37.0,"used":true,"gnssid":0,"svid":4},{"PRN":5,"el":60.0,"az":46.0,"ss":49.0,"used":true,"gnssid":0,"svid":5},{"PRN":6,"el":39.0,"az":195.0,"ss":45.0,"used":true,"gnssid":0,"svid":6},{"PRN":9,"el":40.0,"az":115.0,"ss":46.0,"used":true,"gnssid":0,"svid":9},{"PRN":14,"el":48.0,"az":286.0,"ss":47.0,"used":true,"gnssid":0,"svid":14},{"PRN":25,"el":9.0,"az":307.0,"ss":37.0,"used":true,"gnssid":0,"svid":25},{"PRN":30,"el":67.0,"az":294.0,"ss":50.0,"used":true,"gnssid":0,"svid":30}]}
$GPGLL,4023.8720,N,00339.1630,W,214354,V,S*50
{"class":"TPV","mode":1}
$GPBOD,,T,,M,,*47
$PGRME,15.0,M,22.5,M,27.0,M*1A
$PGRMZ,2282,f,3*21
$GPRTE,1,1,c,*37
$GPRMC,214356,V,4023.8780,N,00339.1630,W,10.8,0.0,140605,2.5,W,S*2E
$GPRMB,V,,,,,,,,,,,,A,S*0E
$GPGGA,214356,4023.8780,N,00339.1630,W,8,09,2.0,695.7,M,51.6,M,,*55
$GPGSA,A,3,01,02,04,05,06,09,14,25,30,,,,3.6,2.0,3.0*3A
$GPGSV,3,1,09,01,19,319,41,02,17,093,40,04,09,049,37,05,60,046,49*77
$GPGSV,3,2,09,06,39,195,46,09,40,115,46,14,48,286,47,25,09,307,37*70
$GPGSV,3,3,09,30,67,294,50*48
{"class":"SKY","xdop":0.55,"ydop":0.85,"vdop":3.00,"tdop":0.85,"hdop":2.00,"gdop":1.89,"pdop":3.60,"satellites":[{"PRN":1,"el":19.0,"az":319.0,"ss":41.0,"used":true,"gnssid":0,"svid":1},{"PRN":2,"el":17.0,"az":93.0,"ss":40.0,"used":true,"gnssid":0,"svid":2},{"PRN":4,"el":9.0,"az":49.0,"ss":37.0,"used":true,"gnssid":0,"svid":4},{"PRN":5,"el":60.0,"az":46.0,"ss":49.0,"used":true,"gnssid":0,"svid":5},{"PRN":6,"el":39.0,"az":195.0,"ss":46.0,"used":true,"gnssid":0,"svid":6},{"PRN":9,"el":40.0,"az":115.0,"ss":46.0,"used":true,"gnssid":0,"svid":9},{"PRN":14,"el":48.0,"az":286.0,"ss":47.0,"used":true,"gnssid":0,"svid":14},{"PRN":25,"el":9.0,"az":307.0,"ss":37.0,"used":true,"gnssid":0,"svid":25},{"PRN":30,"el":67.0,"az":294.0,"ss":50.0,"used":true,"gnssid":0,"svid":30}]}
$GPGLL,4023.8780,N,00339.1630,W,214356,V,S*58
{"class":"TPV","mode":1}
$GPBOD,,T,,M,,*47
$PGRME,15.0,M,22.5,M,27.0,M*1A
$PGRMZ,2282,f,3*21
$GPRTE,1,1,c,*37
$GPRMC,214358,V,4023.8840,N,00339.1630,W,10.8,0.0,140605,2.5,W,S*23
$GPRMB,V,,,,,,,,,,,,A,S*0E
$GPGGA,214358,4023.8840,N,00339.1630,W,8,09,2.0,695.7,M,51.6,M,,*58
$GPGSA,A,3,01,02,04,05,06,09,14,25,30,,,,3.6,2.0,3.0*3A
$GPGSV,3,1,09,01,19,319,41,02,17,093,40,04,09,049,37,05,60,046,48*76
$GPGSV,3,2,09,06,39,195,46,09,40,115,46,14,48,286,47,25,09,307,37*70
$GPGSV,3,3,09,30,67,294,50*48
{"class":"SKY","xdop":0.55,"ydop":0.85,"vdop":3.00,"tdop":0.85,"hdop":2.00,"gdop":1.89,"pdop":3.60,"satellites":[{"PRN":1,"el":19.0,"az":319.0,"ss":41.0,"used":true,"gnssid":0,"svid":1},{"PRN":2,"el":17.0,"az":93.0,"ss":40.0,"used":true,"gnssid":0,"svid":2},{"PRN":4,"el":9.0,"az":49.0,"ss":37.0,"used":true,"gnssid":0,"svid":4},{"PRN":5,"el":60.0,"az":46.0,"ss":48.0,"used":true,"gnssid":0,"svid":5},{"PRN":6,"el":39.0,"az":195.0,"ss":46.0,"used":true,"gnssid":0,"svid":6},{"PRN":9,"el":40.0,"az":115.0,"ss":46.0,"used":true,"gnssid":0,"svid":9},{"PRN":14,"el":48.0,"az":286.0,"ss":47.0,"used":true,"gnssid":0,"svid":14},{"PRN":25,"el":9.0,"az":307.0,"ss":37.0,"used":true,"gnssid":0,"svid":25},{"PRN":30,"el":67.0,"az":294.0,"ss":50.0,"used":true,"gnssid":0,"svid":30}]}
$GPGLL,4023.8840,N,00339.1630,W,214358,V,S*55
{"class":"TPV","mode":1}
$GPBOD,,T,,M,,*47
$PGRME,15.0,M,22.5,M,27.0,M*1A
$PGRMZ,2282,f,3*21
$GPRTE,1,1,c,*37
$GPRMC,214400,V,4023.8900,N,00339.1630,W,10.8,0.0,140605,2.5,W,S*2C
$GPRMB,V,,,,,,,,,,,,A,S*0E
$GPGGA,214400,4023.8900,N,00339.1630,W,8,09,2.0,695.7,M,51.6,M,,*57
$GPGSA,A,3,01,02,04,05,06,09,14,25,30,,,,3.6,2.0,3.0*3A
$GPGSV,3,1,09,01,19,319,40,02,17,093,40,04,09,049,37,05,60,046,48*77
$GPGSV,3,2,09,06,39,195,46,09,40,115,46,14,48,286,47,25,09,307,37*70
$GPGSV,3,3,09,30,67,294,50*48
{"class":"SKY","xdop":0.55,"ydop":0.85,"vdop":3.00,"tdop":0.85,"hdop":2.00,"gdop":1.89,"pdop":3.60,"satellites":[{"PRN":1,"el":19.0,"az":319.0,"ss":40.0,"used":true,"gnssid":0,"svid":1},{"PRN":2,"el":17.0,"az":93.0,"ss":40.0,"used":true,"gnssid":0,"svid":2},{"PRN":4,"el":9.0,"az":49.0,"ss":37.0,"used":true,"gnssid":0,"svid":4},{"PRN":5,"el":60.0,"az":46.0,"ss":48.0,"used":true,"gnssid":0,"svid":5},{"PRN":6,"el":39.0,"az":195.0,"ss":46.0,"used":true,"gnssid":0,"svid":6},{"PRN":9,"el":40.0,"az":115.0,"ss":46.0,"used":true,"gnssid":0,"svid":9},{"PRN":14,"el":48.0,"az":286.0,"ss":47.0,"used":true,"gnssid":0,"svid":14},{"PRN":25,"el":9.0,"az":307.0,"ss":37.0,"used":true,"gnssid":0,"svid":25},{"PRN":30,"el":67.0,"az":294.0,"ss":50.0,"used":true,"gnssid":0,"svid":30}]}
$GPGLL,4023.8900,N,00339.1630,W,214400,V,S*5A
{"class":"TPV","mode":1}
$GPBOD,,T,,M,,*47
$PGRME,15.0,M,22.5,M,27.0,M*1A
$PGRMZ,2282,f,3*21
$GPRTE,1,1,c,*37
$GPRMC,214402,V,4023.8960,N,00339.1630,W,10.8,0.0,140605,2.5,W,S*28
$GPRMB,V,,,,,,,,,,,,A,S*0E
$GPGGA,214402,4023.8960,N,00339.1630,W,8,09,2.0,695.7,M,51.6,M,,*53
$GPGSA,A,3,01,02,04,05,06,09,14,25,30,,,,3.6,2.0,3.0*3A
$GPGSV,3,1,09,01,19,319,41,02,17,093,40,04,09,049,37,05,60,046,49*77
$GPGSV,3,2,09,06,39,195,46,09,40,115,46,14,48,286,47,25,09,307,37*70
$GPGSV,3,3,09,30,67,294,50*48
{"class":"SKY","xdop":0.55,"ydop":0.85,"vdop":3.00,"tdop":0.85,"hdop":2.00,"gdop":1.89,"pdop":3.60,"satellites":[{"PRN":1,"el":19.0,"az":319.0,"ss":41.0,"used":true,"gnssid":0,"svid":1},{"PRN":2,"el":17.0,"az":93.0,"ss":40.0,"used":true,"gnssid":0,"svid":2},{"PRN":4,"el":9.0,"az":49.0,"ss":37.0,"used":true,"gnssid":0,"svid":4},{"PRN":5,"el":60.0,"az":46.0,"ss":49.0,"used":true,"gnssid":0,"svid":5},{"PRN":6,"el":39.0,"az":195.0,"ss":46.0,"used":true,"gnssid":0,"svid":6},{"PRN":9,"el":40.0,"az":115.0,"ss":46.0,"used":true,"gnssid":0,"svid":9},{"PRN":14,"el":48.0,"az":286.0,"ss":47.0,"used":true,"gnssid":0,"svid":14},{"PRN":25,"el":9.0,"az":307.0,"ss":37.0,"used":true,"gnssid":0,"svid":25},{"PRN":30,"el":67.0,"az":294.0,"ss":50.0,"used":true,"gnssid":0,"svid":30}]}
$GPGLL,4023.8960,N,00339.1630,W,214402,V,S*5E
{"class":"TPV","mode":1}
$GPBOD,,T,,M,,*47
$PGRME,15.0,M,22.5,M,27.0,M*1A
$PGRMZ,2282,f,3*21
$GPRTE,1,1,c,*37
$GPRMC,214404,V,4023.9021,N,00339.1630,W,10.8,0.0,140605,2.5,W,S*23
$GPRMB,V,,,,,,,,,,,,A,S*0E
$GPGGA,214404,4023.9021,N,00339.1630,W,8,09,2.0,695.7,M,51.6,M,,*58
$GPGSA,A,3,01,02,04,05,06,09,14,25,30,,,,3.6,2.0,3.0*3A
$GPGSV,3,1,09,01,19,319,40,02,17,093,40,04,09,049,37,05,60,046,49*76
$GPGSV,3,2,09,06,39,195,46,09,40,115,46,14,48,286,47,25,09,307,37*70
$GPGSV,3,3,09,30,67,294,50*48
{"class":"SKY","xdop":0.55,"ydop":0.85,"vdop":3.00,"tdop":0.85,"hdop":2.00,"gdop":1.89,"pdop":3.60,"satellites":[{"PRN":1,"el":19.0,"az":319.0,"ss":40.0,"used":true,"gnssid":0,"svid":1},{"PRN":2,"el":17.0,"az":93.0,"ss":40.0,"used":true,"gnssid":0,"svid":2},{"PRN":4,"el":9.0,"az":49.0,"ss":37.0,"used":true,"gnssid":0,"svid":4},{"PRN":5,"el":60.0,"az":46.0,"ss":49.0,"used":true,"gnssid":0,"svid":5},{"PRN":6,"el":39.0,"az":195.0,"ss":46.0,"used":true,"gnssid":0,"svid":6},{"PRN":9,"el":40.0,"az":115.0,"ss":46.0,"used":true,"gnssid":0,"svid":9},{"PRN":14,"el":48.0,"az":286.0,"ss":47.0,"used":true,"gnssid":0,"svid":14},{"PRN":25,"el":9.0,"az":307.0,"ss":37.0,"used":true,"gnssid":0,"svid":25},{"PRN":30,"el":67.0,"az":294.0,"ss":50.0,"used":true,"gnssid":0,"svid":30}]}
$GPGLL,4023.9021,N,00339.1630,W,214404,V,S*55
{"class":"TPV","mode":1}
$GPBOD,,T,,M,,*47
$PGRME,15.0,M,22.5,M,27.0,M*1A
$PGRMZ,2282,f,3*21
$GPRTE,1,1,c,*37
$GPRMC,214406,V,4023.9081,N,00339.1630,W,10.8,0.0,140605,2.5,W,S*2B
$GPRMB,V,,,,,,,,,,,,A,S*0E
$GPGGA,214406,4023.9081,N,00339.1630,W,8,09,2.0,695.7,M,51.6,M,,*50
$GPGSA,A,3,01,02,04,05,06,09,14,25,30,,,,3.6,2.0,3.0*3A
$GPGSV,3,1,09,01,19,319,41,02,17,093,40,04,09,049,37,05,60,046,48*76
$GPGSV,3,2,09,06,39,195,46,09,40,115,46,14,48,286,47,25,09,307,37*70
$GPGSV,3,3,09,30,67,295,50*49
{"class":"SKY","xdop":0.55,"ydop":0.85,"vdop":3.00,"tdop":0.85,"hdop":2.00,"gdop":1.89,"pdop":3.60,"satellites":[{"PRN":1,"el":19.0,"az":319.0,"ss":41.0,"used":true,"gnssid":0,"svid":1},{"PRN":2,"el":17.0,"az":93.0,"ss":40.0,"used":true,"gnssid":0,"svid":2},{"PRN":4,"el":9.0,"az":49.0,"ss":37.0,"used":true,"gnssid":0,"svid":4},{"PRN":5,"el":60.0,"az":46.0,"ss":48.0,"used":true,"gnssid":0,"svid":5},{"PRN":6,"el":39.0,"az":195.0,"ss":46.0,"used":true,"gnssid":0,"svid":6},{"PRN":9,"el":40.0,"az":115.0,"ss":46.0,"used":true,"gnssid":0,"svid":9},{"PRN":14,"el":48.0,"az":286.0,"ss":47.0,"used":true,"gnssid":0,"svid":14},{"PRN":25,"el":9.0,"az":307.0,"ss":37.0,"used":true,"gnssid":0,"svid":25},{"PRN":30,"el":67.0,"az":295.0,"ss":50.0,"used":true,"gnssid":0,"svid":30}]}
$GPGLL,4023.9081,N,00339.1630,W,214406,V,S*5D
{"class":"TPV","mode":1}
$GPBOD,,T,,M,,*47
$PGRME,15.0,M,22.5,M,27.0,M*1A
$PGRMZ,2282,f,3*21
$GPRTE,1,1,c,*37
$GPRMC,214408,V,4023.9141,N,00339.1630,W,10.8,0.0,140605,2.5,W,S*28
$GPRMB,V,,,,,,,,,,,,A,S*0E
$GPGGA,214408,4023.9141,N,00339.1630,W,8,09,2.0,695.7,M,51.6,M,,*53
$GPGSA,A,3,01,02,04,05,06,09,14,25,30,,,,3.6,2.0,3.0*3A
$GPGSV,3,1,09,01,19,319,41,02,17,093,40,04,09,049,37,05,60,046,49*77
$GPGSV,3,2,09,06,39,195,46,09,40,115,46,14,48,286,47,25,09,307,37*70
$GPGSV,3,3,09,30,67,295,50*49
{"class":"SKY","xdop":0.55,"ydop":0.85,"vdop":3.00,"tdop":0.85,"hdop":2.00,"gdop":1.89,"pdop":3.60,"satellites":[{"PRN":1,"el":19.0,"az":319.0,"ss":41.0,"used":true,"gnssid":0,"svid":1},{"PRN":2,"el":17.0,"az":93.0,"ss":40.0,"used":true,"gnssid":0,"svid":2},{"PRN":4,"el":9.0,"az":49.0,"ss":37.0,"used":true,"gnssid":0,"svid":4},{"PRN":5,"el":60.0,"az":46.0,"ss":49.0,"used":true,"gnssid":0,"svid":5},{"PRN":6,"el":39.0,"az":195.0,"ss":46.0,"used":true,"gnssid":0,"svid":6},{"PRN":9,"el":40.0,"az":115.0,"ss":46.0,"used":true,"gnssid":0,"svid":9},{"PRN":14,"el":48.0,"az":286.0,"ss":47.0,"used":true,"gnssid":0,"svid":14},{"PRN":25,"el":9.0,"az":307.0,"ss":37.0,"used":true,"gnssid":0,"svid":25},{"PRN":30,"el":67.0,"az":295.0,"ss":50.0,"used":true,"gnssid":0,"svid":30}]}
$GPGLL,4023.9141,N,00339.1630,W,214408,V,S*5E
{"class":"TPV","mode":1}
$GPBOD,,T,,M,,*47
$PGRME,15.0,M,22.5,M,27.0,M*1A
$PGRMZ,2282,f,3*21
$GPRTE,1,1,c,*37
$GPRMC,214410,V,4023.9201,N,00339.1630,W,10.8,0.0,140605,2.5,W,S*26
$GPRMB,V,,,,,,,,,,,,A,S*0E
$GPGGA,214410,4023.9201,N,00339.1630,W,8,09,2.0,695.7,M,51.6,M,,*5D
$GPGSA,A,3,01,02,04,05,06,09,14,25,30,,,,3.6,2.0,3.0*3A
$GPGSV,3,1,09,01,19,319,41,02,17,093,40,04,09,049,37,05,60,046,49*77
$GPGSV,3,2,09,06,39,195,46,09,40,115,46,14,48,286,47,25,09,307,37*70
$GPGSV,3,3,09,30,67,295,49*41
{"class":"SKY","xdop":0.55,"ydop":0.85,"vdop":3.00,"tdop":0.85,"hdop":2.00,"gdop":1.89,"pdop":3.60,"satellites":[{"PRN":1,"el":19.0,"az":319.0,"ss":41.0,"used":true,"gnssid":0,"svid":1},{"PRN":2,"el":17.0,"az":93.0,"ss":40.0,"used":true,"gnssid":0,"svid":2},{"PRN":4,"el":9.0,"az":49.0,"ss":37.0,"used":true,"gnssid":0,"svid":4},{"PRN":5,"el":60.0,"az":46.0,"ss":49.0,"used":true,"gnssid":0,"svid":5},{"PRN":6,"el":39.0,"az":195.0,"ss":46.0,"used":true,"gnssid":0,"svid":6},{"PRN":9,"el":40.0,"az":115.0,"ss":46.0,"used":true,"gnssid":0,"svid":9},{"PRN":14,"el":48.0,"az":286.0,"ss":47.0,"used":true,"gnssid":0,"svid":14},{"PRN":25,"el":9.0,"az":307.0,"ss":37.0,"used":true,"gnssid":0,"svid":25},{"PRN":30,"el":67.0,"az":295.0,"ss":49.0,"used":true,"gnssid":0,"svid":30}]}
$GPGLL,4023.9201,N,00339.1630,W,214410,V,S*50
{"class":"TPV","mode":1}
$GPBOD,,T,,M,,*47
$PGRME,15.0,M,22.5,M,27.0,M*1A
$PGRMZ,2282,f,3*21
$GPRTE,1,1,c,*37
$GPRMC,214412,V,4023.9261,N,00339.1630,W,10.8,0.0,140605,2.5,W,S*22
$GPRMB,V,,,,,,,,,,,,A,S*0E
$GPGGA,214412,4023.9261,N,00339.1630,W,8,09,2.0,695.7,M,51.6,M,,*59
$GPGSA,A,3,01,02,04,05,06,09,14,25,30,,,,3.6,2.0,3.0*3A
$GPGSV,3,1,09,01,19,319,41,02,17,093,40,04,09,049,37,05,60,046,48*76
$GPGSV,3,2,09,06,39,195,46,09,40,115,46,14,48,286,47,25,09,307,36*71
$GPGSV,3,3,09,30,67,295,50*49
{"class":"SKY","xdop":0.55,"ydop":0.85,"vdop":3.00,"tdop":0.85,"hdop":2.00,"gdop":1.89,"pdop":3.60,"satellites":[{"PRN":1,"el":19.0,"az":319.0,"ss":41.0,"used":true,"gnssid":0,"svid":1},{"PRN":2,"el":17.0,"az":93.0,"ss":40.0,"used":true,"gnssid":0,"svid":2},{"PRN":4,"el":9.0,"az":49.0,"ss":37.0,"used":true,"gnssid":0,"svid":4},{"PRN":5,"el":60.0,"az":46.0,"ss":48.0,"used":true,"gnssid":0,"svid":5},{"PRN":6,"el":39.0,"az":195.0,"ss":46.0,"used":true,"gnssid":0,"svid":6},{"PRN":9,"el":40.0,"az":115.0,"ss":46.0,"used":true,"gnssid":0,"svid":9},{"PRN":14,"el":48.0,"az":286.0,"ss":47.0,"used":true,"gnssid":0,"svid":14},{"PRN":25,"el":9.0,"az":307.0,"ss":36.0,"used":true,"gnssid":0,"svid":25},{"PRN":30,"el":67.0,"az":295.0,"ss":50.0,"used":true,"gnssid":0,"svid":30}]}
$GPGLL,4023.9261,N,00339.1630,W,214412,V,S*54
{"class":"TPV","mode":1}
$GPBOD,,T,,M,,*47
$PGRME,15.0,M,22.5,M,27.0,M*1A
$PGRMZ,2282,f,3*21
$GPRTE,1,1,c,*37
$GPRMC,214414,V,4023.9321,N,00339.1630,W,10.8,0.0,140605,2.5,W,S*21
$GPRMB,V,,,,,,,,,,,,A,S*0E
$GPGGA,214414,4023.9321,N,00339.1630,W,8,09,2.0,695.7,M,51.6,M,,*5A
$GPGSA,A,3,01,02,04,05,06,09,14,25,30,,,,3.6,2.0,3.0*3A
$GPGSV,3,1,09,01,19,319,41,02,17,093,40,04,09,049,37,05,60,046,49*77
$GPGSV,3,2,09,06,39,195,46,09,40,115,46,14,48,286,47,25,09,307,36*71
$GPGSV,3,3,09,30,67,295,50*49
{"class":"SKY","xdop":0.55,"ydop":0.85,"vdop":3.00,"tdop":0.85,"hdop":2.00,"gdop":1.89,"pdop":3.60,"satellites":[{"PRN":1,"el":19.0,"az":319.0,"ss":41.0,"used":true,"gnssid":0,"svid":1},{"PRN":2,"el":17.0,"az":93.0,"ss":40.0,"used":true,"gnssid":0,"svid":2},{"PRN":4,"el":9.0,"az":49.0,"ss":37.0,"used":true,"gnssid":0,"svid":4},{"PRN":5,"el":60.0,"az":46.0,"ss":49.0,"used":true,"gnssid":0,"svid":5},{"PRN":6,"el":39.0,"az":195.0,"ss":46.0,"used":true,"gnssid":0,"svid":6},{"PRN":9,"el":40.0,"az":115.0,"ss":46.0,"used":true,"gnssid":0,"svid":9},{"PRN":14,"el":48.0,"az":286.0,"ss":47.0,"used":true,"gnssid":0,"svid":14},{"PRN":25,"el":9.0,"az":307.0,"ss":36.0,"used":true,"gnssid":0,"svid":25},{"PRN":30,"el":67.0,"az":295.0,"ss":50.0,"used":true,"gnssid":0,"svid":30}]}
$GPGLL,4023.9321,N,00339.1630,W,214414,V,S*57
{"class":"TPV","mode":1}
$GPBOD,,T,,M,,*47
$PGRME,15.0,M,22.5,M,27.0,M*1A
$PGRMZ,2282,f,3*21
$GPRTE,1,1,c,*37
$GPRMC,214416,V,4023.9381,N,00339.1630,W,10.8,0.0,140605,2.5,W,S*29
$GPRMB,V,,,,,,,,,,,,A,S*0E
$GPGGA,214416,4023.9381,N,00339.1630,W,8,09,2.0,695.7,M,51.6,M,,*52
$GPGSA,A,3,01,02,04,05,06,09,14,25,30,,,,3.6,2.0,3.0*3A
$GPGSV,3,1,09,01,20,319,41,02,17,093,40,04,09,049,36,05,60,046,48*7D
$GPGSV,3,2,09,06,39,195,46,09,40,115,46,14,48,286,47,25,09,307,37*70
$GPGSV,3,3,09,30,67,295,50*49
{"class":"SKY","xdop":0.56,"ydop":0.85,"vdop":3.00,"tdop":0.86,"hdop":2.00,"gdop":1.89,"pdop":3.60,"satellites":[{"PRN":1,"el":20.0,"az":319.0,"ss":41.0,"used":true,"gnssid":0,"svid":1},{"PRN":2,"el":17.0,"az":93.0,"ss":40.0,"used":true,"gnssid":0,"svid":2},{"PRN":4,"el":9.0,"az":49.0,"ss":36.0,"used":true,"gnssid":0,"svid":4},{"PRN":5,"el":60.0,"az":46.0,"ss":48.0,"used":true,"gnssid":0,"svid":5},{"PRN":6,"el":39.0,"az":195.0,"ss":46.0,"used":true,"gnssid":0,"svid":6},{"PRN":9,"el":40.0,"az":115.0,"ss":46.0,"used":true,"gnssid":0,"svid":9},{"PRN":14,"el":48.0,"az":286.0,"ss":47.0,"used":true,"gnssid":0,"svid":14},{"PRN":25,"el":9.0,"az":307.0,"ss":37.0,"used":true,"gnssid":0,"svid":25},{"PRN":30,"el":67.0,"az":295.0,"ss":50.0,"used":true,"gnssid":0,"svid":30}]}
$GPGLL,4023.9381,N,00339.1630,W,214416,V,S*5F
{"class":"TPV","mode":1}
$GPBOD,,T,,M,,*47
$PGRME,15.0,M,22.5,M,27.0,M*1A
$PGRMZ,2282,f,3*21
$GPRTE,1,1,c,*37
$GPRMC,214418,V,4023.9441,N,00339.1630,W,10.8,0.0,140605,2.5,W,S*2C
$GPRMB,V,,,,,,,,,,,,A,S*0E
$GPGGA,214418,4023.9441,N,00339.1630,W,8,09,2.0,695.7,M,51.6,M,,*57
$GPGSA,A,3,01,02,04,05,06,09,14,25,30,,,,3.6,2.0,3.0*3A
$GPGSV,3,1,09,01,20,319,41,02,17,093,40,04,09,049,36,05,60,046,49*7C
$GPGSV,3,2,09,06,39,195,46,09,40,115,46,14,48,286,47,25,09,307,37*70
$GPGSV,3,3,09,30,67,295,50*49
{"class":"SKY","xdop":0.56,"ydop":0.85,"vdop":3.00,"tdop":0.86,"hdop":2.00,"gdop":1.89,"pdop":3.60,"satellites":[{"PRN":1,"el":20.0,"az":319.0,"ss":41.0,"used":true,"gnssid":0,"svid":1},{"PRN":2,"el":17.0,"az":93.0,"ss":40.0,"used":true,"gnssid":0,"svid":2},{"PRN":4,"el":9.0,"az":49.0,"ss":36.0,"used":true,"gnssid":0,"svid":4},{"PRN":5,"el":60.0,"az":46.0,"ss":49.0,"used":true,"gnssid":0,"svid":5},{"PRN":6,"el":39.0,"az":195.0,"ss":46.0,"used":true,"gnssid":0,"svid":6},{"PRN":9,"el":40.0,"az":115.0,"ss":46.0,"used":true,"gnssid":0,"svid":9},{"PRN":14,"el":48.0,"az":286.0,"ss":47.0,"used":true,"gnssid":0,"svid":14},{"PRN":25,"el":9.0,"az":307.0,"ss":37.0,"used":true,"gnssid":0,"svid":25},{"PRN":30,"el":67.0,"az":295.0,"ss":50.0,"used":true,"gnssid":0,"svid":30}]}
$GPGLL,4023.9441,N,00339.1630,W,214418,V,S*5A
{"class":"TPV","mode":1}
$GPBOD,,T,,M,,*47
$PGRME,15.0,M,22.5,M,27.0,M*1A
$PGRMZ,2282,f,3*21
$GPRTE,1,1,c,*37
$GPRMC,214420,V,4023.9501,N,00339.1630,W,10.8,0.0,140605,2.5,W,S*22
$GPRMB,V,,,,,,,,,,,,A,S*0E
$GPGGA,214420,4023.9501,N,00339.1630,W,8,09,2.0,695.7,M,51.6,M,,*59
$GPGSA,A,3,01,02,04,05,06,09,14,25,30,,,,3.6,2.0,3.0*3A
$GPGSV,3,1,09,01,20,319,41,02,18,092,40,04,09,049,35,05,60,046,48*70
$GPGSV,3,2,09,06,39,195,46,09,40,115,46,14,48,286,47,25,09,307,37*70
$GPGSV,3,3,09,30,67,295,50*49
{"class":"SKY","xdop":0.55,"ydop":0.85,"vdop":3.00,"tdop":0.87,"hdop":2.00,"gdop":1.90,"pdop":3.60,"satellites":[{"PRN":1,"el":20.0,"az":319.0,"ss":41.0,"used":true,"gnssid":0,"svid":1},{"PRN":2,"el":18.0,"az":92.0,"ss":40.0,"used":true,"gnssid":0,"svid":2},{"PRN":4,"el":9.0,"az":49.0,"ss":35.0,"used":true,"gnssid":0,"svid":4},{"PRN":5,"el":60.0,"az":46.0,"ss":48.0,"used":true,"gnssid":0,"svid":5},{"PRN":6,"el":39.0,"az":195.0,"ss":46.0,"used":true,"gnssid":0,"svid":6},{"PRN":9,"el":40.0,"az":115.0,"ss":46.0,"used":true,"gnssid":0,"svid":9},{"PRN":14,"el":48.0,"az":286.0,"ss":47.0,"used":true,"gnssid":0,"svid":14},{"PRN":25,"el":9.0,"az":307.0,"ss":37.0,"used":true,"gnssid":0,"svid":25},{"PRN":30,"el":67.0,"az":295.0,"ss":50.0,"used":true,"gnssid":0,"svid":30}]}
$GPGLL,4023.9501,N,00339.1630,W,214420,V,S*54
{"class":"TPV","mode":1}
$GPBOD,,T,,M,,*47
$PGRME,15.0,M,22.5,M,27.0,M*1A
$PGRMZ,2282,f,3*21
$GPRTE,1,1,c,*37
$GPRMC,214422,V,4023.9561,N,00339.1630,W,10.8,0.0,140605,2.5,W,S*26
$GPRMB,V,,,,,,,,,,,,A,S*0E
$GPGGA,214422,4023.9561,N,00339.1630,W,8,09,2.0,695.7,M,51.6,M,,*5D
$GPGSA,A,3,01,02,04,05,06,09,14,25,30,,,,3.6,2.0,3.0*3A
$GPGSV,3,1,09,01,20,319,41,02,18,092,40,04,09,049,36,05,60,046,49*72
$GPGSV,3,2,09,06,39,195,46,09,40,115,46,14,48,286,47,25,09,307,37*70
$GPGSV,3,3,09,30,67,295,50*49
{"class":"SKY","xdop":0.55,"ydop":0.85,"vdop":3.00,"tdop":0.87,"hdop":2.00,"gdop":1.90,"pdop":3.60,"satellites":[{"PRN":1,"el":20.0,"az":319.0,"ss":41.0,"used":true,"gnssid":0,"svid":1},{"PRN":2,"el":18.0,"az":92.0,"ss":40.0,"used":true,"gnssid":0,"svid":2},{"PRN":4,"el":9.0,"az":49.0,"ss":36.0,"used":true,"gnssid":0,"svid":4},{"PRN":5,"el":60.0,"az":46.0,"ss":49.0,"used":true,"gnssid":0,"svid":5},{"PRN":6,"el":39.0,"az":195.0,"ss":46.0,"used":true,"gnssid":0,"svid":6},{"PRN":9,"el":40.0,"az":115.0,"ss":46.0,"used":true,"gnssid":0,"svid":9},{"PRN":14,"el":48.0,"az":286.0,"ss":47.0,"used":true,"gnssid":0,"svid":14},{"PRN":25,"el":9.0,"az":307.0,"ss":37.0,"used":true,"gnssid":0,"svid":25},{"PRN":30,"el":67.0,"az":295.0,"ss":50.0,"used":true,"gnssid":0,"svid":30}]}
$GPGLL,4023.9561,N,00339.1630,W,214422,V,S*50
{"class":"TPV","mode":1}
$GPBOD,,T,,M,,*47
$PGRME,15.0,M,22.5,M,27.0,M*1A
$PGRMZ,2282,f,3*21
$GPRTE,1,1,c,*37
$GPRMC,214424,V,4023.9621,N,00339.1630,W,10.8,0.0,140605,2.5,W,S*27
$GPRMB,V,,,,,,,,,,,,A,S*0E
$GPGGA,214424,4023.9621,N,00339.1630,W,8,09,2.0,695.7,M,51.6,M,,*5C
$GPGSA,A,3,01,02,04,05,06,09,14,25,30,,,,3.6,2.0,3.0*3A
$GPGSV,3,1,09,01,20,319,41,02,18,092,40,04,09,049,36,05,60,046,48*73
$GPGSV,3,2,09,06,39,195,46,09,40,115,46,14,48,286,47,25,09,307,36*71
$GPGSV,3,3,09,30,67,295,50*49
{"class":"SKY","xdop":0.55,"ydop":0.85,"vdop":3.00,"tdop":0.87,"hdop":2.00,"gdop":1.90,"pdop":3.60,"satellites":[{"PRN":1,"el":20.0,"az":319.0,"ss":41.0,"used":true,"gnssid":0,"svid":1},{"PRN":2,"el":18.0,"az":92.0,"ss":40.0,"used":true,"gnssid":0,"svid":2},{"PRN":4,"el":9.0,"az":49.0,"ss":36.0,"used":true,"gnssid":0,"svid":4},{"PRN":5,"el":60.0,"az":46.0,"ss":48.0,"used":true,"gnssid":0,"svid":5},{"PRN":6,"el":39.0,"az":195.0,"ss":46.0,"used":true,"gnssid":0,"svid":6},{"PRN":9,"el":40.0,"az":115.0,"ss":46.0,"used":true,"gnssid":0,"svid":9},{"PRN":14,"el":48.0,"az":286.0,"ss":47.0,"used":true,"gnssid":0,"svid":14},{"PRN":25,"el":9.0,"az":307.0,"ss":36.0,"used":true,"gnssid":0,"svid":25},{"PRN":30,"el":67.0,"az":295.0,"ss":50.0,"used":true,"gnssid":0,"svid":30}]}
$GPGLL,4023.9621,N,00339.1630,W,214424,V,S*51
{"class":"TPV","mode":1}
