$GPGSV,3,1,11,03,50,307,17,14,40,075,38,16,47,161,30,22,66,271,17*74
$GPGSV,3,2,11,26,63,112,19,31,41,037,36,32,17,097,31,01,18,240,-1*6C
$GPGSV,3,3,11,04,05,194,-1,23,28,310,-1,25,03,035,-1*53
{"class":"SKY","xdop":1.07,"ydop":1.02,"vdop":2.80,"tdop":2.21,"hdop":1.48,"gdop":3.86,"pdop":3.17,"satellites":[{"PRN":3,"el":50.0,"az":307.0,"ss":17.0,"used":true,"gnssid":0,"svid":3},{"PRN":14,"el":40.0,"az":75.0,"ss":38.0,"used":true,"gnssid":0,"svid":14},{"PRN":16,"el":47.0,"az":161.0,"ss":30.0,"used":true,"gnssid":0,"svid":16},{"PRN":22,"el":66.0,"az":271.0,"ss":17.0,"used":true,"gnssid":0,"svid":22},{"PRN":26,"el":63.0,"az":112.0,"ss":19.0,"used":true,"gnssid":0,"svid":26},{"PRN":31,"el":41.0,"az":37.0,"ss":36.0,"used":true,"gnssid":0,"svid":31},{"PRN":32,"el":17.0,"az":97.0,"ss":31.0,"used":true,"gnssid":0,"svid":32},{"PRN":1,"el":18.0,"az":240.0,"ss":-1.0,"used":false,"gnssid":0,"svid":1},{"PRN":4,"el":5.0,"az":194.0,"ss":-1.0,"used":false,"gnssid":0,"svid":4},{"PRN":23,"el":28.0,"az":310.0,"ss":-1.0,"used":false,"gnssid":0,"svid":23},{"PRN":25,"el":3.0,"az":35.0,"ss":-1.0,"used":false,"gnssid":0,"svid":25}]}
$GPZDA,204657.00,15,12,2019,00,00*69
$GPGGA,204657.00,2926.7342,N,09836.3986,W,1,07,1.48,246.41,M,-26.443,M,,*54
$GPRMC,204657.00,A,2926.7342,N,09836.3986,W,0.4473,240.570,151219,4.1,E*7F
$GPGSA,A,3,3,14,16,22,26,31,32,,,,,,3.2,1.5,2.8*0B
$GPGBS,204657.00,16.017,15.360,34.309,,,,*7E
{"class":"TPV","mode":3,"time":"2019-12-15T20:46:57.000Z","leapseconds":18,"ept":0.005,"lat":29.445570713,"lon":-98.606643073,"altHAE":219.968,"altMSL":246.411,"alt":246.411,"epx":16.017,"epy":15.360,"epv":34.309,"track":240.5700,"magtrack":244.6253,"magvar":4.1,"speed":0.230,"climb":-0.052,"velN":-0.113,"velE":-0.200,"velD":0.052,"geoidSep":-26.443,"eph":17.604,"sep":38.562}
$GPGSV,3,1,11,03,51,307,17,14,40,075,38,16,47,161,31,22,66,271,17*74
$GPGSV,3,2,11,26,63,112,20,31,41,037,36,32,17,097,31,01,18,240,-1*66
$GPGSV,3,3,11,04,05,194,-1,23,28,310,-1,25,03,035,-1*53
{"class":"SKY","xdop":1.07,"ydop":1.02,"vdop":2.80,"tdop":2.21,"hdop":1.48,"gdop":3.86,"pdop":3.17,"satellites":[{"PRN":3,"el":51.0,"az":307.0,"ss":17.0,"used":true,"gnssid":0,"svid":3},{"PRN":14,"el":40.0,"az":75.0,"ss":38.0,"used":true,"gnssid":0,"svid":14},{"PRN":16,"el":47.0,"az":161.0,"ss":31.0,"used":true,"gnssid":0,"svid":16},{"PRN":22,"el":66.0,"az":271.0,"ss":17.0,"used":true,"gnssid":0,"svid":22},{"PRN":26,"el":63.0,"az":112.0,"ss":20.0,"used":true,"gnssid":0,"svid":26},{"PRN":31,"el":41.0,"az":37.0,"ss":36.0,"used":true,"gnssid":0,"svid":31},{"PRN":32,"el":17.0,"az":97.0,"ss":31.0,"used":true,"gnssid":0,"svid":32},{"PRN":1,"el":18.0,"az":240.0,"ss":-1.0,"used":false,"gnssid":0,"svid":1},{"PRN":4,"el":5.0,"az":194.0,"ss":-1.0,"used":false,"gnssid":0,"svid":4},{"PRN":23,"el":28.0,"az":310.0,"ss":-1.0,"used":false,"gnssid":0,"svid":23},{"PRN":25,"el":3.0,"az":35.0,"ss":-1.0,"used":false,"gnssid":0,"svid":25}]}
$GPZDA,204658.00,15,12,2019,00,00*66
$GPGGA,204658.00,2926.7342,N,09836.3987,W,1,07,1.48,246.33,M,-26.443,M,,*5F
$GPRMC,204658.00,A,2926.7342,N,09836.3987,W,0.4308,240.570,151219,4.1,E*7A
$GPGSA,A,3,3,14,16,22,26,31,32,,,,,,3.2,1.5,2.8*0B
$GPGBS,204658.00,16.017,15.360,34.179,,,,*74
{"class":"TPV","mode":3,"time":"2019-12-15T20:46:58.000Z","leapseconds":18,"ept":0.005,"lat":29.445570329,"lon":-98.606645011,"altHAE":219.883,"altMSL":246.327,"alt":246.327,"epx":16.017,"epy":15.360,"epv":34.179,"track":240.5700,"magtrack":244.6253,"magvar":4.1,"speed":0.222,"climb":-0.065,"eps":32.03,"epc":68.49,"velN":-0.109,"velE":-0.193,"velD":0.065,"geoidSep":-26.443,"eph":17.643,"sep":38.464}
$GPGSV,3,1,11,03,51,307,17,14,40,075,38,16,47,161,31,22,66,271,17*74
$GPGSV,3,2,11,26,63,112,21,31,41,037,36,32,17,097,31,01,18,240,-1*67
$GPGSV,3,3,11,04,05,194,-1,23,28,310,-1,25,03,035,-1*53
{"class":"SKY","xdop":1.07,"ydop":1.02,"vdop":2.80,"tdop":2.21,"hdop":1.48,"gdop":3.86,"pdop":3.17,"satellites":[{"PRN":3,"el":51.0,"az":307.0,"ss":17.0,"used":true,"gnssid":0,"svid":3},{"PRN":14,"el":40.0,"az":75.0,"ss":38.0,"used":true,"gnssid":0,"svid":14},{"PRN":16,"el":47.0,"az":161.0,"ss":31.0,"used":true,"gnssid":0,"svid":16},{"PRN":22,"el":66.0,"az":271.0,"ss":17.0,"used":true,"gnssid":0,"svid":22},{"PRN":26,"el":63.0,"az":112.0,"ss":21.0,"used":true,"gnssid":0,"svid":26},{"PRN":31,"el":41.0,"az":37.0,"ss":36.0,"used":true,"gnssid":0,"svid":31},{"PRN":32,"el":17.0,"az":97.0,"ss":31.0,"used":true,"gnssid":0,"svid":32},{"PRN":1,"el":18.0,"az":240.0,"ss":-1.0,"used":false,"gnssid":0,"svid":1},{"PRN":4,"el":5.0,"az":194.0,"ss":-1.0,"used":false,"gnssid":0,"svid":4},{"PRN":23,"el":28.0,"az":310.0,"ss":-1.0,"used":false,"gnssid":0,"svid":23},{"PRN":25,"el":3.0,"az":35.0,"ss":-1.0,"used":false,"gnssid":0,"svid":25}]}
$GPZDA,204659.00,15,12,2019,00,00*67
$GPGGA,204659.00,2926.7349,N,09836.3976,W,1,07,1.48,246.23,M,-26.443,M,,*5A
$GPRMC,204659.00,A,2926.7349,N,09836.3976,W,0.0486,240.570,151219,4.1,E*7B
$GPGSA,A,3,3,14,16,22,26,31,32,,,,,,3.2,1.5,2.8*0B
$GPGBS,204659.00,16.017,15.360,34.025,,,,*7D
{"class":"TPV","mode":3,"time":"2019-12-15T20:46:59.000Z","leapseconds":18,"ept":0.005,"lat":29.445581261,"lon":-98.606627120,"altHAE":219.783,"altMSL":246.227,"alt":246.227,"epx":16.017,"epy":15.360,"epv":34.025,"track":240.5700,"magtrack":244.6253,"magvar":4.1,"speed":0.025,"climb":-0.088,"eps":32.03,"epc":68.20,"velN":-0.012,"velE":-0.022,"velD":0.088,"geoidSep":-26.443,"eph":17.661,"sep":38.335}
$GPGSV,3,1,11,03,51,307,17,14,40,075,39,16,47,161,32,22,66,271,18*79
$GPGSV,3,2,11,26,63,112,21,31,41,037,36,32,17,097,32,01,18,240,-1*64
$GPGSV,3,3,11,04,05,194,-1,23,28,310,-1,25,03,035,-1*53
{"class":"SKY","xdop":1.07,"ydop":1.02,"vdop":2.80,"tdop":2.21,"hdop":1.48,"gdop":3.86,"pdop":3.17,"satellites":[{"PRN":3,"el":51.0,"az":307.0,"ss":17.0,"used":true,"gnssid":0,"svid":3},{"PRN":14,"el":40.0,"az":75.0,"ss":39.0,"used":true,"gnssid":0,"svid":14},{"PRN":16,"el":47.0,"az":161.0,"ss":32.0,"used":true,"gnssid":0,"svid":16},{"PRN":22,"el":66.0,"az":271.0,"ss":18.0,"used":true,"gnssid":0,"svid":22},{"PRN":26,"el":63.0,"az":112.0,"ss":21.0,"used":true,"gnssid":0,"svid":26},{"PRN":31,"el":41.0,"az":37.0,"ss":36.0,"used":true,"gnssid":0,"svid":31},{"PRN":32,"el":17.0,"az":97.0,"ss":32.0,"used":true,"gnssid":0,"svid":32},{"PRN":1,"el":18.0,"az":240.0,"ss":-1.0,"used":false,"gnssid":0,"svid":1},{"PRN":4,"el":5.0,"az":194.0,"ss":-1.0,"used":false,"gnssid":0,"svid":4},{"PRN":23,"el":28.0,"az":310.0,"ss":-1.0,"used":false,"gnssid":0,"svid":23},{"PRN":25,"el":3.0,"az":35.0,"ss":-1.0,"used":false,"gnssid":0,"svid":25}]}
$GPZDA,204700.00,15,12,2019,00,00*6A
$GPGGA,204700.00,2926.7355,N,09836.3968,W,1,07,1.48,245.90,M,-26.443,M,,*5E
$GPRMC,204700.00,A,2926.7355,N,09836.3968,W,0.0702,240.570,151219,4.1,E*7B
$GPGSA,A,3,3,14,16,22,26,31,32,,,,,,3.2,1.5,2.8*0B
$GPGBS,204700.00,16.017,15.360,33.812,,,,*7B
{"class":"TPV","mode":3,"time":"2019-12-15T20:47:00.000Z","leapseconds":18,"ept":0.005,"lat":29.445592293,"lon":-98.606612955,"altHAE":219.456,"altMSL":245.899,"alt":245.899,"epx":16.017,"epy":15.360,"epv":33.812,"track":240.5700,"magtrack":244.6253,"magvar":4.1,"speed":0.036,"climb":-0.077,"eps":32.03,"epc":67.84,"velN":-0.018,"velE":-0.031,"velD":0.077,"geoidSep":-26.443,"eph":17.664,"sep":38.148}
$GPGSV,3,1,11,03,51,307,17,14,40,075,39,16,47,161,32,22,66,271,18*79
$GPGSV,3,2,11,26,63,112,21,31,41,037,36,32,17,097,32,01,18,240,-1*64
$GPGSV,3,3,11,04,05,194,-1,23,28,310,-1,25,03,035,-1*53
{"class":"SKY","xdop":1.07,"ydop":1.02,"vdop":2.80,"tdop":2.21,"hdop":1.48,"gdop":3.86,"pdop":3.17,"satellites":[{"PRN":3,"el":51.0,"az":307.0,"ss":17.0,"used":true,"gnssid":0,"svid":3},{"PRN":14,"el":40.0,"az":75.0,"ss":39.0,"used":true,"gnssid":0,"svid":14},{"PRN":16,"el":47.0,"az":161.0,"ss":32.0,"used":true,"gnssid":0,"svid":16},{"PRN":22,"el":66.0,"az":271.0,"ss":18.0,"used":true,"gnssid":0,"svid":22},{"PRN":26,"el":63.0,"az":112.0,"ss":21.0,"used":true,"gnssid":0,"svid":26},{"PRN":31,"el":41.0,"az":37.0,"ss":36.0,"used":true,"gnssid":0,"svid":31},{"PRN":32,"el":17.0,"az":97.0,"ss":32.0,"used":true,"gnssid":0,"svid":32},{"PRN":1,"el":18.0,"az":240.0,"ss":-1.0,"used":false,"gnssid":0,"svid":1},{"PRN":4,"el":5.0,"az":194.0,"ss":-1.0,"used":false,"gnssid":0,"svid":4},{"PRN":23,"el":28.0,"az":310.0,"ss":-1.0,"used":false,"gnssid":0,"svid":23},{"PRN":25,"el":3.0,"az":35.0,"ss":-1.0,"used":false,"gnssid":0,"svid":25}]}
$GPZDA,204701.00,15,12,2019,00,00*6B
$GPGGA,204701.00,2926.7362,N,09836.3959,W,1,07,1.48,245.45,M,-26.443,M,,*51
$GPRMC,204701.00,A,2926.7362,N,09836.3959,W,0.0978,240.570,151219,4.1,E*7F
$GPGSA,A,3,3,14,16,22,26,31,32,,,,,,3.2,1.5,2.8*0B
$GPGBS,204701.00,16.017,15.360,33.685,,,,*7A
{"class":"TPV","mode":3,"time":"2019-12-15T20:47:01.000Z","leapseconds":18,"ept":0.005,"lat":29.445602534,"lon":-98.606598777,"altHAE":219.006,"altMSL":245.450,"alt":245.450,"epx":16.017,"epy":15.360,"epv":33.685,"track":240.5700,"magtrack":244.6253,"magvar":4.1,"speed":0.050,"climb":-0.070,"eps":32.03,"epc":67.50,"velN":-0.025,"velE":-0.044,"velD":0.070,"geoidSep":-26.443,"eph":16.830,"sep":37.655}
$GPGSV,3,1,11,03,51,307,17,14,40,075,39,16,47,161,32,22,66,271,18*79
$GPGSV,3,2,11,26,63,112,21,31,41,037,36,32,17,097,32,01,18,240,-1*64
$GPGSV,3,3,11,04,05,194,-1,23,28,310,-1,25,03,035,-1*53
{"class":"SKY","xdop":1.07,"ydop":1.02,"vdop":2.80,"tdop":2.21,"hdop":1.48,"gdop":3.86,"pdop":3.17,"satellites":[{"PRN":3,"el":51.0,"az":307.0,"ss":17.0,"used":true,"gnssid":0,"svid":3},{"PRN":14,"el":40.0,"az":75.0,"ss":39.0,"used":true,"gnssid":0,"svid":14},{"PRN":16,"el":47.0,"az":161.0,"ss":32.0,"used":true,"gnssid":0,"svid":16},{"PRN":22,"el":66.0,"az":271.0,"ss":18.0,"used":true,"gnssid":0,"svid":22},{"PRN":26,"el":63.0,"az":112.0,"ss":21.0,"used":true,"gnssid":0,"svid":26},{"PRN":31,"el":41.0,"az":37.0,"ss":36.0,"used":true,"gnssid":0,"svid":31},{"PRN":32,"el":17.0,"az":97.0,"ss":32.0,"used":true,"gnssid":0,"svid":32},{"PRN":1,"el":18.0,"az":240.0,"ss":-1.0,"used":false,"gnssid":0,"svid":1},{"PRN":4,"el":5.0,"az":194.0,"ss":-1.0,"used":false,"gnssid":0,"svid":4},{"PRN":23,"el":28.0,"az":310.0,"ss":-1.0,"used":false,"gnssid":0,"svid":23},{"PRN":25,"el":3.0,"az":35.0,"ss":-1.0,"used":false,"gnssid":0,"svid":25}]}
$GPZDA,204702.00,15,12,2019,00,00*68
$GPGGA,204702.00,2926.7365,N,09836.3955,W,1,07,1.48,245.73,M,-26.443,M,,*5C
$GPRMC,204702.00,A,2926.7365,N,09836.3955,W,0.0768,240.570,151219,4.1,E*78
$GPGSA,A,3,3,14,16,22,26,31,32,,,,,,3.2,1.5,2.8*0B
$GPGBS,204702.00,16.017,15.360,33.480,,,,*7E
{"class":"TPV","mode":3,"time":"2019-12-15T20:47:02.000Z","leapseconds":18,"ept":0.005,"lat":29.445607865,"lon":-98.606590974,"altHAE":219.282,"altMSL":245.725,"alt":245.725,"epx":16.017,"epy":15.360,"epv":33.480,"track":240.5700,"magtrack":244.6253,"magvar":4.1,"speed":0.039,"climb":-0.058,"eps":32.03,"epc":67.17,"velN":-0.019,"velE":-0.034,"velD":0.058,"geoidSep":-26.443,"eph":15.891,"sep":37.060}
$GPGSV,3,1,11,03,51,307,17,14,40,075,39,16,47,161,32,22,66,271,18*79
$GPGSV,3,2,11,26,63,112,21,31,41,037,36,32,17,097,32,01,18,240,-1*64
$GPGSV,3,3,11,04,05,194,-1,23,28,310,-1,25,03,035,-1*53
{"class":"SKY","xdop":1.07,"ydop":1.02,"vdop":2.80,"tdop":2.21,"hdop":1.48,"gdop":3.86,"pdop":3.17,"satellites":[{"PRN":3,"el":51.0,"az":307.0,"ss":17.0,"used":true,"gnssid":0,"svid":3},{"PRN":14,"el":40.0,"az":75.0,"ss":39.0,"used":true,"gnssid":0,"svid":14},{"PRN":16,"el":47.0,"az":161.0,"ss":32.0,"used":true,"gnssid":0,"svid":16},{"PRN":22,"el":66.0,"az":271.0,"ss":18.0,"used":true,"gnssid":0,"svid":22},{"PRN":26,"el":63.0,"az":112.0,"ss":21.0,"used":true,"gnssid":0,"svid":26},{"PRN":31,"el":41.0,"az":37.0,"ss":36.0,"used":true,"gnssid":0,"svid":31},{"PRN":32,"el":17.0,"az":97.0,"ss":32.0,"used":true,"gnssid":0,"svid":32},{"PRN":1,"el":18.0,"az":240.0,"ss":-1.0,"used":false,"gnssid":0,"svid":1},{"PRN":4,"el":5.0,"az":194.0,"ss":-1.0,"used":false,"gnssid":0,"svid":4},{"PRN":23,"el":28.0,"az":310.0,"ss":-1.0,"used":false,"gnssid":0,"svid":23},{"PRN":25,"el":3.0,"az":35.0,"ss":-1.0,"used":false,"gnssid":0,"svid":25}]}
$GPZDA,204703.00,15,12,2019,00,00*69
$GPGGA,204703.00,2926.7365,N,09836.3956,W,1,07,1.48,246.06,M,-26.443,M,,*5F
$GPRMC,204703.00,A,2926.7365,N,09836.3956,W,0.0608,240.570,151219,4.1,E*7D
$GPGSA,A,3,3,14,16,22,26,31,32,,,,,,3.2,1.5,2.8*0B
$GPGBS,204703.00,16.017,15.360,33.280,,,,*79
{"class":"TPV","mode":3,"time":"2019-12-15T20:47:03.000Z","leapseconds":18,"ept":0.005,"lat":29.445608370,"lon":-98.606592638,"altHAE":219.616,"altMSL":246.059,"alt":246.059,"epx":16.017,"epy":15.360,"epv":33.280,"track":240.5700,"magtrack":244.6253,"magvar":4.1,"speed":0.031,"climb":-0.046,"eps":32.03,"epc":66.76,"velN":-0.015,"velE":-0.027,"velD":0.046,"geoidSep":-26.443,"eph":15.086,"sep":36.540}
$GPGSV,3,1,11,03,51,307,17,14,40,075,39,16,47,161,32,22,66,271,18*79
$GPGSV,3,2,11,26,63,112,21,31,41,037,36,32,17,097,32,01,18,240,-1*64
$GPGSV,3,3,11,04,05,194,-1,23,28,310,-1,25,03,035,-1*53
{"class":"SKY","xdop":1.07,"ydop":1.02,"vdop":2.80,"tdop":2.21,"hdop":1.48,"gdop":3.86,"pdop":3.17,"satellites":[{"PRN":3,"el":51.0,"az":307.0,"ss":17.0,"used":true,"gnssid":0,"svid":3},{"PRN":14,"el":40.0,"az":75.0,"ss":39.0,"used":true,"gnssid":0,"svid":14},{"PRN":16,"el":47.0,"az":161.0,"ss":32.0,"used":true,"gnssid":0,"svid":16},{"PRN":22,"el":66.0,"az":271.0,"ss":18.0,"used":true,"gnssid":0,"svid":22},{"PRN":26,"el":63.0,"az":112.0,"ss":21.0,"used":true,"gnssid":0,"svid":26},{"PRN":31,"el":41.0,"az":37.0,"ss":36.0,"used":true,"gnssid":0,"svid":31},{"PRN":32,"el":17.0,"az":97.0,"ss":32.0,"used":true,"gnssid":0,"svid":32},{"PRN":1,"el":18.0,"az":240.0,"ss":-1.0,"used":false,"gnssid":0,"svid":1},{"PRN":4,"el":5.0,"az":194.0,"ss":-1.0,"used":false,"gnssid":0,"svid":4},{"PRN":23,"el":28.0,"az":310.0,"ss":-1.0,"used":false,"gnssid":0,"svid":23},{"PRN":25,"el":3.0,"az":35.0,"ss":-1.0,"used":false,"gnssid":0,"svid":25}]}
$GPZDA,204704.00,15,12,2019,00,00*6E
$GPGGA,204704.00,2926.7367,N,09836.3951,W,1,07,1.48,246.26,M,-26.443,M,,*5F
$GPRMC,204704.00,A,2926.7367,N,09836.3951,W,0.0580,240.570,151219,4.1,E*7C
$GPGSA,A,3,3,14,16,22,26,31,32,,,,,,3.2,1.5,2.8*0B
$GPGBS,204704.00,16.017,15.360,33.153,,,,*73
{"class":"TPV","mode":3,"time":"2019-12-15T20:47:04.000Z","leapseconds":18,"ept":0.005,"lat":29.445612252,"lon":-98.606585754,"altHAE":219.814,"altMSL":246.258,"alt":246.258,"epx":16.017,"epy":15.360,"epv":33.153,"track":240.5700,"magtrack":244.6253,"magvar":4.1,"speed":0.030,"climb":-0.046,"eps":32.03,"epc":66.43,"velN":-0.015,"velE":-0.026,"velD":0.046,"geoidSep":-26.443,"eph":14.444,"sep":36.163}
$GPGSV,3,1,11,03,51,307,17,14,40,075,39,16,47,161,33,22,66,271,18*78
$GPGSV,3,2,11,26,63,112,21,31,41,037,36,32,17,097,32,01,18,240,-1*64
$GPGSV,3,3,11,04,05,194,-1,23,28,310,-1,25,03,035,-1*53
{"class":"SKY","xdop":1.07,"ydop":1.02,"vdop":2.80,"tdop":2.21,"hdop":1.48,"gdop":3.86,"pdop":3.17,"satellites":[{"PRN":3,"el":51.0,"az":307.0,"ss":17.0,"used":true,"gnssid":0,"svid":3},{"PRN":14,"el":40.0,"az":75.0,"ss":39.0,"used":true,"gnssid":0,"svid":14},{"PRN":16,"el":47.0,"az":161.0,"ss":33.0,"used":true,"gnssid":0,"svid":16},{"PRN":22,"el":66.0,"az":271.0,"ss":18.0,"used":true,"gnssid":0,"svid":22},{"PRN":26,"el":63.0,"az":112.0,"ss":21.0,"used":true,"gnssid":0,"svid":26},{"PRN":31,"el":41.0,"az":37.0,"ss":36.0,"used":true,"gnssid":0,"svid":31},{"PRN":32,"el":17.0,"az":97.0,"ss":32.0,"used":true,"gnssid":0,"svid":32},{"PRN":1,"el":18.0,"az":240.0,"ss":-1.0,"used":false,"gnssid":0,"svid":1},{"PRN":4,"el":5.0,"az":194.0,"ss":-1.0,"used":false,"gnssid":0,"svid":4},{"PRN":23,"el":28.0,"az":310.0,"ss":-1.0,"used":false,"gnssid":0,"svid":23},{"PRN":25,"el":3.0,"az":35.0,"ss":-1.0,"used":false,"gnssid":0,"svid":25}]}
$GPZDA,204705.00,15,12,2019,00,00*6F
$GPGGA,204705.00,2926.7372,N,09836.3940,W,1,07,1.48,245.93,M,-26.443,M,,*57
$GPRMC,204705.00,A,2926.7372,N,09836.3940,W,0.0666,240.570,151219,4.1,E*72
$GPGSA,A,3,3,14,16,22,26,31,32,,,,,,3.2,1.5,2.8*0B
$GPGBS,204705.00,16.017,15.360,33.027,,,,*70
{"class":"TPV","mode":3,"time":"2019-12-15T20:47:05.000Z","leapseconds":18,"ept":0.005,"lat":29.445620802,"lon":-98.606567339,"altHAE":219.487,"altMSL":245.930,"alt":245.930,"epx":16.017,"epy":15.360,"epv":33.027,"track":240.5700,"magtrack":244.6253,"magvar":4.1,"speed":0.034,"climb":-0.049,"eps":32.03,"epc":66.18,"velN":-0.017,"velE":-0.030,"velD":0.049,"geoidSep":-26.443,"eph":13.565,"sep":35.705}
$GPGSV,3,1,11,03,51,307,17,14,40,075,39,16,47,161,33,22,66,271,18*78
$GPGSV,3,2,11,26,63,112,21,31,41,037,36,32,17,097,32,01,18,240,-1*64
$GPGSV,3,3,11,04,05,194,-1,23,28,310,-1,25,03,035,-1*53
{"class":"SKY","xdop":1.07,"ydop":1.02,"vdop":2.80,"tdop":2.21,"hdop":1.48,"gdop":3.86,"pdop":3.17,"satellites":[{"PRN":3,"el":51.0,"az":307.0,"ss":17.0,"used":true,"gnssid":0,"svid":3},{"PRN":14,"el":40.0,"az":75.0,"ss":39.0,"used":true,"gnssid":0,"svid":14},{"PRN":16,"el":47.0,"az":161.0,"ss":33.0,"used":true,"gnssid":0,"svid":16},{"PRN":22,"el":66.0,"az":271.0,"ss":18.0,"used":true,"gnssid":0,"svid":22},{"PRN":26,"el":63.0,"az":112.0,"ss":21.0,"used":true,"gnssid":0,"svid":26},{"PRN":31,"el":41.0,"az":37.0,"ss":36.0,"used":true,"gnssid":0,"svid":31},{"PRN":32,"el":17.0,"az":97.0,"ss":32.0,"used":true,"gnssid":0,"svid":32},{"PRN":1,"el":18.0,"az":240.0,"ss":-1.0,"used":false,"gnssid":0,"svid":1},{"PRN":4,"el":5.0,"az":194.0,"ss":-1.0,"used":false,"gnssid":0,"svid":4},{"PRN":23,"el":28.0,"az":310.0,"ss":-1.0,"used":false,"gnssid":0,"svid":23},{"PRN":25,"el":3.0,"az":35.0,"ss":-1.0,"used":false,"gnssid":0,"svid":25}]}
$GPZDA,204706.00,15,12,2019,00,00*6C
$GPGGA,204706.00,2926.7375,N,09836.3939,W,1,07,1.48,245.80,M,-26.443,M,,*5F
$GPRMC,204706.00,A,2926.7375,N,09836.3939,W,0.0618,240.570,151219,4.1,E*71
$GPGSA,A,3,3,14,16,22,26,31,32,,,,,,3.2,1.5,2.8*0B
$GPGBS,204706.00,16.017,15.360,33.059,,,,*7A
{"class":"TPV","mode":3,"time":"2019-12-15T20:47:06.000Z","leapseconds":18,"ept":0.005,"lat":29.445624249,"lon":-98.606565347,"altHAE":219.359,"altMSL":245.802,"alt":245.802,"epx":16.017,"epy":15.360,"epv":33.059,"track":240.5700,"magtrack":244.6253,"magvar":4.1,"speed":0.032,"climb":-0.043,"eps":32.03,"epc":66.09,"velN":-0.016,"velE":-0.028,"velD":0.043,"geoidSep":-26.443,"eph":13.183,"sep":35.591}
$GPGSV,3,1,11,03,51,307,18,14,40,075,39,16,47,161,33,22,66,271,18*77
$GPGSV,3,2,11,26,63,112,22,31,41,037,36,32,17,097,32,01,18,240,-1*67
$GPGSV,3,3,11,04,05,194,-1,23,28,310,-1,25,03,035,-1*53
{"class":"SKY","xdop":1.07,"ydop":1.02,"vdop":2.80,"tdop":2.21,"hdop":1.48,"gdop":3.86,"pdop":3.17,"satellites":[{"PRN":3,"el":51.0,"az":307.0,"ss":18.0,"used":true,"gnssid":0,"svid":3},{"PRN":14,"el":40.0,"az":75.0,"ss":39.0,"used":true,"gnssid":0,"svid":14},{"PRN":16,"el":47.0,"az":161.0,"ss":33.0,"used":true,"gnssid":0,"svid":16},{"PRN":22,"el":66.0,"az":271.0,"ss":18.0,"used":true,"gnssid":0,"svid":22},{"PRN":26,"el":63.0,"az":112.0,"ss":22.0,"used":true,"gnssid":0,"svid":26},{"PRN":31,"el":41.0,"az":37.0,"ss":36.0,"used":true,"gnssid":0,"svid":31},{"PRN":32,"el":17.0,"az":97.0,"ss":32.0,"used":true,"gnssid":0,"svid":32},{"PRN":1,"el":18.0,"az":240.0,"ss":-1.0,"used":false,"gnssid":0,"svid":1},{"PRN":4,"el":5.0,"az":194.0,"ss":-1.0,"used":false,"gnssid":0,"svid":4},{"PRN":23,"el":28.0,"az":310.0,"ss":-1.0,"used":false,"gnssid":0,"svid":23},{"PRN":25,"el":3.0,"az":35.0,"ss":-1.0,"used":false,"gnssid":0,"svid":25}]}
$GPZDA,204707.00,15,12,2019,00,00*6D
$GPGGA,204707.00,2926.7375,N,09836.3938,W,1,07,1.48,245.64,M,-26.443,M,,*55
$GPRMC,204707.00,A,2926.7375,N,09836.3938,W,0.0655,240.570,151219,4.1,E*78
$GPGSA,A,3,3,14,16,22,26,31,32,,,,,,3.2,1.5,2.8*0B
$GPGBS,204707.00,16.017,15.360,33.076,,,,*76
{"class":"TPV","mode":3,"time":"2019-12-15T20:47:07.000Z","leapseconds":18,"ept":0.005,"lat":29.445624709,"lon":-98.606562633,"altHAE":219.192,"altMSL":245.635,"alt":245.635,"epx":16.017,"epy":15.360,"epv":33.076,"track":240.5700,"magtrack":244.6253,"magvar":4.1,"speed":0.034,"climb":-0.038,"eps":32.03,"epc":66.13,"velN":-0.017,"velE":-0.029,"velD":0.038,"geoidSep":-26.443,"eph":12.846,"sep":35.483}
$GPZDA,204708.00,15,12,2019,00,00*62
$GPGGA,204708.00,2926.7375,N,09836.3937,W,1,07,1.48,245.59,M,-26.443,M,,*5B
$GPRMC,204708.00,A,2926.7375,N,09836.3937,W,0.0624,240.570,151219,4.1,E*7E
$GPGSA,A,3,3,14,16,22,26,31,32,,,,,,3.2,1.5,2.8*0B
$GPGBS,204708.00,16.017,15.360,32.952,,,,*77
{"class":"TPV","mode":3,"time":"2019-12-15T20:47:08.000Z","leapseconds":18,"ept":0.005,"lat":29.445624292,"lon":-98.606560912,"altHAE":219.145,"altMSL":245.589,"alt":245.589,"epx":16.017,"epy":15.360,"epv":32.952,"track":240.5700,"magtrack":244.6253,"magvar":4.1,"speed":0.032,"climb":-0.051,"eps":32.03,"epc":66.03,"velN":-0.016,"velE":-0.028,"velD":0.051,"geoidSep":-26.443,"eph":12.545,"sep":35.259}
$GPZDA,204709.00,15,12,2019,00,00*63
$GPGGA,204709.00,2926.7373,N,09836.3937,W,1,07,1.48,245.85,M,-26.443,M,,*5D
$GPRMC,204709.00,A,2926.7373,N,09836.3937,W,0.0531,240.570,151219,4.1,E*7E
$GPGSA,A,3,3,14,16,22,26,31,32,,,,,,3.2,1.5,2.8*0B
$GPGBS,204709.00,16.017,15.360,32.858,,,,*7D
{"class":"TPV","mode":3,"time":"2019-12-15T20:47:09.000Z","leapseconds":18,"ept":0.005,"lat":29.445622209,"lon":-98.606561856,"altHAE":219.409,"altMSL":245.852,"alt":245.852,"epx":16.017,"epy":15.360,"epv":32.858,"track":240.5700,"magtrack":244.6253,"magvar":4.1,"speed":0.027,"climb":-0.032,"eps":32.03,"epc":65.81,"velN":-0.013,"velE":-0.024,"velD":0.032,"geoidSep":-26.443,"eph":12.287,"sep":35.080}
$GPZDA,204710.00,15,12,2019,00,00*6B
$GPGGA,204710.00,2926.7370,N,09836.3941,W,1,07,1.48,246.03,M,-26.443,M,,*5A
$GPRMC,204710.00,A,2926.7370,N,09836.3941,W,0.0510,240.570,151219,4.1,E*77
$GPGSA,A,3,3,14,16,22,26,31,32,,,,,,3.2,1.5,2.8*0B
$GPGBS,204710.00,16.017,15.360,32.705,,,,*72
{"class":"TPV","mode":3,"time":"2019-12-15T20:47:10.000Z","leapseconds":18,"ept":0.005,"lat":29.445616493,"lon":-98.606569079,"altHAE":219.582,"altMSL":246.026,"alt":246.026,"epx":16.017,"epy":15.360,"epv":32.705,"track":240.5700,"magtrack":244.6253,"magvar":4.1,"speed":0.026,"climb":-0.029,"eps":32.03,"epc":65.56,"velN":-0.013,"velE":-0.023,"velD":0.029,"geoidSep":-26.443,"eph":12.046,"sep":34.853}
$GPZDA,204711.00,15,12,2019,00,00*6A
$GPGGA,204711.00,2926.7372,N,09836.3940,W,1,07,1.48,246.09,M,-26.443,M,,*52
$GPRMC,204711.00,A,2926.7372,N,09836.3940,W,0.0411,240.570,151219,4.1,E*75
$GPGSA,A,3,3,14,16,22,26,31,32,,,,,,3.2,1.5,2.8*0B
$GPGBS,204711.00,16.017,15.360,32.557,,,,*76
{"class":"TPV","mode":3,"time":"2019-12-15T20:47:11.000Z","leapseconds":18,"ept":0.005,"lat":29.445619494,"lon":-98.606567147,"altHAE":219.646,"altMSL":246.089,"alt":246.089,"epx":16.017,"epy":15.360,"epv":32.557,"track":240.5700,"magtrack":244.6253,"magvar":4.1,"speed":0.021,"climb":-0.014,"eps":32.03,"epc":65.26,"velN":-0.010,"velE":-0.018,"velD":0.014,"geoidSep":-26.443,"eph":11.830,"sep":34.639}
$GPGSV,3,1,11,03,51,307,18,14,39,076,39,16,47,161,33,22,66,271,18*7A
$GPGSV,3,2,11,26,63,112,23,31,41,037,36,32,17,097,33,01,18,240,-1*67
$GPGSV,3,3,11,04,05,194,-1,23,28,310,-1,25,03,035,-1*53
{"class":"SKY","xdop":1.07,"ydop":1.02,"vdop":2.80,"tdop":2.21,"hdop":1.48,"gdop":3.86,"pdop":3.17,"satellites":[{"PRN":3,"el":51.0,"az":307.0,"ss":18.0,"used":true,"gnssid":0,"svid":3},{"PRN":14,"el":39.0,"az":76.0,"ss":39.0,"used":true,"gnssid":0,"svid":14},{"PRN":16,"el":47.0,"az":161.0,"ss":33.0,"used":true,"gnssid":0,"svid":16},{"PRN":22,"el":66.0,"az":271.0,"ss":18.0,"used":true,"gnssid":0,"svid":22},{"PRN":26,"el":63.0,"az":112.0,"ss":23.0,"used":true,"gnssid":0,"svid":26},{"PRN":31,"el":41.0,"az":37.0,"ss":36.0,"used":true,"gnssid":0,"svid":31},{"PRN":32,"el":17.0,"az":97.0,"ss":33.0,"used":true,"gnssid":0,"svid":32},{"PRN":1,"el":18.0,"az":240.0,"ss":-1.0,"used":false,"gnssid":0,"svid":1},{"PRN":4,"el":5.0,"az":194.0,"ss":-1.0,"used":false,"gnssid":0,"svid":4},{"PRN":23,"el":28.0,"az":310.0,"ss":-1.0,"used":false,"gnssid":0,"svid":23},{"PRN":25,"el":3.0,"az":35.0,"ss":-1.0,"used":false,"gnssid":0,"svid":25}]}
$GPZDA,204712.00,15,12,2019,00,00*69
$GPGGA,204712.00,2926.7372,N,09836.3942,W,1,07,1.48,246.27,M,-26.443,M,,*5F
$GPRMC,204712.00,A,2926.7372,N,09836.3942,W,0.0408,240.570,151219,4.1,E*7C
$GPGSA,A,3,3,14,16,22,26,31,32,,,,,,3.2,1.5,2.8*0B
$GPGBS,204712.00,16.017,15.360,32.385,,,,*7C
{"class":"TPV","mode":3,"time":"2019-12-15T20:47:12.000Z","leapseconds":18,"ept":0.005,"lat":29.445619289,"lon":-98.606569381,"altHAE":219.826,"altMSL":246.270,"alt":246.270,"epx":16.017,"epy":15.360,"epv":32.385,"track":240.5700,"magtrack":244.6253,"magvar":4.1,"speed":0.021,"climb":-0.028,"eps":32.03,"epc":64.94,"velN":-0.010,"velE":-0.018,"velD":0.028,"geoidSep":-26.443,"eph":11.632,"sep":34.411}
$GPGSV,3,1,11,03,51,307,18,14,39,076,39,16,47,161,33,22,66,271,18*7A
$GPGSV,3,2,11,26,63,112,23,31,41,037,36,32,17,097,33,01,18,240,-1*67
$GPGSV,3,3,11,04,05,194,-1,23,28,310,-1,25,03,035,-1*53
{"class":"SKY","xdop":1.07,"ydop":1.02,"vdop":2.80,"tdop":2.21,"hdop":1.48,"gdop":3.86,"pdop":3.17,"satellites":[{"PRN":3,"el":51.0,"az":307.0,"ss":18.0,"used":true,"gnssid":0,"svid":3},{"PRN":14,"el":39.0,"az":76.0,"ss":39.0,"used":true,"gnssid":0,"svid":14},{"PRN":16,"el":47.0,"az":161.0,"ss":33.0,"used":true,"gnssid":0,"svid":16},{"PRN":22,"el":66.0,"az":271.0,"ss":18.0,"used":true,"gnssid":0,"svid":22},{"PRN":26,"el":63.0,"az":112.0,"ss":23.0,"used":true,"gnssid":0,"svid":26},{"PRN":31,"el":41.0,"az":37.0,"ss":36.0,"used":true,"gnssid":0,"svid":31},{"PRN":32,"el":17.0,"az":97.0,"ss":33.0,"used":true,"gnssid":0,"svid":32},{"PRN":1,"el":18.0,"az":240.0,"ss":-1.0,"used":false,"gnssid":0,"svid":1},{"PRN":4,"el":5.0,"az":194.0,"ss":-1.0,"used":false,"gnssid":0,"svid":4},{"PRN":23,"el":28.0,"az":310.0,"ss":-1.0,"used":false,"gnssid":0,"svid":23},{"PRN":25,"el":3.0,"az":35.0,"ss":-1.0,"used":false,"gnssid":0,"svid":25}]}
$GPZDA,204713.00,15,12,2019,00,00*68
$GPGGA,204713.00,2926.7374,N,09836.3941,W,1,07,1.48,246.72,M,-26.443,M,,*5B
$GPRMC,204713.00,A,2926.7374,N,09836.3941,W,0.0439,240.570,151219,4.1,E*7A
$GPGSA,A,3,3,14,16,22,26,31,32,,,,,,3.2,1.5,2.8*0B
$GPGBS,204713.00,16.017,15.360,32.243,,,,*76
{"class":"TPV","mode":3,"time":"2019-12-15T20:47:13.000Z","leapseconds":18,"ept":0.005,"lat":29.445623386,"lon":-98.606568840,"altHAE":220.276,"altMSL":246.719,"alt":246.719,"epx":16.017,"epy":15.360,"epv":32.243,"track":240.5700,"magtrack":244.6253,"magvar":4.1,"speed":0.023,"climb":-0.051,"eps":32.03,"epc":64.63,"velN":-0.011,"velE":-0.020,"velD":0.051,"geoidSep":-26.443,"eph":11.537,"sep":34.245}
$GPGSV,3,1,11,03,51,307,18,14,39,076,39,16,47,161,33,22,66,271,18*7A
$GPGSV,3,2,11,26,63,112,23,31,41,037,36,32,17,097,33,01,18,240,-1*67
$GPGSV,3,3,11,04,05,194,-1,23,28,310,-1,25,03,035,-1*53
{"class":"SKY","xdop":1.07,"ydop":1.02,"vdop":2.80,"tdop":2.21,"hdop":1.48,"gdop":3.86,"pdop":3.17,"satellites":[{"PRN":3,"el":51.0,"az":307.0,"ss":18.0,"used":true,"gnssid":0,"svid":3},{"PRN":14,"el":39.0,"az":76.0,"ss":39.0,"used":true,"gnssid":0,"svid":14},{"PRN":16,"el":47.0,"az":161.0,"ss":33.0,"used":true,"gnssid":0,"svid":16},{"PRN":22,"el":66.0,"az":271.0,"ss":18.0,"used":true,"gnssid":0,"svid":22},{"PRN":26,"el":63.0,"az":112.0,"ss":23.0,"used":true,"gnssid":0,"svid":26},{"PRN":31,"el":41.0,"az":37.0,"ss":36.0,"used":true,"gnssid":0,"svid":31},{"PRN":32,"el":17.0,"az":97.0,"ss":33.0,"used":true,"gnssid":0,"svid":32},{"PRN":1,"el":18.0,"az":240.0,"ss":-1.0,"used":false,"gnssid":0,"svid":1},{"PRN":4,"el":5.0,"az":194.0,"ss":-1.0,"used":false,"gnssid":0,"svid":4},{"PRN":23,"el":28.0,"az":310.0,"ss":-1.0,"used":false,"gnssid":0,"svid":23},{"PRN":25,"el":3.0,"az":35.0,"ss":-1.0,"used":false,"gnssid":0,"svid":25}]}
$GPZDA,204714.00,15,12,2019,00,00*6F
$GPGGA,204714.00,2926.7372,N,09836.3942,W,1,07,1.48,247.20,M,-26.443,M,,*5F
$GPRMC,204714.00,A,2926.7372,N,09836.3942,W,0.0497,240.570,151219,4.1,E*7C
$GPGSA,A,3,3,14,16,22,26,31,32,,,,,,3.2,1.5,2.8*0B
$GPGBS,204714.00,16.017,15.360,32.079,,,,*7A
{"class":"TPV","mode":3,"time":"2019-12-15T20:47:14.000Z","leapseconds":18,"ept":0.005,"lat":29.445619904,"lon":-98.606569587,"altHAE":220.759,"altMSL":247.202,"alt":247.202,"epx":16.017,"epy":15.360,"epv":32.079,"track":240.5700,"magtrack":244.6253,"magvar":4.1,"speed":0.026,"climb":-0.033,"eps":32.03,"epc":64.32,"velN":-0.013,"velE":-0.022,"velD":0.033,"geoidSep":-26.443,"eph":11.440,"sep":34.058}
$GPGSV,3,1,11,03,51,307,19,14,39,076,39,16,47,161,33,22,66,271,18*7B
$GPGSV,3,2,11,26,63,112,23,31,41,037,36,32,17,097,34,01,18,240,-1*60
$GPGSV,3,3,11,04,05,194,-1,23,28,310,-1,25,03,035,-1*53
{"class":"SKY","xdop":1.07,"ydop":1.02,"vdop":2.80,"tdop":2.21,"hdop":1.48,"gdop":3.86,"pdop":3.17,"satellites":[{"PRN":3,"el":51.0,"az":307.0,"ss":19.0,"used":true,"gnssid":0,"svid":3},{"PRN":14,"el":39.0,"az":76.0,"ss":39.0,"used":true,"gnssid":0,"svid":14},{"PRN":16,"el":47.0,"az":161.0,"ss":33.0,"used":true,"gnssid":0,"svid":16},{"PRN":22,"el":66.0,"az":271.0,"ss":18.0,"used":true,"gnssid":0,"svid":22},{"PRN":26,"el":63.0,"az":112.0,"ss":23.0,"used":true,"gnssid":0,"svid":26},{"PRN":31,"el":41.0,"az":37.0,"ss":36.0,"used":true,"gnssid":0,"svid":31},{"PRN":32,"el":17.0,"az":97.0,"ss":34.0,"used":true,"gnssid":0,"svid":32},{"PRN":1,"el":18.0,"az":240.0,"ss":-1.0,"used":false,"gnssid":0,"svid":1},{"PRN":4,"el":5.0,"az":194.0,"ss":-1.0,"used":false,"gnssid":0,"svid":4},{"PRN":23,"el":28.0,"az":310.0,"ss":-1.0,"used":false,"gnssid":0,"svid":23},{"PRN":25,"el":3.0,"az":35.0,"ss":-1.0,"used":false,"gnssid":0,"svid":25}]}
$GPZDA,204715.00,15,12,2019,00,00*6E
$GPGGA,204715.00,2926.7371,N,09836.3944,W,1,07,1.48,247.55,M,-26.443,M,,*59
$GPRMC,204715.00,A,2926.7371,N,09836.3944,W,0.0511,240.570,151219,4.1,E*77
$GPGSA,A,3,3,14,16,22,26,31,32,,,,,,3.2,1.5,2.8*0B
$GPGBS,204715.00,16.017,15.360,31.946,,,,*7D
{"class":"TPV","mode":3,"time":"2019-12-15T20:47:15.000Z","leapseconds":18,"ept":0.005,"lat":29.445618515,"lon":-98.606573559,"altHAE":221.103,"altMSL":247.546,"alt":247.546,"epx":16.017,"epy":15.360,"epv":31.946,"track":240.5700,"magtrack":244.6253,"magvar":4.1,"speed":0.026,"climb":-0.016,"eps":32.03,"epc":64.03,"velN":-0.013,"velE":-0.023,"velD":0.016,"geoidSep":-26.443,"eph":11.356,"sep":33.904}
$GPGSV,3,1,11,03,51,307,18,14,39,076,39,16,47,161,33,22,66,271,18*7A
$GPGSV,3,2,11,26,63,112,23,31,41,037,36,32,17,097,34,01,18,240,-1*60
$GPGSV,3,3,11,04,05,194,-1,23,28,310,-1,25,03,035,-1*53
{"class":"SKY","xdop":1.07,"ydop":1.02,"vdop":2.80,"tdop":2.21,"hdop":1.48,"gdop":3.86,"pdop":3.17,"satellites":[{"PRN":3,"el":51.0,"az":307.0,"ss":18.0,"used":true,"gnssid":0,"svid":3},{"PRN":14,"el":39.0,"az":76.0,"ss":39.0,"used":true,"gnssid":0,"svid":14},{"PRN":16,"el":47.0,"az":161.0,"ss":33.0,"used":true,"gnssid":0,"svid":16},{"PRN":22,"el":66.0,"az":271.0,"ss":18.0,"used":true,"gnssid":0,"svid":22},{"PRN":26,"el":63.0,"az":112.0,"ss":23.0,"used":true,"gnssid":0,"svid":26},{"PRN":31,"el":41.0,"az":37.0,"ss":36.0,"used":true,"gnssid":0,"svid":31},{"PRN":32,"el":17.0,"az":97.0,"ss":34.0,"used":true,"gnssid":0,"svid":32},{"PRN":1,"el":18.0,"az":240.0,"ss":-1.0,"used":false,"gnssid":0,"svid":1},{"PRN":4,"el":5.0,"az":194.0,"ss":-1.0,"used":false,"gnssid":0,"svid":4},{"PRN":23,"el":28.0,"az":310.0,"ss":-1.0,"used":false,"gnssid":0,"svid":23},{"PRN":25,"el":3.0,"az":35.0,"ss":-1.0,"used":false,"gnssid":0,"svid":25}]}
$GPZDA,204716.00,15,12,2019,00,00*6D
$GPGGA,204716.00,2926.7372,N,09836.3942,W,1,07,1.48,247.78,M,-26.443,M,,*50
$GPRMC,204716.00,A,2926.7372,N,09836.3942,W,0.0475,240.570,151219,4.1,E*72
$GPGSA,A,3,3,14,16,22,26,31,32,,,,,,3.2,1.5,2.8*0B
$GPGBS,204716.00,16.017,15.360,31.957,,,,*7E
{"class":"TPV","mode":3,"time":"2019-12-15T20:47:16.000Z","leapseconds":18,"ept":0.005,"lat":29.445620137,"lon":-98.606570627,"altHAE":221.337,"altMSL":247.781,"alt":247.781,"epx":16.017,"epy":15.360,"epv":31.957,"track":240.5700,"magtrack":244.6253,"magvar":4.1,"speed":0.024,"climb":-0.015,"eps":32.03,"epc":63.90,"velN":-0.012,"velE":-0.021,"velD":0.015,"geoidSep":-26.443,"eph":11.212,"sep":33.866}
$GPGSV,3,1,11,03,51,307,18,14,39,076,39,16,47,161,33,22,66,270,18*7B
$GPGSV,3,2,11,26,63,112,24,31,41,037,36,32,17,097,34,01,18,240,-1*67
$GPGSV,3,3,11,04,05,194,-1,23,28,310,-1,25,03,035,-1*53
{"class":"SKY","xdop":1.07,"ydop":1.02,"vdop":2.80,"tdop":2.21,"hdop":1.48,"gdop":3.86,"pdop":3.17,"satellites":[{"PRN":3,"el":51.0,"az":307.0,"ss":18.0,"used":true,"gnssid":0,"svid":3},{"PRN":14,"el":39.0,"az":76.0,"ss":39.0,"used":true,"gnssid":0,"svid":14},{"PRN":16,"el":47.0,"az":161.0,"ss":33.0,"used":true,"gnssid":0,"svid":16},{"PRN":22,"el":66.0,"az":270.0,"ss":18.0,"used":true,"gnssid":0,"svid":22},{"PRN":26,"el":63.0,"az":112.0,"ss":24.0,"used":true,"gnssid":0,"svid":26},{"PRN":31,"el":41.0,"az":37.0,"ss":36.0,"used":true,"gnssid":0,"svid":31},{"PRN":32,"el":17.0,"az":97.0,"ss":34.0,"used":true,"gnssid":0,"svid":32},{"PRN":1,"el":18.0,"az":240.0,"ss":-1.0,"used":false,"gnssid":0,"svid":1},{"PRN":4,"el":5.0,"az":194.0,"ss":-1.0,"used":false,"gnssid":0,"svid":4},{"PRN":23,"el":28.0,"az":310.0,"ss":-1.0,"used":false,"gnssid":0,"svid":23},{"PRN":25,"el":3.0,"az":35.0,"ss":-1.0,"used":false,"gnssid":0,"svid":25}]}
$GPZDA,204717.00,15,12,2019,00,00*6C
$GPGGA,204717.00,2926.7371,N,09836.3944,W,1,07,1.48,247.80,M,-26.443,M,,*53
$GPRMC,204717.00,A,2926.7371,N,09836.3944,W,0.0434,240.570,151219,4.1,E*73
$GPGSA,A,3,3,14,16,22,26,31,32,,,,,,3.2,1.5,2.8*0B
$GPGBS,204717.00,16.017,15.360,31.987,,,,*72
{"class":"TPV","mode":3,"time":"2019-12-15T20:47:17.000Z","leapseconds":18,"ept":0.005,"lat":29.445618634,"lon":-98.606572617,"altHAE":221.358,"altMSL":247.801,"alt":247.801,"epx":16.017,"epy":15.360,"epv":31.987,"track":240.5700,"magtrack":244.6253,"magvar":4.1,"speed":0.022,"climb":-0.012,"eps":32.03,"epc":63.94,"velN":-0.011,"velE":-0.019,"velD":0.012,"geoidSep":-26.443,"eph":11.147,"sep":33.874}
$GPGSV,3,1,11,03,51,307,18,14,39,076,39,16,47,161,33,22,66,270,18*7B
$GPGSV,3,2,11,26,63,112,24,31,41,037,36,32,17,097,34,01,18,240,-1*67
$GPGSV,3,3,11,04,05,194,-1,23,28,310,-1,25,03,035,-1*53
{"class":"SKY","xdop":1.07,"ydop":1.02,"vdop":2.80,"tdop":2.21,"hdop":1.48,"gdop":3.86,"pdop":3.17,"satellites":[{"PRN":3,"el":51.0,"az":307.0,"ss":18.0,"used":true,"gnssid":0,"svid":3},{"PRN":14,"el":39.0,"az":76.0,"ss":39.0,"used":true,"gnssid":0,"svid":14},{"PRN":16,"el":47.0,"az":161.0,"ss":33.0,"used":true,"gnssid":0,"svid":16},{"PRN":22,"el":66.0,"az":270.0,"ss":18.0,"used":true,"gnssid":0,"svid":22},{"PRN":26,"el":63.0,"az":112.0,"ss":24.0,"used":true,"gnssid":0,"svid":26},{"PRN":31,"el":41.0,"az":37.0,"ss":36.0,"used":true,"gnssid":0,"svid":31},{"PRN":32,"el":17.0,"az":97.0,"ss":34.0,"used":true,"gnssid":0,"svid":32},{"PRN":1,"el":18.0,"az":240.0,"ss":-1.0,"used":false,"gnssid":0,"svid":1},{"PRN":4,"el":5.0,"az":194.0,"ss":-1.0,"used":false,"gnssid":0,"svid":4},{"PRN":23,"el":28.0,"az":310.0,"ss":-1.0,"used":false,"gnssid":0,"svid":23},{"PRN":25,"el":3.0,"az":35.0,"ss":-1.0,"used":false,"gnssid":0,"svid":25}]}
$GPZDA,204718.00,15,12,2019,00,00*63
$GPGGA,204718.00,2926.7371,N,09836.3944,W,1,07,1.48,247.93,M,-26.443,M,,*5E
$GPRMC,204718.00,A,2926.7371,N,09836.3944,W,0.0381,240.570,151219,4.1,E*75
$GPGSA,A,3,3,14,16,22,26,31,32,,,,,,3.2,1.5,2.8*0B
$GPGBS,204718.00,16.017,15.360,31.873,,,,*77
{"class":"TPV","mode":3,"time":"2019-12-15T20:47:18.000Z","leapseconds":18,"ept":0.005,"lat":29.445618108,"lon":-98.606572829,"altHAE":221.490,"altMSL":247.933,"alt":247.933,"epx":16.017,"epy":15.360,"epv":31.873,"track":240.5700,"magtrack":244.6253,"magvar":4.1,"speed":0.020,"climb":-0.017,"eps":32.03,"epc":63.86,"velN":-0.010,"velE":-0.017,"velD":0.017,"geoidSep":-26.443,"eph":11.011,"sep":33.722}
$GPGSV,3,1,11,03,51,307,18,14,39,076,39,16,47,161,33,22,66,270,18*7B
$GPGSV,3,2,11,26,63,112,24,31,41,037,36,32,17,097,34,01,18,240,-1*67
$GPGSV,3,3,11,04,05,194,-1,23,28,310,-1,25,03,035,-1*53
{"class":"SKY","xdop":1.07,"ydop":1.02,"vdop":2.80,"tdop":2.21,"hdop":1.48,"gdop":3.86,"pdop":3.17,"satellites":[{"PRN":3,"el":51.0,"az":307.0,"ss":18.0,"used":true,"gnssid":0,"svid":3},{"PRN":14,"el":39.0,"az":76.0,"ss":39.0,"used":true,"gnssid":0,"svid":14},{"PRN":16,"el":47.0,"az":161.0,"ss":33.0,"used":true,"gnssid":0,"svid":16},{"PRN":22,"el":66.0,"az":270.0,"ss":18.0,"used":true,"gnssid":0,"svid":22},{"PRN":26,"el":63.0,"az":112.0,"ss":24.0,"used":true,"gnssid":0,"svid":26},{"PRN":31,"el":41.0,"az":37.0,"ss":36.0,"used":true,"gnssid":0,"svid":31},{"PRN":32,"el":17.0,"az":97.0,"ss":34.0,"used":true,"gnssid":0,"svid":32},{"PRN":1,"el":18.0,"az":240.0,"ss":-1.0,"used":false,"gnssid":0,"svid":1},{"PRN":4,"el":5.0,"az":194.0,"ss":-1.0,"used":false,"gnssid":0,"svid":4},{"PRN":23,"el":28.0,"az":310.0,"ss":-1.0,"used":false,"gnssid":0,"svid":23},{"PRN":25,"el":3.0,"az":35.0,"ss":-1.0,"used":false,"gnssid":0,"svid":25}]}
$GPZDA,204719.00,15,12,2019,00,00*62
$GPGGA,204719.00,2926.7371,N,09836.3943,W,1,07,1.48,247.86,M,-26.443,M,,*5C
$GPRMC,204719.00,A,2926.7371,N,09836.3943,W,0.0460,240.570,151219,4.1,E*7B
$GPGSA,A,3,3,14,16,22,26,31,32,,,,,,3.2,1.5,2.8*0B
$GPGBS,204719.00,16.017,15.360,31.766,,,,*7D
{"class":"TPV","mode":3,"time":"2019-12-15T20:47:19.000Z","leapseconds":18,"ept":0.005,"lat":29.445618142,"lon":-98.606571967,"altHAE":221.415,"altMSL":247.859,"alt":247.859,"epx":16.017,"epy":15.360,"epv":31.766,"track":240.5700,"magtrack":244.6253,"magvar":4.1,"speed":0.024,"climb":-0.033,"eps":32.03,"epc":63.64,"velN":-0.012,"velE":-0.021,"velD":0.033,"geoidSep":-26.443,"eph":10.886,"sep":33.579}
$GPGSV,3,1,11,03,51,307,18,14,39,076,39,16,47,161,33,22,66,270,18*7B
$GPGSV,3,2,11,26,63,112,24,31,41,037,36,32,17,097,34,01,18,240,-1*67
$GPGSV,3,3,11,04,05,194,-1,23,28,310,-1,25,03,035,-1*53
{"class":"SKY","xdop":1.07,"ydop":1.02,"vdop":2.80,"tdop":2.21,"hdop":1.48,"gdop":3.86,"pdop":3.17,"satellites":[{"PRN":3,"el":51.0,"az":307.0,"ss":18.0,"used":true,"gnssid":0,"svid":3},{"PRN":14,"el":39.0,"az":76.0,"ss":39.0,"used":true,"gnssid":0,"svid":14},{"PRN":16,"el":47.0,"az":161.0,"ss":33.0,"used":true,"gnssid":0,"svid":16},{"PRN":22,"el":66.0,"az":270.0,"ss":18.0,"used":true,"gnssid":0,"svid":22},{"PRN":26,"el":63.0,"az":112.0,"ss":24.0,"used":true,"gnssid":0,"svid":26},{"PRN":31,"el":41.0,"az":37.0,"ss":36.0,"used":true,"gnssid":0,"svid":31},{"PRN":32,"el":17.0,"az":97.0,"ss":34.0,"used":true,"gnssid":0,"svid":32},{"PRN":1,"el":18.0,"az":240.0,"ss":-1.0,"used":false,"gnssid":0,"svid":1},{"PRN":4,"el":5.0,"az":194.0,"ss":-1.0,"used":false,"gnssid":0,"svid":4},{"PRN":23,"el":28.0,"az":310.0,"ss":-1.0,"used":false,"gnssid":0,"svid":23},{"PRN":25,"el":3.0,"az":35.0,"ss":-1.0,"used":false,"gnssid":0,"svid":25}]}
$GPZDA,204720.00,15,12,2019,00,00*68
$GPGGA,204720.00,2926.7370,N,09836.3943,W,1,07,1.48,247.90,M,-26.443,M,,*50
$GPRMC,204720.00,A,2926.7370,N,09836.3943,W,0.0497,240.570,151219,4.1,E*78
$GPGSA,A,3,3,14,16,22,26,31,32,,,,,,3.2,1.5,2.8*0B
$GPGBS,204720.00,16.017,15.360,31.630,,,,*75
{"class":"TPV","mode":3,"time":"2019-12-15T20:47:20.000Z","leapseconds":18,"ept":0.005,"lat":29.445617173,"lon":-98.606572157,"altHAE":221.455,"altMSL":247.898,"alt":247.898,"epx":16.017,"epy":15.360,"epv":31.630,"track":240.5700,"magtrack":244.6253,"magvar":4.1,"speed":0.026,"climb":-0.018,"eps":32.03,"epc":63.40,"velN":-0.013,"velE":-0.022,"velD":0.018,"geoidSep":-26.443,"eph":10.819,"sep":33.429}
$GPGSV,3,1,11,03,51,307,18,14,39,076,39,16,47,161,33,22,66,270,18*7B
$GPGSV,3,2,11,26,63,112,24,31,41,037,36,32,17,097,34,01,18,240,-1*67
$GPGSV,3,3,11,04,05,194,-1,23,28,310,-1,25,03,035,-1*53
{"class":"SKY","xdop":1.07,"ydop":1.02,"vdop":2.80,"tdop":2.21,"hdop":1.48,"gdop":3.86,"pdop":3.17,"satellites":[{"PRN":3,"el":51.0,"az":307.0,"ss":18.0,"used":true,"gnssid":0,"svid":3},{"PRN":14,"el":39.0,"az":76.0,"ss":39.0,"used":true,"gnssid":0,"svid":14},{"PRN":16,"el":47.0,"az":161.0,"ss":33.0,"used":true,"gnssid":0,"svid":16},{"PRN":22,"el":66.0,"az":270.0,"ss":18.0,"used":true,"gnssid":0,"svid":22},{"PRN":26,"el":63.0,"az":112.0,"ss":24.0,"used":true,"gnssid":0,"svid":26},{"PRN":31,"el":41.0,"az":37.0,"ss":36.0,"used":true,"gnssid":0,"svid":31},{"PRN":32,"el":17.0,"az":97.0,"ss":34.0,"used":true,"gnssid":0,"svid":32},{"PRN":1,"el":18.0,"az":240.0,"ss":-1.0,"used":false,"gnssid":0,"svid":1},{"PRN":4,"el":5.0,"az":194.0,"ss":-1.0,"used":false,"gnssid":0,"svid":4},{"PRN":23,"el":28.0,"az":310.0,"ss":-1.0,"used":false,"gnssid":0,"svid":23},{"PRN":25,"el":3.0,"az":35.0,"ss":-1.0,"used":false,"gnssid":0,"svid":25}]}
$GPZDA,204721.00,15,12,2019,00,00*69
$GPGGA,204721.00,2926.7370,N,09836.3943,W,1,07,1.48,248.18,M,-26.443,M,,*5E
$GPRMC,204721.00,A,2926.7370,N,09836.3943,W,0.0442,240.570,151219,4.1,E*71
$GPGSA,A,3,3,14,16,22,26,31,32,,,,,,3.2,1.5,2.8*0B
$GPGBS,204721.00,16.017,15.360,31.505,,,,*71
{"class":"TPV","mode":3,"time":"2019-12-15T20:47:21.000Z","leapseconds":18,"ept":0.005,"lat":29.445616737,"lon":-98.606571346,"altHAE":221.739,"altMSL":248.182,"alt":248.182,"epx":16.017,"epy":15.360,"epv":31.505,"track":240.5700,"magtrack":244.6253,"magvar":4.1,"speed":0.023,"climb":-0.027,"eps":32.03,"epc":63.13,"velN":-0.011,"velE":-0.020,"velD":0.027,"geoidSep":-26.443,"eph":10.756,"sep":33.290}
$GPGSV,3,1,11,03,51,307,18,14,39,076,39,16,47,161,33,22,66,270,18*7B
$GPGSV,3,2,11,26,63,112,25,31,41,037,36,32,17,097,34,01,18,240,-1*66
$GPGSV,3,3,11,04,05,194,-1,23,28,310,-1,25,03,035,-1*53
{"class":"SKY","xdop":1.07,"ydop":1.02,"vdop":2.80,"tdop":2.21,"hdop":1.48,"gdop":3.86,"pdop":3.17,"satellites":[{"PRN":3,"el":51.0,"az":307.0,"ss":18.0,"used":true,"gnssid":0,"svid":3},{"PRN":14,"el":39.0,"az":76.0,"ss":39.0,"used":true,"gnssid":0,"svid":14},{"PRN":16,"el":47.0,"az":161.0,"ss":33.0,"used":true,"gnssid":0,"svid":16},{"PRN":22,"el":66.0,"az":270.0,"ss":18.0,"used":true,"gnssid":0,"svid":22},{"PRN":26,"el":63.0,"az":112.0,"ss":25.0,"used":true,"gnssid":0,"svid":26},{"PRN":31,"el":41.0,"az":37.0,"ss":36.0,"used":true,"gnssid":0,"svid":31},{"PRN":32,"el":17.0,"az":97.0,"ss":34.0,"used":true,"gnssid":0,"svid":32},{"PRN":1,"el":18.0,"az":240.0,"ss":-1.0,"used":false,"gnssid":0,"svid":1},{"PRN":4,"el":5.0,"az":194.0,"ss":-1.0,"used":false,"gnssid":0,"svid":4},{"PRN":23,"el":28.0,"az":310.0,"ss":-1.0,"used":false,"gnssid":0,"svid":23},{"PRN":25,"el":3.0,"az":35.0,"ss":-1.0,"used":false,"gnssid":0,"svid":25}]}
$GPZDA,204722.00,15,12,2019,00,00*6A
$GPGGA,204722.00,2926.7369,N,09836.3942,W,1,07,1.48,248.19,M,-26.443,M,,*55
$GPRMC,204722.00,A,2926.7369,N,09836.3942,W,0.0399,240.570,151219,4.1,E*7A
$GPGSA,A,3,3,14,16,22,26,31,32,,,,,,3.2,1.5,2.8*0B
$GPGBS,204722.00,16.017,15.360,31.353,,,,*77
{"class":"TPV","mode":3,"time":"2019-12-15T20:47:22.000Z","leapseconds":18,"ept":0.005,"lat":29.445614720,"lon":-98.606570559,"altHAE":221.750,"altMSL":248.193,"alt":248.193,"epx":16.017,"epy":15.360,"epv":31.353,"track":240.5700,"magtrack":244.6253,"magvar":4.1,"speed":0.021,"climb":-0.033,"eps":32.03,"epc":62.86,"velN":-0.010,"velE":-0.018,"velD":0.033,"geoidSep":-26.443,"eph":10.694,"sep":33.127}
$GPZDA,204723.00,15,12,2019,00,00*6B
$GPGGA,204723.00,2926.7369,N,09836.3940,W,1,07,1.48,248.41,M,-26.443,M,,*5B
$GPRMC,204723.00,A,2926.7369,N,09836.3940,W,0.0467,240.570,151219,4.1,E*7F
$GPGSA,A,3,3,14,16,22,26,31,32,,,,,,3.2,1.5,2.8*0B
$GPGBS,204723.00,16.017,15.360,31.203,,,,*72
{"class":"TPV","mode":3,"time":"2019-12-15T20:47:23.000Z","leapseconds":18,"ept":0.005,"lat":29.445615359,"lon":-98.606567087,"altHAE":221.971,"altMSL":248.415,"alt":248.415,"epx":16.017,"epy":15.360,"epv":31.203,"track":240.5700,"magtrack":244.6253,"magvar":4.1,"speed":0.024,"climb":-0.046,"eps":32.03,"epc":62.56,"velN":-0.012,"velE":-0.021,"velD":0.046,"geoidSep":-26.443,"eph":10.585,"sep":32.949}
$GPZDA,204724.00,15,12,2019,00,00*6C
$GPGGA,204724.00,2926.7369,N,09836.3938,W,1,07,1.48,248.63,M,-26.443,M,,*53
$GPRMC,204724.00,A,2926.7369,N,09836.3938,W,0.0366,240.570,151219,4.1,E*71
$GPGSA,A,3,3,14,16,22,26,31,32,,,,,,3.2,1.5,2.8*0B
$GPGBS,204724.00,16.017,15.360,31.050,,,,*71
{"class":"TPV","mode":3,"time":"2019-12-15T20:47:24.000Z","leapseconds":18,"ept":0.005,"lat":29.445615627,"lon":-98.606563571,"altHAE":222.189,"altMSL":248.632,"alt":248.632,"epx":16.017,"epy":15.360,"epv":31.050,"track":240.5700,"magtrack":244.6253,"magvar":4.1,"speed":0.019,"climb":-0.032,"eps":32.03,"epc":62.25,"velN":-0.009,"velE":-0.016,"velD":0.032,"geoidSep":-26.443,"eph":10.484,"sep":32.772}
$GPZDA,204725.00,15,12,2019,00,00*6D
$GPGGA,204725.00,2926.7369,N,09836.3938,W,1,07,1.48,248.85,M,-26.443,M,,*5A
$GPRMC,204725.00,A,2926.7369,N,09836.3938,W,0.0427,240.570,151219,4.1,E*72
$GPGSA,A,3,3,14,16,22,26,31,32,,,,,,3.2,1.5,2.8*0B
$GPGBS,204725.00,16.017,15.360,30.906,,,,*7B
{"class":"TPV","mode":3,"time":"2019-12-15T20:47:25.000Z","leapseconds":18,"ept":0.005,"lat":29.445615055,"lon":-98.606562918,"altHAE":222.407,"altMSL":248.851,"alt":248.851,"epx":16.017,"epy":15.360,"epv":30.906,"track":240.5700,"magtrack":244.6253,"magvar":4.1,"speed":0.022,"climb":-0.029,"eps":32.03,"epc":61.96,"velN":-0.011,"velE":-0.019,"velD":0.029,"geoidSep":-26.443,"eph":10.433,"sep":32.619}
