$GPGSA,A,1,,,,,,,,,,,,,9.9,9.9,9.9*30
{"class":"TPV","mode":1}
$GPGSV,1,1,00*79
$GPRMC,000039.00,V,,,,,,,010108,,,N*7F
$GPGGA,000040.00,,,,,0,,,,,,,,*4C
$GPGSA,A,1,,,,,,,,,,,,,9.9,9.9,9.9*30
{"class":"TPV","mode":1}
$GPGSV,1,1,00*79
$GPRMC,000040.00,V,,,,,,,010108,,,N*71
$GPGGA,000041.00,,,,,0,,,,,,,,*4D
$GPGSA,A,1,,,,,,,,,,,,,9.9,9.9,9.9*30
{"class":"TPV","mode":1}
$GPGSV,1,1,00*79
$GPRMC,000041.00,V,,,,,,,010108,,,N*70
$GPGGA,073658.00,,,,,0,,,,,,,,*47
$GPGSA,A,1,,,,,,,,,,,,,9.9,9.9,9.9*30
{"class":"TPV","mode":1}
$GPGSV,1,1,00*79
$GPRMC,073658.00,V,,,,,,,090710,,,N*7D
$GPGGA,073659.00,,,,,0,,,,,,,,*46
$GPGSA,A,1,,,,,,,,,,,,,9.9,9.9,9.9*30
{"class":"TPV","mode":1}
$GPGSV,1,1,01,75,16,224,*49
{"class":"SKY","vdop":9.90,"hdop":9.90,"pdop":9.90,"satellites":[{"PRN":75,"el":16,"az":224,"ss":0,"used":false,"gnssid":6,"svid":10}]}
$GPRMC,073659.00,V,,,,,,,090710,,,N*7C
$GPGGA,073700.00,,,,,0,,,,,,,,*4B
$GPGSA,A,1,13,16,06,23,73,,,,,,,,9.9,9.9,9.9*36
{"class":"TPV","mode":1}
$GPGSV,1,1,01,75,16,224,*49
{"class":"SKY","vdop":9.90,"hdop":9.90,"pdop":9.90,"satellites":[{"PRN":75,"el":16,"az":224,"ss":0,"used":false,"gnssid":6,"svid":10}]}
$GPRMC,073700.00,V,,,,,,,090710,,,N*71
$GPGGA,073701.00,5355.1495,N,02729.9417,E,1,05,1.7,00242.2,M,0023.3,M,,*63
{"class":"TPV","mode":3,"lat":53.919158333,"lon":27.499028333,"alt":242.200,"epv":227.700}
$GPGSA,A,3,13,16,06,23,73,,,,,,,,2.3,1.7,1.6*34
{"class":"TPV","mode":3,"lat":53.919158333,"lon":27.499028333,"alt":242.200,"epv":227.700}
$GPGSV,1,1,01,75,16,224,*49
{"class":"SKY","vdop":1.60,"hdop":1.70,"pdop":2.30,"satellites":[{"PRN":75,"el":16,"az":224,"ss":0,"used":false,"gnssid":6,"svid":10}]}
$GPRMC,073701.00,A,5355.1495,N,02729.9417,E,000.06702,356.9,090710,,,A*53
{"class":"TPV","mode":3,"time":"2010-07-09T07:37:01.000Z","ept":0.005,"lat":53.919158333,"lon":27.499028333,"alt":242.200,"epv":227.700,"track":356.9000,"speed":0.034}
$GPGGA,073702.00,5355.1508,N,02729.9466,E,1,05,8.3,00244.1,M,0023.3,M,,*6B
$GPGSA,A,3,13,16,06,23,73,,,,,,,,9.9,8.3,8.4*33
$GPGSV,1,1,01,75,16,224,*49
{"class":"SKY","vdop":8.40,"hdop":8.30,"pdop":9.90,"satellites":[{"PRN":75,"el":16,"az":224,"ss":0,"used":false,"gnssid":6,"svid":10}]}
$GPRMC,073702.00,A,5355.1508,N,02729.9466,E,000.07498,266.1,090710,,,A*58
{"class":"TPV","mode":3,"time":"2010-07-09T07:37:02.000Z","ept":0.005,"lat":53.919180000,"lon":27.499110000,"alt":244.100,"epv":36.800,"track":266.1000,"speed":0.039,"climb":1.900,"epc":264.50}
$GPGGA,073703.00,5355.1508,N,02729.9466,E,1,05,8.3,00244.1,M,0023.3,M,,*6A
$GPGSA,A,3,13,16,06,23,73,,,,,,,,9.9,8.3,8.4*33
$GPGSV,1,1,01,75,16,224,*49
{"class":"SKY","vdop":8.40,"hdop":8.30,"pdop":9.90,"satellites":[{"PRN":75,"el":16,"az":224,"ss":0,"used":false,"gnssid":6,"svid":10}]}
$GPRMC,073703.00,A,5355.1508,N,02729.9466,E,000.07498,266.1,090710,,,A*59
{"class":"TPV","mode":3,"time":"2010-07-09T07:37:03.000Z","ept":0.005,"lat":53.919180000,"lon":27.499110000,"alt":244.100,"epv":193.200,"track":266.1000,"speed":0.039,"climb":0.000,"epc":230.00}
$GPGGA,073705.00,5355.1534,N,02729.9549,E,1,05,1.7,00250.9,M,0023.2,M,,*6E
$GPGSA,A,3,13,16,06,23,73,,,,,,,,2.3,1.7,1.6*34
$GPGSV,1,1,02,75,16,224,,81,12,346,*71
{"class":"SKY","vdop":1.60,"hdop":1.70,"pdop":2.30,"satellites":[{"PRN":75,"el":16,"az":224,"ss":0,"used":false,"gnssid":6,"svid":10},{"PRN":81,"el":12,"az":346,"ss":0,"used":false,"gnssid":6,"svid":16}]}
$GPRMC,073705.00,A,5355.1534,N,02729.9549,E,000.10468,235.7,090710,,,A*55
{"class":"TPV","mode":3,"time":"2010-07-09T07:37:05.000Z","ept":0.005,"lat":53.919223333,"lon":27.499248333,"alt":250.900,"epv":193.200,"track":235.7000,"speed":0.054,"climb":3.400,"epc":193.20}
$GPGGA,073706.00,5355.1542,N,02729.9565,E,1,05,8.3,00253.6,M,0023.3,M,,*62
$GPGSA,A,3,13,16,06,23,73,,,,,,,,9.9,8.3,8.3*34
$GPGSV,1,1,03,75,16,224,,81,12,346,,82,13,037,*4C
{"class":"SKY","vdop":8.30,"hdop":8.30,"pdop":9.90,"satellites":[{"PRN":75,"el":16,"az":224,"ss":0,"used":false,"gnssid":6,"svid":10},{"PRN":81,"el":12,"az":346,"ss":0,"used":false,"gnssid":6,"svid":16},{"PRN":82,"el":13,"az":37,"ss":0,"used":false,"gnssid":6,"svid":17}]}
$GPRMC,073706.00,A,5355.1542,N,02729.9565,E,000.11095,243.8,090710,,,A*50
{"class":"TPV","mode":3,"time":"2010-07-09T07:37:06.000Z","ept":0.005,"lat":53.919236667,"lon":27.499275000,"alt":253.600,"epv":36.800,"track":243.8000,"speed":0.057,"climb":2.700,"epc":230.00}
$GPGGA,073707.00,5355.1552,N,02729.9598,E,1,05,1.7,00256.1,M,0023.3,M,,*6F
$GPGSA,A,3,13,16,06,23,73,,,,,,,,2.3,1.7,1.6*34
$GPGSV,1,1,03,75,16,224,,81,12,346,,82,13,037,*4C
{"class":"SKY","vdop":1.60,"hdop":1.70,"pdop":2.30,"satellites":[{"PRN":75,"el":16,"az":224,"ss":0,"used":false,"gnssid":6,"svid":10},{"PRN":81,"el":12,"az":346,"ss":0,"used":false,"gnssid":6,"svid":16},{"PRN":82,"el":13,"az":37,"ss":0,"used":false,"gnssid":6,"svid":17}]}
$GPRMC,073707.00,A,5355.1552,N,02729.9598,E,000.08909,042.3,090710,,,A*5E
{"class":"TPV","mode":3,"time":"2010-07-09T07:37:07.000Z","ept":0.005,"lat":53.919253333,"lon":27.499330000,"alt":256.100,"epv":190.900,"track":42.3000,"speed":0.046,"climb":2.500,"epc":227.70}
$GPGGA,073708.00,5355.1559,N,02729.9626,E,1,05,8.3,00258.9,M,0023.3,M,,*66
$GPGSA,A,3,13,16,06,23,73,,,,,,,,9.9,8.3,8.3*34
$GPGSV,1,1,03,75,16,224,,81,12,346,,82,13,037,*4C
{"class":"SKY","vdop":8.30,"hdop":8.30,"pdop":9.90,"satellites":[{"PRN":75,"el":16,"az":224,"ss":0,"used":false,"gnssid":6,"svid":10},{"PRN":81,"el":12,"az":346,"ss":0,"used":false,"gnssid":6,"svid":16},{"PRN":82,"el":13,"az":37,"ss":0,"used":false,"gnssid":6,"svid":17}]}
$GPRMC,073708.00,A,5355.1559,N,02729.9626,E,000.27917,064.3,090710,,,A*5A
{"class":"TPV","mode":3,"time":"2010-07-09T07:37:08.000Z","ept":0.005,"lat":53.919265000,"lon":27.499376667,"alt":258.900,"epv":36.800,"track":64.3000,"speed":0.144,"climb":2.800,"epc":227.70}
