$GPGSV,6,1,21,67,12,002,40,68,22,053,51,69,08,102,40,74,38,187,00*73
$GPGSV,6,2,21,75,63,278,00,83,15,057,41,84,69,039,44,85,51,252,00*79
$GPGSV,6,3,21,86,01,243,00,02,43,065,50,04,11,040,45,05,09,115,39*74
$GPGSV,6,4,21,10,17,076,42,12,47,124,41,14,02,251,24,21,02,200,00*7E
$GPGSV,6,5,21,23,02,002,45,25,80,156,25,29,58,246,00,30,82,177,00*7D
$GPGSV,6,6,21,31,39,300,00*41
{"class":"SKY","xdop":1.56,"ydop":0.93,"vdop":1.48,"tdop":1.63,"hdop":1.82,"gdop":2.86,"pdop":2.34,"satellites":[{"PRN":67,"el":12.0,"az":2.0,"ss":39.6,"used":true},{"PRN":68,"el":22.0,"az":53.0,"ss":51.4,"used":true},{"PRN":69,"el":8.0,"az":102.0,"ss":39.7,"used":true},{"PRN":74,"el":38.0,"az":187.0,"ss":0.0,"used":false},{"PRN":75,"el":63.0,"az":278.0,"ss":0.0,"used":false},{"PRN":83,"el":15.0,"az":57.0,"ss":41.0,"used":true},{"PRN":84,"el":69.0,"az":39.0,"ss":44.5,"used":true},{"PRN":85,"el":51.0,"az":252.0,"ss":0.0,"used":false},{"PRN":86,"el":1.0,"az":243.0,"ss":0.0,"used":false},{"PRN":2,"el":43.0,"az":65.0,"ss":50.0,"used":true},{"PRN":4,"el":11.0,"az":40.0,"ss":45.3,"used":true},{"PRN":5,"el":9.0,"az":115.0,"ss":39.0,"used":true},{"PRN":10,"el":17.0,"az":76.0,"ss":42.3,"used":true},{"PRN":12,"el":47.0,"az":124.0,"ss":41.3,"used":true},{"PRN":14,"el":2.0,"az":251.0,"ss":23.5,"used":false},{"PRN":21,"el":2.0,"az":200.0,"ss":0.0,"used":false},{"PRN":23,"el":2.0,"az":2.0,"ss":44.8,"used":false},{"PRN":25,"el":80.0,"az":156.0,"ss":24.8,"used":false},{"PRN":29,"el":58.0,"az":246.0,"ss":0.0,"used":false},{"PRN":30,"el":82.0,"az":177.0,"ss":0.0,"used":false},{"PRN":31,"el":39.0,"az":300.0,"ss":0.0,"used":false}]}
$GPGGA,125026.00,5355.1637,N,02730.0245,E,1,10,1.57,250.65,M,23.270,M,,*6C
$GPRMC,125026.00,A,5355.1637,N,02730.0245,E,0.0319,207.214,070910,8.2,E*66
$GPGSA,A,3,67,68,69,83,84,2,4,5,,,,,2.3,1.6,1.7*06
$GPGBS,125026.00,23.432,13.910,34.010,,,,*7B
{"class":"TPV","mode":3,"time":"2010-09-07T12:50:26.000Z","ept":0.005,"lat":53.919395650,"lon":27.500408874,"altHAE":273.924,"altMSL":250.655,"epx":23.432,"epy":13.910,"epv":34.010,"track":207.2138,"magtrack":215.3775,"magvar":8.2,"speed":0.016,"geoidSep":23.270,"eph":34.516,"sep":44.505}
$GPGSV,6,1,21,67,12,002,40,68,22,053,52,69,08,102,40,74,38,187,00*70
$GPGSV,6,2,21,75,63,278,00,83,15,057,41,84,69,039,45,85,51,252,00*78
$GPGSV,6,3,21,86,01,243,00,02,43,065,50,04,11,040,46,05,09,115,38*76
$GPGSV,6,4,21,10,17,076,42,12,47,124,41,14,02,251,24,21,02,200,00*7E
$GPGSV,6,5,21,23,02,002,45,25,80,156,26,29,58,246,00,30,82,177,00*7E
$GPGSV,6,6,21,31,39,300,00*41
{"class":"SKY","xdop":1.56,"ydop":0.93,"vdop":1.73,"tdop":1.62,"hdop":1.57,"gdop":2.85,"pdop":2.34,"satellites":[{"PRN":67,"el":12.0,"az":2.0,"ss":40.2,"used":true},{"PRN":68,"el":22.0,"az":53.0,"ss":51.6,"used":true},{"PRN":69,"el":8.0,"az":102.0,"ss":40.1,"used":true},{"PRN":74,"el":38.0,"az":187.0,"ss":0.0,"used":false},{"PRN":75,"el":63.0,"az":278.0,"ss":0.0,"used":false},{"PRN":83,"el":15.0,"az":57.0,"ss":41.4,"used":true},{"PRN":84,"el":69.0,"az":39.0,"ss":44.6,"used":true},{"PRN":85,"el":51.0,"az":252.0,"ss":0.0,"used":false},{"PRN":86,"el":1.0,"az":243.0,"ss":0.0,"used":false},{"PRN":2,"el":43.0,"az":65.0,"ss":50.0,"used":true},{"PRN":4,"el":11.0,"az":40.0,"ss":45.6,"used":true},{"PRN":5,"el":9.0,"az":115.0,"ss":38.5,"used":true},{"PRN":10,"el":17.0,"az":76.0,"ss":41.7,"used":true},{"PRN":12,"el":47.0,"az":124.0,"ss":41.2,"used":true},{"PRN":14,"el":2.0,"az":251.0,"ss":23.5,"used":false},{"PRN":21,"el":2.0,"az":200.0,"ss":0.0,"used":false},{"PRN":23,"el":2.0,"az":2.0,"ss":44.7,"used":false},{"PRN":25,"el":80.0,"az":156.0,"ss":25.8,"used":false},{"PRN":29,"el":58.0,"az":246.0,"ss":0.0,"used":false},{"PRN":30,"el":82.0,"az":177.0,"ss":0.0,"used":false},{"PRN":31,"el":39.0,"az":300.0,"ss":0.0,"used":false}]}
$GPGGA,125027.00,5355.1638,N,02730.0245,E,1,10,1.57,250.65,M,23.270,M,,*62
$GPRMC,125027.00,A,5355.1638,N,02730.0245,E,0.0338,208.578,070910,8.2,E*69
$GPGSA,A,3,67,68,69,83,84,2,4,5,,,,,2.3,1.6,1.7*06
$GPGBS,125027.00,23.432,13.910,34.010,,,,*7A
{"class":"TPV","mode":3,"time":"2010-09-07T12:50:27.000Z","ept":0.005,"lat":53.919396388,"lon":27.500408124,"altHAE":273.773,"altMSL":250.655,"epx":23.432,"epy":13.910,"epv":34.010,"track":208.5776,"magtrack":215.3775,"magvar":8.2,"speed":0.017,"climb":-0.151,"eps":46.86,"epc":68.02,"geoidSep":23.270,"eph":34.516,"sep":44.505}
$GPGSV,6,1,21,67,12,002,41,68,22,053,52,69,08,102,40,74,38,187,00*71
$GPGSV,6,2,21,75,63,278,00,83,15,057,41,84,69,039,44,85,51,252,00*79
$GPGSV,6,3,21,86,01,243,00,02,43,065,50,04,11,040,46,05,09,115,38*76
$GPGSV,6,4,21,10,17,076,41,12,47,124,41,14,02,251,22,21,02,200,00*7B
$GPGSV,6,5,21,23,02,002,45,25,80,156,25,29,58,246,00,30,82,177,00*7D
$GPGSV,6,6,21,31,39,300,00*41
{"class":"SKY","xdop":1.56,"ydop":0.93,"vdop":1.73,"tdop":1.62,"hdop":1.57,"gdop":2.85,"pdop":2.34,"satellites":[{"PRN":67,"el":12.0,"az":2.0,"ss":40.8,"used":true},{"PRN":68,"el":22.0,"az":53.0,"ss":51.6,"used":true},{"PRN":69,"el":8.0,"az":102.0,"ss":40.0,"used":true},{"PRN":74,"el":38.0,"az":187.0,"ss":0.0,"used":false},{"PRN":75,"el":63.0,"az":278.0,"ss":0.0,"used":false},{"PRN":83,"el":15.0,"az":57.0,"ss":41.4,"used":true},{"PRN":84,"el":69.0,"az":39.0,"ss":44.2,"used":true},{"PRN":85,"el":51.0,"az":252.0,"ss":0.0,"used":false},{"PRN":86,"el":1.0,"az":243.0,"ss":0.0,"used":false},{"PRN":2,"el":43.0,"az":65.0,"ss":49.9,"used":true},{"PRN":4,"el":11.0,"az":40.0,"ss":45.9,"used":true},{"PRN":5,"el":9.0,"az":115.0,"ss":37.9,"used":true},{"PRN":10,"el":17.0,"az":76.0,"ss":41.2,"used":true},{"PRN":12,"el":47.0,"az":124.0,"ss":41.3,"used":true},{"PRN":14,"el":2.0,"az":251.0,"ss":22.3,"used":false},{"PRN":21,"el":2.0,"az":200.0,"ss":0.0,"used":false},{"PRN":23,"el":2.0,"az":2.0,"ss":44.7,"used":false},{"PRN":25,"el":80.0,"az":156.0,"ss":25.4,"used":false},{"PRN":29,"el":58.0,"az":246.0,"ss":0.0,"used":false},{"PRN":30,"el":82.0,"az":177.0,"ss":0.0,"used":false},{"PRN":31,"el":39.0,"az":300.0,"ss":0.0,"used":false}]}
$GPGGA,125028.00,5355.1638,N,02730.0246,E,1,10,1.57,250.65,M,23.260,M,,*6F
$GPRMC,125028.00,A,5355.1638,N,02730.0246,E,0.0304,198.298,070910,8.2,E*69
$GPGSA,A,3,67,68,69,83,84,2,4,5,,,,,2.3,1.6,1.7*06
$GPGBS,125028.00,23.432,13.910,34.010,,,,*75
{"class":"TPV","mode":3,"time":"2010-09-07T12:50:28.000Z","ept":0.005,"lat":53.919396987,"lon":27.500409347,"altHAE":273.769,"altMSL":250.655,"epx":23.432,"epy":13.910,"epv":34.010,"track":198.2983,"magtrack":215.3775,"magvar":8.2,"speed":0.016,"climb":-0.151,"eps":46.86,"epc":68.02,"geoidSep":23.260,"eph":34.516,"sep":44.505}
$GPGSV,6,1,21,67,12,002,41,68,22,053,52,69,08,102,40,74,38,187,00*71
$GPGSV,6,2,21,75,63,278,00,83,15,058,41,84,69,039,44,85,51,252,00*76
$GPGSV,6,3,21,86,01,243,00,02,43,065,50,04,11,040,46,05,09,115,38*76
$GPGSV,6,4,21,10,17,076,41,12,47,124,41,14,02,251,23,21,02,200,00*7A
$GPGSV,6,5,21,23,02,002,45,25,80,156,25,29,58,246,00,30,82,177,00*7D
$GPGSV,6,6,21,31,39,300,00*41
{"class":"SKY","xdop":1.56,"ydop":0.93,"vdop":1.73,"tdop":1.62,"hdop":1.57,"gdop":2.85,"pdop":2.34,"satellites":[{"PRN":67,"el":12.0,"az":2.0,"ss":41.3,"used":true},{"PRN":68,"el":22.0,"az":53.0,"ss":51.5,"used":true},{"PRN":69,"el":8.0,"az":102.0,"ss":39.7,"used":true},{"PRN":74,"el":38.0,"az":187.0,"ss":0.0,"used":false},{"PRN":75,"el":63.0,"az":278.0,"ss":0.0,"used":false},{"PRN":83,"el":15.0,"az":58.0,"ss":41.2,"used":true},{"PRN":84,"el":69.0,"az":39.0,"ss":43.9,"used":true},{"PRN":85,"el":51.0,"az":252.0,"ss":0.0,"used":false},{"PRN":86,"el":1.0,"az":243.0,"ss":0.0,"used":false},{"PRN":2,"el":43.0,"az":65.0,"ss":49.6,"used":true},{"PRN":4,"el":11.0,"az":40.0,"ss":46.1,"used":true},{"PRN":5,"el":9.0,"az":115.0,"ss":37.5,"used":true},{"PRN":10,"el":17.0,"az":76.0,"ss":41.0,"used":true},{"PRN":12,"el":47.0,"az":124.0,"ss":41.3,"used":true},{"PRN":14,"el":2.0,"az":251.0,"ss":22.8,"used":false},{"PRN":21,"el":2.0,"az":200.0,"ss":0.0,"used":false},{"PRN":23,"el":2.0,"az":2.0,"ss":44.8,"used":false},{"PRN":25,"el":80.0,"az":156.0,"ss":25.1,"used":false},{"PRN":29,"el":58.0,"az":246.0,"ss":0.0,"used":false},{"PRN":30,"el":82.0,"az":177.0,"ss":0.0,"used":false},{"PRN":31,"el":39.0,"az":300.0,"ss":0.0,"used":false}]}
$GPGGA,125029.00,5355.1639,N,02730.0248,E,1,10,1.57,250.65,M,23.252,M,,*60
$GPRMC,125029.00,A,5355.1639,N,02730.0248,E,0.0266,178.518,070910,8.2,E*63
$GPGSA,A,3,67,68,69,83,84,2,4,5,,,,,2.3,1.6,1.7*06
$GPGBS,125029.00,23.432,13.910,34.010,,,,*74
{"class":"TPV","mode":3,"time":"2010-09-07T12:50:29.000Z","ept":0.005,"lat":53.919397821,"lon":27.500413011,"altHAE":273.924,"altMSL":250.655,"epx":23.432,"epy":13.910,"epv":34.010,"track":178.5179,"magtrack":215.3775,"magvar":8.2,"speed":0.014,"climb":-0.151,"eps":46.86,"epc":68.02,"geoidSep":23.252,"eph":34.516,"sep":44.505}
