$GPGGA,185244.000,4854.2575,N,00219.9816,E,1,05,1.7,124.4,M,47.3,M,,0000*56
{"class":"TPV","mode":3,"lat":48.904291667,"lon":2.333026667,"altHAE":171.700,"altMSL":124.400,"magvar":0.8,"geoidSep":47.300,"eph":32.300}
$GPGSA,A,3,14,01,30,06,09,,,,,,,,2.8,1.7,2.2*36
{"class":"TPV","mode":3,"lat":48.904291667,"lon":2.333026667,"altHAE":171.700,"altMSL":124.400,"epv":50.600,"magvar":0.8,"geoidSep":47.300,"eph":32.300,"sep":53.200}
$GPGSV,3,1,11,30,79,308,20,05,54,079,16,06,43,204,29,14,39,247,41*75
$GPGSV,3,2,11,01,31,303,31,02,28,077,20,25,17,309,,09,17,138,25*7A
$GPGSV,3,3,11,04,14,040,,24,02,020,,20,00,342,*4D
{"class":"SKY","xdop":1.14,"ydop":1.23,"vdop":2.20,"tdop":1.49,"hdop":1.70,"gdop":3.13,"pdop":2.80,"satellites":[{"PRN":30,"el":79.0,"az":308.0,"ss":20.0,"used":true,"gnssid":0,"svid":30},{"PRN":5,"el":54.0,"az":79.0,"ss":16.0,"used":false,"gnssid":0,"svid":5},{"PRN":6,"el":43.0,"az":204.0,"ss":29.0,"used":true,"gnssid":0,"svid":6},{"PRN":14,"el":39.0,"az":247.0,"ss":41.0,"used":true,"gnssid":0,"svid":14},{"PRN":1,"el":31.0,"az":303.0,"ss":31.0,"used":true,"gnssid":0,"svid":1},{"PRN":2,"el":28.0,"az":77.0,"ss":20.0,"used":false,"gnssid":0,"svid":2},{"PRN":25,"el":17.0,"az":309.0,"ss":0.0,"used":false,"gnssid":0,"svid":25},{"PRN":9,"el":17.0,"az":138.0,"ss":25.0,"used":true,"gnssid":0,"svid":9},{"PRN":4,"el":14.0,"az":40.0,"ss":0.0,"used":false,"gnssid":0,"svid":4},{"PRN":24,"el":2.0,"az":20.0,"ss":0.0,"used":false,"gnssid":0,"svid":24},{"PRN":20,"el":0.0,"az":342.0,"ss":0.0,"used":false,"gnssid":0,"svid":20}]}
$GPRMC,185244.000,A,4854.2575,N,00219.9816,E,0.00,296.61,210706,,,A*6C
{"class":"TPV","mode":3,"time":"2006-07-21T18:52:44.000Z","ept":0.005,"lat":48.904291667,"lon":2.333026667,"altHAE":171.700,"altMSL":124.400,"epx":17.084,"epy":18.510,"epv":50.600,"track":296.6100,"magtrack":297.4311,"magvar":0.8,"speed":0.000,"geoidSep":47.300,"eph":32.300,"sep":53.200}
$GPVTG,296.61,T,,M,0.00,N,0.0,K,A*07
$GPGGA,185245.000,4854.2575,N,00219.9815,E,1,05,1.7,124.1,M,47.3,M,,0000*51
$GPRMC,185245.000,A,4854.2575,N,00219.9815,E,0.00,296.61,210706,,,A*6E
{"class":"TPV","mode":3,"time":"2006-07-21T18:52:45.000Z","ept":0.005,"lat":48.904291667,"lon":2.333025000,"altHAE":171.400,"altMSL":124.100,"epx":17.084,"epy":18.510,"epv":50.600,"track":296.6100,"magtrack":297.4311,"magvar":0.8,"speed":0.000,"climb":-0.300,"eps":37.02,"epc":101.20,"geoidSep":47.300,"eph":32.300,"sep":53.200}
$GPVTG,296.61,T,,M,0.00,N,0.0,K,A*07
$GPGGA,185246.000,4854.2575,N,00219.9814,E,1,05,1.7,124.0,M,47.3,M,,0000*52
$GPRMC,185246.000,A,4854.2575,N,00219.9814,E,0.00,296.61,210706,,,A*6C
{"class":"TPV","mode":3,"time":"2006-07-21T18:52:46.000Z","ept":0.005,"lat":48.904291667,"lon":2.333023333,"altHAE":171.300,"altMSL":124.000,"epx":17.084,"epy":18.510,"epv":50.600,"track":296.6100,"magtrack":297.4311,"magvar":0.8,"speed":0.000,"climb":-0.100,"eps":37.02,"epc":101.20,"geoidSep":47.300,"eph":32.300,"sep":53.200}
$GPVTG,296.61,T,,M,0.00,N,0.0,K,A*07
$GPGGA,185247.000,4854.2575,N,00219.9814,E,1,05,1.7,124.3,M,47.3,M,,0000*50
$GPRMC,185247.000,A,4854.2575,N,00219.9814,E,0.00,296.61,210706,,,A*6D
{"class":"TPV","mode":3,"time":"2006-07-21T18:52:47.000Z","ept":0.005,"lat":48.904291667,"lon":2.333023333,"altHAE":171.600,"altMSL":124.300,"epx":17.084,"epy":18.510,"epv":50.600,"track":296.6100,"magtrack":297.4311,"magvar":0.8,"speed":0.000,"climb":0.300,"eps":37.02,"epc":101.20,"geoidSep":47.300,"eph":32.300,"sep":53.200}
$GPVTG,296.61,T,,M,0.00,N,0.0,K,A*07
$GPGGA,185248.000,4854.2574,N,00219.9812,E,1,05,1.7,123.6,M,47.3,M,,0000*5A
$GPRMC,185248.000,A,4854.2574,N,00219.9812,E,0.00,296.61,210706,,,A*65
{"class":"TPV","mode":3,"time":"2006-07-21T18:52:48.000Z","ept":0.005,"lat":48.904290000,"lon":2.333020000,"altHAE":170.900,"altMSL":123.600,"epx":17.084,"epy":18.510,"epv":50.600,"track":296.6100,"magtrack":297.4311,"magvar":0.8,"speed":0.000,"climb":-0.700,"eps":37.02,"epc":101.20,"geoidSep":47.300,"eph":32.300,"sep":53.200}
$GPVTG,296.61,T,,M,0.00,N,0.0,K,A*07
$GPGGA,185249.000,4854.2572,N,00219.9810,E,1,05,1.7,123.0,M,47.3,M,,0000*59
$GPGSA,A,3,14,01,30,06,09,,,,,,,,2.8,1.7,2.2*36
$GPGSV,3,1,11,30,79,308,22,05,54,079,16,06,43,204,28,14,39,247,41*76
$GPGSV,3,2,11,01,31,303,31,02,28,077,21,25,17,309,07,09,17,138,25*7C
$GPGSV,3,3,11,04,14,040,15,24,02,020,17,20,00,342,13*4D
{"class":"SKY","xdop":1.14,"ydop":1.23,"vdop":2.20,"tdop":1.49,"hdop":1.70,"gdop":3.13,"pdop":2.80,"satellites":[{"PRN":30,"el":79.0,"az":308.0,"ss":22.0,"used":true,"gnssid":0,"svid":30},{"PRN":5,"el":54.0,"az":79.0,"ss":16.0,"used":false,"gnssid":0,"svid":5},{"PRN":6,"el":43.0,"az":204.0,"ss":28.0,"used":true,"gnssid":0,"svid":6},{"PRN":14,"el":39.0,"az":247.0,"ss":41.0,"used":true,"gnssid":0,"svid":14},{"PRN":1,"el":31.0,"az":303.0,"ss":31.0,"used":true,"gnssid":0,"svid":1},{"PRN":2,"el":28.0,"az":77.0,"ss":21.0,"used":false,"gnssid":0,"svid":2},{"PRN":25,"el":17.0,"az":309.0,"ss":7.0,"used":false,"gnssid":0,"svid":25},{"PRN":9,"el":17.0,"az":138.0,"ss":25.0,"used":true,"gnssid":0,"svid":9},{"PRN":4,"el":14.0,"az":40.0,"ss":15.0,"used":false,"gnssid":0,"svid":4},{"PRN":24,"el":2.0,"az":20.0,"ss":17.0,"used":false,"gnssid":0,"svid":24},{"PRN":20,"el":0.0,"az":342.0,"ss":13.0,"used":false,"gnssid":0,"svid":20}]}
$GPRMC,185249.000,A,4854.2572,N,00219.9810,E,0.00,296.61,210706,,,A*60
{"class":"TPV","mode":3,"time":"2006-07-21T18:52:49.000Z","ept":0.005,"lat":48.904286667,"lon":2.333016667,"altHAE":170.300,"altMSL":123.000,"epx":17.084,"epy":18.510,"epv":50.600,"track":296.6100,"magtrack":297.4311,"magvar":0.8,"speed":0.000,"climb":-0.600,"eps":37.02,"epc":101.20,"geoidSep":47.300,"eph":32.300,"sep":53.200}
$GPVTG,296.61,T,,M,0.00,N,0.0,K,A*07
$GPGGA,185250.000,4854.2571,N,00219.9807,E,1,05,1.7,122.0,M,47.3,M,,0000*55
$GPRMC,185250.000,A,4854.2571,N,00219.9807,E,0.00,296.61,210706,,,A*6D
{"class":"TPV","mode":3,"time":"2006-07-21T18:52:50.000Z","ept":0.005,"lat":48.904285000,"lon":2.333011667,"altHAE":169.300,"altMSL":122.000,"epx":17.084,"epy":18.510,"epv":50.600,"track":296.6100,"magtrack":297.4311,"magvar":0.8,"speed":0.000,"climb":-1.000,"eps":37.02,"epc":101.20,"geoidSep":47.300,"eph":32.300,"sep":53.200}
$GPVTG,296.61,T,,M,0.00,N,0.0,K,A*07
$GPGGA,185251.000,4854.2570,N,00219.9806,E,1,05,1.7,121.8,M,47.3,M,,0000*5F
$GPRMC,185251.000,A,4854.2570,N,00219.9806,E,0.00,296.61,210706,,,A*6C
{"class":"TPV","mode":3,"time":"2006-07-21T18:52:51.000Z","ept":0.005,"lat":48.904283333,"lon":2.333010000,"altHAE":169.100,"altMSL":121.800,"epx":17.084,"epy":18.510,"epv":50.600,"track":296.6100,"magtrack":297.4311,"magvar":0.8,"speed":0.000,"climb":-0.200,"eps":37.02,"epc":101.20,"geoidSep":47.300,"eph":32.300,"sep":53.200}
$GPVTG,296.61,T,,M,0.00,N,0.0,K,A*07
$GPGGA,185252.000,4854.2569,N,00219.9804,E,1,05,1.7,121.2,M,47.3,M,,0000*5C
$GPRMC,185252.000,A,4854.2569,N,00219.9804,E,0.00,296.61,210706,,,A*65
{"class":"TPV","mode":3,"time":"2006-07-21T18:52:52.000Z","ept":0.005,"lat":48.904281667,"lon":2.333006667,"altHAE":168.500,"altMSL":121.200,"epx":17.084,"epy":18.510,"epv":50.600,"track":296.6100,"magtrack":297.4311,"magvar":0.8,"speed":0.000,"climb":-0.600,"eps":37.02,"epc":101.20,"geoidSep":47.300,"eph":32.300,"sep":53.200}
$GPVTG,296.61,T,,M,0.00,N,0.0,K,A*07
$GPGGA,185253.000,4854.2569,N,00219.9803,E,1,05,1.7,121.1,M,47.3,M,,0000*59
$GPRMC,185253.000,A,4854.2569,N,00219.9803,E,0.00,296.61,210706,,,A*63
{"class":"TPV","mode":3,"time":"2006-07-21T18:52:53.000Z","ept":0.005,"lat":48.904281667,"lon":2.333005000,"altHAE":168.400,"altMSL":121.100,"epx":17.084,"epy":18.510,"epv":50.600,"track":296.6100,"magtrack":297.4311,"magvar":0.8,"speed":0.000,"climb":-0.100,"eps":37.02,"epc":101.20,"geoidSep":47.300,"eph":32.300,"sep":53.200}
$GPVTG,296.61,T,,M,0.00,N,0.0,K,A*07
$GPGGA,185254.000,4854.2565,N,00219.9796,E,1,05,1.7,118.1,M,47.3,M,,0000*5B
$GPGSA,A,3,14,01,30,06,09,,,,,,,,2.8,1.7,2.2*36
$GPGSV,3,1,11,30,79,308,23,05,54,079,17,06,43,204,28,14,39,247,40*77
$GPGSV,3,2,11,01,31,303,31,02,28,077,20,25,17,309,11,09,17,138,25*7A
$GPGSV,3,3,11,04,14,040,08,24,02,020,11,20,00,342,*45
{"class":"SKY","xdop":1.14,"ydop":1.23,"vdop":2.20,"tdop":1.49,"hdop":1.70,"gdop":3.13,"pdop":2.80,"satellites":[{"PRN":30,"el":79.0,"az":308.0,"ss":23.0,"used":true,"gnssid":0,"svid":30},{"PRN":5,"el":54.0,"az":79.0,"ss":17.0,"used":false,"gnssid":0,"svid":5},{"PRN":6,"el":43.0,"az":204.0,"ss":28.0,"used":true,"gnssid":0,"svid":6},{"PRN":14,"el":39.0,"az":247.0,"ss":40.0,"used":true,"gnssid":0,"svid":14},{"PRN":1,"el":31.0,"az":303.0,"ss":31.0,"used":true,"gnssid":0,"svid":1},{"PRN":2,"el":28.0,"az":77.0,"ss":20.0,"used":false,"gnssid":0,"svid":2},{"PRN":25,"el":17.0,"az":309.0,"ss":11.0,"used":false,"gnssid":0,"svid":25},{"PRN":9,"el":17.0,"az":138.0,"ss":25.0,"used":true,"gnssid":0,"svid":9},{"PRN":4,"el":14.0,"az":40.0,"ss":8.0,"used":false,"gnssid":0,"svid":4},{"PRN":24,"el":2.0,"az":20.0,"ss":11.0,"used":false,"gnssid":0,"svid":24},{"PRN":20,"el":0.0,"az":342.0,"ss":0.0,"used":false,"gnssid":0,"svid":20}]}
$GPRMC,185254.000,A,4854.2565,N,00219.9796,E,0.00,296.61,210706,,,A*6B
{"class":"TPV","mode":3,"time":"2006-07-21T18:52:54.000Z","ept":0.005,"lat":48.904275000,"lon":2.332993333,"altHAE":165.400,"altMSL":118.100,"epx":17.084,"epy":18.510,"epv":50.600,"track":296.6100,"magtrack":297.4311,"magvar":0.8,"speed":0.000,"climb":-3.000,"eps":37.02,"epc":101.20,"geoidSep":47.300,"eph":32.300,"sep":53.200}
$GPVTG,296.61,T,,M,0.00,N,0.0,K,A*07
$GPGGA,185255.000,4854.2562,N,00219.9788,E,1,05,1.7,115.0,M,47.3,M,,0000*5E
$GPRMC,185255.000,A,4854.2562,N,00219.9788,E,0.00,296.61,210706,,,A*62
{"class":"TPV","mode":3,"time":"2006-07-21T18:52:55.000Z","ept":0.005,"lat":48.904270000,"lon":2.332980000,"altHAE":162.300,"altMSL":115.000,"epx":17.084,"epy":18.510,"epv":50.600,"track":296.6100,"magtrack":297.4311,"magvar":0.8,"speed":0.000,"climb":-3.100,"eps":37.02,"epc":101.20,"geoidSep":47.300,"eph":32.300,"sep":53.200}
$GPVTG,296.61,T,,M,0.00,N,0.0,K,A*07
$GPGGA,185256.000,4854.2559,N,00219.9783,E,1,05,1.7,113.0,M,47.3,M,,0000*58
$GPRMC,185256.000,A,4854.2559,N,00219.9783,E,0.00,296.61,210706,,,A*62
{"class":"TPV","mode":3,"time":"2006-07-21T18:52:56.000Z","ept":0.005,"lat":48.904265000,"lon":2.332971667,"altHAE":160.300,"altMSL":113.000,"epx":17.084,"epy":18.510,"epv":50.600,"track":296.6100,"magtrack":297.4311,"magvar":0.8,"speed":0.000,"climb":-2.000,"eps":37.02,"epc":101.20,"geoidSep":47.300,"eph":32.300,"sep":53.200}
$GPVTG,296.61,T,,M,0.00,N,0.0,K,A*07
$GPGGA,185257.000,4854.2556,N,00219.9777,E,1,05,1.7,110.4,M,47.3,M,,0000*5A
$GPRMC,185257.000,A,4854.2556,N,00219.9777,E,0.00,296.61,210706,,,A*67
{"class":"TPV","mode":3,"time":"2006-07-21T18:52:57.000Z","ept":0.005,"lat":48.904260000,"lon":2.332961667,"altHAE":157.700,"altMSL":110.400,"epx":17.084,"epy":18.510,"epv":50.600,"track":296.6100,"magtrack":297.4311,"magvar":0.8,"speed":0.000,"climb":-2.600,"eps":37.02,"epc":101.20,"geoidSep":47.300,"eph":32.300,"sep":53.200}
$GPVTG,296.61,T,,M,0.00,N,0.0,K,A*07
$GPGGA,185258.000,4854.2554,N,00219.9772,E,1,05,1.7,108.4,M,47.3,M,,0000*5B
$GPRMC,185258.000,A,4854.2554,N,00219.9772,E,0.00,296.61,210706,,,A*6F
{"class":"TPV","mode":3,"time":"2006-07-21T18:52:58.000Z","ept":0.005,"lat":48.904256667,"lon":2.332953333,"altHAE":155.700,"altMSL":108.400,"epx":17.084,"epy":18.510,"epv":50.600,"track":296.6100,"magtrack":297.4311,"magvar":0.8,"speed":0.000,"climb":-2.000,"eps":37.02,"epc":101.20,"geoidSep":47.300,"eph":32.300,"sep":53.200}
$GPVTG,296.61,T,,M,0.00,N,0.0,K,A*07
$GPGGA,185259.000,4854.2550,N,00219.9764,E,1,05,1.7,105.3,M,47.3,M,,0000*53
$GPGSA,A,3,14,01,30,06,09,,,,,,,,2.8,1.7,2.2*36
$GPGSV,3,1,11,30,79,308,24,05,54,079,17,06,43,204,29,14,39,247,40*71
$GPGSV,3,2,11,01,31,303,31,02,28,077,13,25,17,309,10,09,17,138,25*7B
$GPGSV,3,3,11,04,14,040,10,24,02,020,18,20,00,342,09*4C
{"class":"SKY","xdop":1.14,"ydop":1.23,"vdop":2.20,"tdop":1.49,"hdop":1.70,"gdop":3.13,"pdop":2.80,"satellites":[{"PRN":30,"el":79.0,"az":308.0,"ss":24.0,"used":true,"gnssid":0,"svid":30},{"PRN":5,"el":54.0,"az":79.0,"ss":17.0,"used":false,"gnssid":0,"svid":5},{"PRN":6,"el":43.0,"az":204.0,"ss":29.0,"used":true,"gnssid":0,"svid":6},{"PRN":14,"el":39.0,"az":247.0,"ss":40.0,"used":true,"gnssid":0,"svid":14},{"PRN":1,"el":31.0,"az":303.0,"ss":31.0,"used":true,"gnssid":0,"svid":1},{"PRN":2,"el":28.0,"az":77.0,"ss":13.0,"used":false,"gnssid":0,"svid":2},{"PRN":25,"el":17.0,"az":309.0,"ss":10.0,"used":false,"gnssid":0,"svid":25},{"PRN":9,"el":17.0,"az":138.0,"ss":25.0,"used":true,"gnssid":0,"svid":9},{"PRN":4,"el":14.0,"az":40.0,"ss":10.0,"used":false,"gnssid":0,"svid":4},{"PRN":24,"el":2.0,"az":20.0,"ss":18.0,"used":false,"gnssid":0,"svid":24},{"PRN":20,"el":0.0,"az":342.0,"ss":9.0,"used":false,"gnssid":0,"svid":20}]}
$GPRMC,185259.000,A,4854.2550,N,00219.9764,E,0.00,296.61,210706,,,A*6D
{"class":"TPV","mode":3,"time":"2006-07-21T18:52:59.000Z","ept":0.005,"lat":48.904250000,"lon":2.332940000,"altHAE":152.600,"altMSL":105.300,"epx":17.084,"epy":18.510,"epv":50.600,"track":296.6100,"magtrack":297.4311,"magvar":0.8,"speed":0.000,"climb":-3.100,"eps":37.02,"epc":101.20,"geoidSep":47.300,"eph":32.300,"sep":53.200}
$GPVTG,296.61,T,,M,0.00,N,0.0,K,A*07
$GPGGA,185300.000,4854.2547,N,00219.9759,E,1,05,1.7,103.6,M,47.3,M,,0000*55
$GPRMC,185300.000,A,4854.2547,N,00219.9759,E,0.00,296.61,210706,,,A*68
{"class":"TPV","mode":3,"time":"2006-07-21T18:53:00.000Z","ept":0.005,"lat":48.904245000,"lon":2.332931667,"altHAE":150.900,"altMSL":103.600,"epx":17.084,"epy":18.510,"epv":50.600,"track":296.6100,"magtrack":297.4311,"magvar":0.8,"speed":0.000,"climb":-1.700,"eps":37.02,"epc":101.20,"geoidSep":47.300,"eph":32.300,"sep":53.200}
$GPVTG,296.61,T,,M,0.00,N,0.0,K,A*07
$GPGGA,185301.000,4854.2545,N,00219.9754,E,1,05,1.7,101.5,M,47.3,M,,0000*5A
$GPRMC,185301.000,A,4854.2545,N,00219.9754,E,0.00,296.61,210706,,,A*66
{"class":"TPV","mode":3,"time":"2006-07-21T18:53:01.000Z","ept":0.005,"lat":48.904241667,"lon":2.332923333,"altHAE":148.800,"altMSL":101.500,"epx":17.084,"epy":18.510,"epv":50.600,"track":296.6100,"magtrack":297.4311,"magvar":0.8,"speed":0.000,"climb":-2.100,"eps":37.02,"epc":101.20,"geoidSep":47.300,"eph":32.300,"sep":53.200}
$GPVTG,296.61,T,,M,0.00,N,0.0,K,A*07
$GPGGA,185302.000,4854.2543,N,00219.9751,E,1,05,1.7,100.1,M,47.3,M,,0000*5F
$GPRMC,185302.000,A,4854.2543,N,00219.9751,E,0.00,296.61,210706,,,A*66
{"class":"TPV","mode":3,"time":"2006-07-21T18:53:02.000Z","ept":0.005,"lat":48.904238333,"lon":2.332918333,"altHAE":147.400,"altMSL":100.100,"epx":17.084,"epy":18.510,"epv":50.600,"track":296.6100,"magtrack":297.4311,"magvar":0.8,"speed":0.000,"climb":-1.400,"eps":37.02,"epc":101.20,"geoidSep":47.300,"eph":32.300,"sep":53.200}
$GPVTG,296.61,T,,M,0.00,N,0.0,K,A*07
$GPGGA,185303.000,4854.2543,N,00219.9750,E,1,05,1.7,99.5,M,47.3,M,,0000*6A
$GPRMC,185303.000,A,4854.2543,N,00219.9750,E,0.00,296.61,210706,,,A*66
{"class":"TPV","mode":3,"time":"2006-07-21T18:53:03.000Z","ept":0.005,"lat":48.904238333,"lon":2.332916667,"altHAE":146.800,"altMSL":99.500,"epx":17.084,"epy":18.510,"epv":50.600,"track":296.6100,"magtrack":297.4311,"magvar":0.8,"speed":0.000,"climb":-0.600,"eps":37.02,"epc":101.20,"geoidSep":47.300,"eph":32.300,"sep":53.200}
$GPVTG,296.61,T,,M,0.00,N,0.0,K,A*07
