# Name: Navisys GR601-W
# Chipset: UBLOX 6H
# Submitter: Eric S. Raymond <esr@thyrsus.com>
# Date: 2013-10-24
# Location: Malvern PA, 40N 75W
$GPGSV,3,2,11,09,27,201,18,11,25,054,14,17,55,292,28,20,30,116,15*7B
$GPGSV,3,3,11,24,05,327,,28,84,072,33,32,23,078,26*44
$GPGLL,4002.10504,N,07531.20566,W,143251.00,A,A*7A
$GPRMC,143252.00,A,4002.10513,N,07531.20562,W,0.016,,241013,,,A*60
$GPVTG,,T,,M,0.016,N,0.030,K,A*27
$GPGGA,143252.00,4002.10513,N,07531.20562,W,1,07,1.72,183.8,M,-34.4,M,,*61
$GPGSA,A,3,28,17,01,08,09,11,32,,,,,,2.94,1.72,2.39*0C
$GPGSV,3,1,11,01,48,051,27,04,20,215,13,07,06,177,,08,31,196,19*79
$GPGSV,3,2,11,09,27,201,17,11,25,054,14,17,55,292,28,20,30,116,14*75
$GPGSV,3,3,11,24,05,327,,28,84,072,33,32,23,078,27*45
$GPGLL,4002.10513,N,07531.20562,W,143252.00,A,A*7B
$GPRMC,143253.00,A,4002.10554,N,07531.20565,W,0.285,,241013,,,A*6D
$GPVTG,,T,,M,0.285,N,0.528,K,A*23
$GPGGA,143253.00,4002.10554,N,07531.20565,W,1,07,1.72,183.8,M,-34.4,M,,*64
$GPGSA,A,3,28,17,01,08,09,11,32,,,,,,2.94,1.72,2.39*0C
$GPGSV,3,1,11,01,48,051,27,04,20,215,13,07,06,177,,08,31,196,19*79
$GPGSV,3,2,11,09,27,201,17,11,25,054,14,17,55,292,28,20,30,116,14*75
$GPGSV,3,3,11,24,05,327,,28,84,072,33,32,23,078,27*45
$GPGLL,4002.10554,N,07531.20565,W,143253.00,A,A*7E
$GPRMC,143254.00,A,4002.10571,N,07531.20555,W,0.420,,241013,,,A*67
$GPVTG,,T,,M,0.420,N,0.778,K,A*2D
$GPGGA,143254.00,4002.10571,N,07531.20555,W,1,07,1.72,183.8,M,-34.4,M,,*67
$GPGSA,A,3,28,17,01,08,09,11,32,,,,,,2.94,1.72,2.39*0C
$GPGSV,3,1,11,01,48,051,27,04,20,215,14,07,06,177,,08,31,196,18*7F
$GPGSV,3,2,11,09,27,201,18,11,25,054,12,17,55,292,28,20,30,116,14*7C
$GPGSV,3,3,11,24,05,327,,28,84,072,33,32,23,078,27*45
$GPGLL,4002.10571,N,07531.20555,W,143254.00,A,A*7D
$GPRMC,143255.00,A,4002.10556,N,07531.20541,W,0.260,,241013,,,A*64
$GPVTG,,T,,M,0.260,N,0.482,K,A*29
$GPGGA,143255.00,4002.10556,N,07531.20541,W,1,07,1.72,183.8,M,-34.4,M,,*66
$GPGSA,A,3,28,17,01,08,09,11,32,,,,,,2.94,1.72,2.39*0C
$GPGSV,3,1,11,01,48,051,27,04,20,215,14,07,06,177,,08,31,196,18*7F
$GPGSV,3,2,11,09,27,201,18,11,25,054,12,17,55,292,27,20,30,116,14*73
$GPGSV,3,3,11,24,05,327,,28,84,072,33,32,23,078,27*45
$GPGLL,4002.10556,N,07531.20541,W,143255.00,A,A*7C
$GPRMC,143256.00,A,4002.10529,N,07531.20534,W,0.034,,241013,,,A*6E
$GPVTG,,T,,M,0.034,N,0.062,K,A*20
$GPGGA,143256.00,4002.10529,N,07531.20534,W,1,07,1.72,183.7,M,-34.4,M,,*60
$GPGSA,A,3,28,17,01,08,09,11,32,,,,,,2.94,1.72,2.39*0C
$GPGSV,3,1,11,01,48,051,27,04,20,215,14,07,06,177,,08,31,196,18*7F
$GPGSV,3,2,11,09,27,201,18,11,25,054,14,17,55,292,28,20,30,116,13*7D
$GPGSV,3,3,11,24,05,327,,28,84,072,33,32,23,078,27*45
$GPGLL,4002.10529,N,07531.20534,W,143256.00,A,A*75
$GPRMC,143257.00,A,4002.10525,N,07531.20517,W,0.063,,241013,,,A*60
$GPVTG,,T,,M,0.063,N,0.116,K,A*20
$GPGGA,143257.00,4002.10525,N,07531.20517,W,1,07,1.72,183.6,M,-34.4,M,,*6D
$GPGSA,A,3,28,17,01,08,09,11,32,,,,,,2.94,1.72,2.39*0C
$GPGSV,3,1,11,01,48,051,27,04,20,215,14,07,06,177,,08,31,196,17*70
$GPGSV,3,2,11,09,27,201,18,11,25,054,14,17,55,292,27,20,30,116,12*73
$GPGSV,3,3,11,24,05,327,,28,84,072,33,32,23,078,27*45
$GPGLL,4002.10525,N,07531.20517,W,143257.00,A,A*79
$GPRMC,143258.00,A,4002.10528,N,07531.20504,W,0.164,,241013,,,A*66
$GPVTG,,T,,M,0.164,N,0.304,K,A*27
$GPGGA,143258.00,4002.10528,N,07531.20504,W,1,07,1.72,183.5,M,-34.4,M,,*6E
$GPGSA,A,3,28,17,01,08,09,11,32,,,,,,2.94,1.72,2.39*0C
$GPGSV,3,1,11,01,48,051,27,04,20,215,14,07,06,177,,08,31,196,19*7E
$GPGSV,3,2,11,09,27,201,18,11,25,054,13,17,55,292,27,20,30,116,10*76
$GPGSV,3,3,11,24,05,327,,28,84,072,33,32,23,078,26*44
$GPGLL,4002.10528,N,07531.20504,W,143258.00,A,A*79
$GPRMC,143259.00,A,4002.10536,N,07531.20515,W,0.237,,241013,,,A*6D
$GPVTG,,T,,M,0.237,N,0.440,K,A*25
$GPGGA,143259.00,4002.10536,N,07531.20515,W,1,07,1.72,183.4,M,-34.4,M,,*61
$GPGSA,A,3,28,17,01,08,09,11,32,,,,,,2.94,1.72,2.38*0D
$GPGSV,3,1,11,01,48,051,27,04,20,215,13,07,06,177,,08,31,196,19*79
$GPGSV,3,2,11,09,27,201,18,11,25,054,13,17,55,292,27,20,30,116,13*75
$GPGSV,3,3,11,24,05,327,,28,84,072,33,32,23,078,26*44
$GPGLL,4002.10536,N,07531.20515,W,143259.00,A,A*77
$GPRMC,143300.00,A,4002.10504,N,07531.20524,W,0.188,,241013,,,A*64
$GPVTG,,T,,M,0.188,N,0.348,K,A*2D
$GPGGA,143300.00,4002.10504,N,07531.20524,W,1,07,1.72,183.3,M,-34.4,M,,*68
$GPGSA,A,3,28,17,01,08,09,11,32,,,,,,2.94,1.72,2.38*0D
$GPGSV,3,1,11,01,48,051,27,04,20,215,14,07,06,177,,08,31,196,19*7E
$GPGSV,3,2,11,09,27,201,18,11,25,054,13,17,55,292,27,20,30,116,13*75
$GPGSV,3,3,11,24,05,327,,28,84,072,33,32,23,078,26*44
$GPGLL,4002.10504,N,07531.20524,W,143300.00,A,A*79
