{"class":"TPV","mode":3,"lat":44.068791000,"lon":-121.314098950,"altHAE":1105.456,"altMSL":1127.610,"epv":1.415,"track":205.7930,"magtrack":220.2115,"magvar":14.4,"speed":0.010,"climb":-0.011,"eps":0.02,"ecefx":-2386055.47,"ecefy":-3922197.29,"ecefz":4414355.62,"ecefvx":-0.00,"ecefvy":0.00,"ecefvz":-0.01,"ecefpAcc":1.66,"ecefvAcc":0.02,"velN":-0.009,"velE":-0.004,"velD":0.011,"geoidSep":-22.155,"eph":0.865,"sep":33.385}
{"class":"SKY","vdop":1.50,"tdop":1.08,"hdop":0.92,"pdop":1.76,"satellites":[{"PRN":81,"az":124.0,"ss":42.0,"used":true,"gnssid":2,"svid":11},{"PRN":82,"az":64.0,"ss":43.0,"used":true,"gnssid":2,"svid":12},{"PRN":94,"az":72.0,"ss":49.0,"used":true,"gnssid":2,"svid":24},{"PRN":11,"az":102.0,"ss":47.0,"used":true,"gnssid":0,"svid":11},{"PRN":8,"az":48.0,"ss":42.0,"used":true,"gnssid":0,"svid":8},{"PRN":133,"az":192.0,"ss":47.0,"used":false,"gnssid":1,"svid":14},{"PRN":13,"az":306.0,"ss":39.0,"used":true,"gnssid":0,"svid":13},{"PRN":17,"az":186.0,"ss":45.0,"used":true,"gnssid":0,"svid":17},{"PRN":28,"az":276.0,"ss":50.0,"used":true,"gnssid":0,"svid":28},{"PRN":30,"az":76.0,"ss":54.0,"used":true,"gnssid":0,"svid":30},{"PRN":7,"az":102.0,"ss":50.0,"used":true,"gnssid":0,"svid":7},{"PRN":18,"az":86.0,"ss":41.0,"used":true,"gnssid":0,"svid":18},{"PRN":131,"az":174.0,"ss":46.0,"used":true,"gnssid":1,"svid":12},{"PRN":135,"az":196.0,"ss":47.0,"used":true,"gnssid":1,"svid":16},{"PRN":138,"az":160.0,"ss":48.0,"used":true,"gnssid":1,"svid":19}]}
{"class":"TPV","mode":3,"lat":44.068791176,"lon":-121.314098953,"altHAE":1105.459,"altMSL":1127.614,"epv":1.436,"track":148.5058,"magtrack":162.9242,"magvar":14.4,"speed":0.019,"climb":0.037,"eps":0.01,"ecefx":-2386055.46,"ecefy":-3922197.28,"ecefz":4414355.63,"ecefvx":-0.01,"ecefvy":-0.04,"ecefvz":0.01,"ecefpAcc":1.68,"ecefvAcc":0.02,"velN":-0.016,"velE":0.010,"velD":-0.037,"geoidSep":-22.155,"eph":0.878,"sep":33.385}
{"class":"SKY","vdop":1.50,"tdop":1.08,"hdop":0.92,"pdop":1.76,"satellites":[{"PRN":81,"az":124.0,"ss":42.0,"used":true,"gnssid":2,"svid":11},{"PRN":82,"az":64.0,"ss":43.0,"used":true,"gnssid":2,"svid":12},{"PRN":94,"az":72.0,"ss":49.0,"used":true,"gnssid":2,"svid":24},{"PRN":11,"az":102.0,"ss":47.0,"used":true,"gnssid":0,"svid":11},{"PRN":8,"az":48.0,"ss":42.0,"used":true,"gnssid":0,"svid":8},{"PRN":133,"az":192.0,"ss":46.0,"used":false,"gnssid":1,"svid":14},{"PRN":13,"az":306.0,"ss":39.0,"used":true,"gnssid":0,"svid":13},{"PRN":17,"az":186.0,"ss":45.0,"used":true,"gnssid":0,"svid":17},{"PRN":28,"az":276.0,"ss":50.0,"used":true,"gnssid":0,"svid":28},{"PRN":30,"az":76.0,"ss":54.0,"used":true,"gnssid":0,"svid":30},{"PRN":7,"az":102.0,"ss":50.0,"used":true,"gnssid":0,"svid":7},{"PRN":18,"az":86.0,"ss":41.0,"used":true,"gnssid":0,"svid":18},{"PRN":131,"az":174.0,"ss":46.0,"used":true,"gnssid":1,"svid":12},{"PRN":135,"az":196.0,"ss":47.0,"used":true,"gnssid":1,"svid":16},{"PRN":138,"az":160.0,"ss":48.0,"used":true,"gnssid":1,"svid":19}]}
{"class":"TPV","mode":0,"time":"2018-03-29T21:29:19.250Z","ept":0.005}
{"class":"TPV","mode":0,"time":"2018-03-29T21:29:19.500Z","ept":0.005}
{"class":"TPV","mode":0,"time":"2018-03-29T21:29:19.750Z","ept":0.005}
{"class":"TPV","mode":0,"time":"2018-03-29T21:29:20.000Z","ept":0.005}
{"class":"TPV","mode":0,"time":"2018-03-29T21:29:20.250Z","ept":0.005}
{"class":"TPV","mode":0,"time":"2018-03-29T21:29:20.500Z","ept":0.005}
{"class":"TPV","mode":0,"time":"2018-03-29T21:29:20.750Z","ept":0.005}
{"class":"TPV","mode":0,"time":"2018-03-29T21:29:21.000Z","ept":0.005}
{"class":"TPV","mode":0,"time":"2018-03-29T21:29:21.250Z","ept":0.005}
{"class":"TPV","mode":0,"time":"2018-03-29T21:29:21.500Z","ept":0.005}
{"class":"TPV","mode":0,"time":"2018-03-29T21:29:21.750Z","ept":0.005}
{"class":"TPV","mode":0,"time":"2018-03-29T21:29:22.000Z","ept":0.005}
{"class":"TPV","mode":0,"time":"2018-03-29T21:29:22.250Z","ept":0.005}
{"class":"TPV","mode":0,"time":"2018-03-29T21:29:22.500Z","ept":0.005}
{"class":"TPV","mode":0,"time":"2018-03-29T21:29:22.750Z","ept":0.005}
{"class":"TPV","mode":0,"time":"2018-03-29T21:29:23.000Z","ept":0.005}
{"class":"TPV","mode":0,"time":"2018-03-29T21:29:23.250Z","ept":0.005}
{"class":"TPV","mode":0,"time":"2018-03-29T21:29:23.500Z","ept":0.005}
{"class":"TPV","mode":0,"time":"2018-03-29T21:29:23.750Z","ept":0.005}
{"class":"TPV","mode":0,"time":"2018-03-29T21:29:24.000Z","ept":0.005}
{"class":"TPV","mode":0,"time":"2018-03-29T21:29:24.250Z","ept":0.005}
{"class":"TPV","mode":0,"time":"2018-03-29T21:29:24.500Z","ept":0.005}
{"class":"TPV","mode":0,"time":"2018-03-29T21:29:24.750Z","ept":0.005}
{"class":"TPV","mode":0,"time":"2018-03-29T21:29:25.000Z","ept":0.005}
{"class":"TPV","mode":0,"time":"2018-03-29T21:29:25.250Z","ept":0.005}
{"class":"TPV","mode":0,"time":"2018-03-29T21:29:26.000Z","ept":0.005}
{"class":"TPV","mode":0,"time":"2018-03-29T21:29:26.250Z","ept":0.005}
{"class":"TPV","mode":0,"time":"2018-03-29T21:29:26.500Z","ept":0.005}
{"class":"TPV","mode":0,"time":"2018-03-29T21:29:26.750Z","ept":0.005}
{"class":"TPV","mode":3,"time":"2018-03-29T21:29:27.000Z","ept":0.005,"lat":44.068788735,"lon":-121.314117709,"altHAE":1126.663,"altMSL":1148.818,"epv":3.054,"track":284.3061,"magtrack":298.7246,"magvar":14.4,"speed":0.003,"climb":0.032,"eps":0.02,"ecefx":-2386064.76,"ecefy":-3922209.68,"ecefz":4414370.18,"ecefvx":-0.01,"ecefvy":-0.02,"ecefvz":0.02,"ecefpAcc":5.44,"ecefvAcc":0.04,"velN":0.001,"velE":-0.003,"velD":-0.032,"geoidSep":-22.155,"eph":4.504,"sep":33.386}
{"class":"SKY","vdop":0.94,"tdop":1.01,"hdop":1.39,"pdop":1.68,"satellites":[{"PRN":11,"az":102.0,"ss":45.0,"used":true,"gnssid":0,"svid":11},{"PRN":8,"az":48.0,"ss":42.0,"used":true,"gnssid":0,"svid":8},{"PRN":133,"az":192.0,"ss":44.0,"used":false,"gnssid":1,"svid":14},{"PRN":13,"az":306.0,"ss":41.0,"used":true,"gnssid":0,"svid":13},{"PRN":17,"az":186.0,"ss":44.0,"used":true,"gnssid":0,"svid":17},{"PRN":28,"az":276.0,"ss":50.0,"used":true,"gnssid":0,"svid":28},{"PRN":30,"az":76.0,"ss":57.0,"used":true,"gnssid":0,"svid":30},{"PRN":7,"az":102.0,"ss":47.0,"used":true,"gnssid":0,"svid":7},{"PRN":18,"az":86.0,"ss":42.0,"used":true,"gnssid":0,"svid":18},{"PRN":131,"az":174.0,"ss":46.0,"used":true,"gnssid":1,"svid":12},{"PRN":135,"az":196.0,"ss":47.0,"used":true,"gnssid":1,"svid":16},{"PRN":138,"az":160.0,"ss":49.0,"used":true,"gnssid":1,"svid":19},{"PRN":1,"az":108.0,"ss":38.0,"used":true,"gnssid":0,"svid":1}]}
{"class":"TPV","mode":3,"time":"2018-03-29T21:29:27.250Z","ept":0.005,"lat":44.068788810,"lon":-121.314117892,"altHAE":1126.481,"altMSL":1148.636,"epv":4.443,"track":147.7758,"magtrack":162.1942,"magvar":14.4,"speed":0.017,"climb":0.022,"eps":0.02,"epc":98.99,"ecefx":-2386064.70,"ecefy":-3922209.55,"ecefz":4414370.06,"ecefvx":-0.01,"ecefvy":-0.03,"ecefvz":0.01,"ecefpAcc":5.37,"ecefvAcc":0.03,"velN":-0.015,"velE":0.009,"velD":-0.022,"geoidSep":-22.155,"eph":3.020,"sep":31.959}
{"class":"SKY","vdop":1.39,"tdop":1.01,"hdop":0.95,"pdop":1.68,"satellites":[{"PRN":11,"az":102.0,"ss":45.0,"used":true,"gnssid":0,"svid":11},{"PRN":8,"az":48.0,"ss":43.0,"used":true,"gnssid":0,"svid":8},{"PRN":133,"az":192.0,"ss":45.0,"used":false,"gnssid":1,"svid":14},{"PRN":13,"az":306.0,"ss":41.0,"used":true,"gnssid":0,"svid":13},{"PRN":17,"az":186.0,"ss":44.0,"used":true,"gnssid":0,"svid":17},{"PRN":28,"az":276.0,"ss":50.0,"used":true,"gnssid":0,"svid":28},{"PRN":30,"az":76.0,"ss":57.0,"used":true,"gnssid":0,"svid":30},{"PRN":7,"az":102.0,"ss":47.0,"used":true,"gnssid":0,"svid":7},{"PRN":18,"az":86.0,"ss":42.0,"used":true,"gnssid":0,"svid":18},{"PRN":131,"az":174.0,"ss":47.0,"used":true,"gnssid":1,"svid":12},{"PRN":135,"az":196.0,"ss":47.0,"used":true,"gnssid":1,"svid":16},{"PRN":138,"az":160.0,"ss":49.0,"used":true,"gnssid":1,"svid":19},{"PRN":1,"az":108.0,"ss":38.0,"used":true,"gnssid":0,"svid":1}]}
{"class":"TPV","mode":3,"time":"2018-03-29T21:29:27.500Z","ept":0.005,"lat":44.068788364,"lon":-121.314116991,"altHAE":1126.354,"altMSL":1148.508,"epv":4.415,"track":101.5969,"magtrack":116.0153,"magvar":14.4,"speed":0.016,"climb":0.009,"eps":0.01,"epc":145.61,"ecefx":-2386064.61,"ecefy":-3922209.54,"ecefz":4414369.94,"ecefvx":0.01,"ecefvy":-0.02,"ecefvz":0.00,"ecefpAcc":5.34,"ecefvAcc":0.01,"velN":-0.003,"velE":0.015,"velD":-0.009,"geoidSep":-22.155,"eph":2.999,"sep":31.960}
{"class":"SKY","vdop":1.39,"tdop":1.01,"hdop":0.95,"pdop":1.68,"satellites":[{"PRN":11,"az":102.0,"ss":45.0,"used":true,"gnssid":0,"svid":11},{"PRN":8,"az":48.0,"ss":43.0,"used":true,"gnssid":0,"svid":8},{"PRN":133,"az":192.0,"ss":44.0,"used":false,"gnssid":1,"svid":14},{"PRN":13,"az":306.0,"ss":42.0,"used":true,"gnssid":0,"svid":13},{"PRN":17,"az":186.0,"ss":44.0,"used":true,"gnssid":0,"svid":17},{"PRN":28,"az":276.0,"ss":50.0,"used":true,"gnssid":0,"svid":28},{"PRN":30,"az":76.0,"ss":56.0,"used":true,"gnssid":0,"svid":30},{"PRN":7,"az":102.0,"ss":47.0,"used":true,"gnssid":0,"svid":7},{"PRN":18,"az":86.0,"ss":42.0,"used":true,"gnssid":0,"svid":18},{"PRN":131,"az":174.0,"ss":47.0,"used":true,"gnssid":1,"svid":12},{"PRN":135,"az":196.0,"ss":47.0,"used":true,"gnssid":1,"svid":16},{"PRN":138,"az":160.0,"ss":49.0,"used":true,"gnssid":1,"svid":19},{"PRN":1,"az":108.0,"ss":37.0,"used":true,"gnssid":0,"svid":1}]}
{"class":"TPV","mode":3,"time":"2018-03-29T21:29:27.750Z","ept":0.005,"lat":44.068788872,"lon":-121.314116757,"altHAE":1126.290,"altMSL":1148.445,"epv":4.398,"track":310.0705,"magtrack":324.4889,"magvar":14.4,"speed":0.002,"climb":-0.009,"eps":0.01,"epc":145.50,"ecefx":-2386064.55,"ecefy":-3922209.48,"ecefz":4414369.94,"ecefvx":0.00,"ecefvy":0.01,"ecefvz":-0.01,"ecefpAcc":5.32,"ecefvAcc":0.02,"velN":0.002,"velE":-0.002,"velD":0.009,"geoidSep":-22.155,"eph":2.986,"sep":31.960}
{"class":"SKY","vdop":1.39,"tdop":1.01,"hdop":0.95,"pdop":1.68,"satellites":[{"PRN":11,"az":102.0,"ss":45.0,"used":true,"gnssid":0,"svid":11},{"PRN":8,"az":48.0,"ss":43.0,"used":true,"gnssid":0,"svid":8},{"PRN":133,"az":192.0,"ss":45.0,"used":false,"gnssid":1,"svid":14},{"PRN":13,"az":306.0,"ss":42.0,"used":true,"gnssid":0,"svid":13},{"PRN":17,"az":186.0,"ss":44.0,"used":true,"gnssid":0,"svid":17},{"PRN":28,"az":276.0,"ss":50.0,"used":true,"gnssid":0,"svid":28},{"PRN":30,"az":76.0,"ss":56.0,"used":true,"gnssid":0,"svid":30},{"PRN":7,"az":102.0,"ss":47.0,"used":true,"gnssid":0,"svid":7},{"PRN":18,"az":86.0,"ss":42.0,"used":true,"gnssid":0,"svid":18},{"PRN":131,"az":174.0,"ss":46.0,"used":true,"gnssid":1,"svid":12},{"PRN":135,"az":196.0,"ss":47.0,"used":true,"gnssid":1,"svid":16},{"PRN":138,"az":160.0,"ss":49.0,"used":true,"gnssid":1,"svid":19},{"PRN":1,"az":108.0,"ss":37.0,"used":true,"gnssid":0,"svid":1}]}
{"class":"TPV","mode":3,"time":"2018-03-29T21:29:28.000Z","ept":0.005,"lat":44.068787737,"lon":-121.314101623,"altHAE":1106.911,"altMSL":1129.065,"epv":1.755,"track":60.3408,"magtrack":74.7592,"magvar":14.4,"speed":0.016,"climb":0.001,"eps":0.02,"epc":145.44,"ecefx":-2386056.32,"ecefy":-3922198.29,"ecefz":4414356.37,"ecefvx":0.01,"ecefvy":-0.00,"ecefvz":0.01,"ecefpAcc":2.12,"ecefvAcc":0.03,"velN":0.008,"velE":0.014,"velD":-0.001,"geoidSep":-22.155,"eph":1.191,"sep":31.961}
{"class":"SKY","vdop":1.39,"tdop":1.01,"hdop":0.95,"pdop":1.68,"satellites":[{"PRN":11,"az":102.0,"ss":45.0,"used":true,"gnssid":0,"svid":11},{"PRN":8,"az":48.0,"ss":42.0,"used":true,"gnssid":0,"svid":8},{"PRN":133,"az":192.0,"ss":45.0,"used":false,"gnssid":1,"svid":14},{"PRN":13,"az":306.0,"ss":42.0,"used":true,"gnssid":0,"svid":13},{"PRN":17,"az":186.0,"ss":44.0,"used":true,"gnssid":0,"svid":17},{"PRN":28,"az":276.0,"ss":50.0,"used":true,"gnssid":0,"svid":28},{"PRN":30,"az":76.0,"ss":56.0,"used":true,"gnssid":0,"svid":30},{"PRN":7,"az":102.0,"ss":47.0,"used":true,"gnssid":0,"svid":7},{"PRN":18,"az":86.0,"ss":42.0,"used":true,"gnssid":0,"svid":18},{"PRN":131,"az":174.0,"ss":46.0,"used":true,"gnssid":1,"svid":12},{"PRN":135,"az":196.0,"ss":47.0,"used":true,"gnssid":1,"svid":16},{"PRN":138,"az":160.0,"ss":50.0,"used":true,"gnssid":1,"svid":19},{"PRN":1,"az":108.0,"ss":38.0,"used":true,"gnssid":0,"svid":1}]}
{"class":"TPV","mode":3,"time":"2018-03-29T21:29:28.250Z","ept":0.005,"lat":44.068787761,"lon":-121.314101649,"altHAE":1106.826,"altMSL":1128.981,"epv":1.736,"track":155.2310,"magtrack":169.6494,"magvar":14.4,"speed":0.021,"climb":0.007,"eps":0.01,"epc":134.87,"ecefx":-2386056.29,"ecefy":-3922198.23,"ecefz":4414356.31,"ecefvx":-0.00,"ecefvy":-0.02,"ecefvz":-0.01,"ecefpAcc":2.10,"ecefvAcc":0.02,"velN":-0.019,"velE":0.009,"velD":-0.007,"geoidSep":-22.155,"eph":1.177,"sep":31.962}
{"class":"SKY","vdop":1.39,"tdop":1.01,"hdop":0.95,"pdop":1.68,"satellites":[{"PRN":11,"az":102.0,"ss":45.0,"used":true,"gnssid":0,"svid":11},{"PRN":8,"az":48.0,"ss":42.0,"used":true,"gnssid":0,"svid":8},{"PRN":133,"az":192.0,"ss":45.0,"used":false,"gnssid":1,"svid":14},{"PRN":13,"az":306.0,"ss":42.0,"used":true,"gnssid":0,"svid":13},{"PRN":17,"az":186.0,"ss":44.0,"used":true,"gnssid":0,"svid":17},{"PRN":28,"az":276.0,"ss":50.0,"used":true,"gnssid":0,"svid":28},{"PRN":30,"az":76.0,"ss":56.0,"used":true,"gnssid":0,"svid":30},{"PRN":7,"az":102.0,"ss":48.0,"used":true,"gnssid":0,"svid":7},{"PRN":18,"az":86.0,"ss":42.0,"used":true,"gnssid":0,"svid":18},{"PRN":131,"az":174.0,"ss":47.0,"used":true,"gnssid":1,"svid":12},{"PRN":135,"az":196.0,"ss":47.0,"used":true,"gnssid":1,"svid":16},{"PRN":138,"az":160.0,"ss":49.0,"used":true,"gnssid":1,"svid":19},{"PRN":1,"az":108.0,"ss":38.0,"used":true,"gnssid":0,"svid":1}]}
{"class":"TPV","mode":3,"time":"2018-03-29T21:29:28.500Z","ept":0.005,"lat":44.068788091,"lon":-121.314102178,"altHAE":1106.626,"altMSL":1128.781,"epv":1.721,"track":296.1535,"magtrack":310.5719,"magvar":14.4,"speed":0.011,"climb":-0.004,"eps":0.01,"epc":134.80,"ecefx":-2386056.24,"ecefy":-3922198.06,"ecefz":4414356.20,"ecefvx":-0.01,"ecefvy":0.01,"ecefvz":0.00,"ecefpAcc":2.08,"ecefvAcc":0.02,"velN":0.005,"velE":-0.010,"velD":0.004,"geoidSep":-22.155,"eph":1.166,"sep":31.963}
{"class":"SKY","vdop":1.39,"tdop":1.01,"hdop":0.95,"pdop":1.68,"satellites":[{"PRN":11,"az":102.0,"ss":45.0,"used":true,"gnssid":0,"svid":11},{"PRN":8,"az":48.0,"ss":43.0,"used":true,"gnssid":0,"svid":8},{"PRN":133,"az":192.0,"ss":45.0,"used":false,"gnssid":1,"svid":14},{"PRN":13,"az":306.0,"ss":41.0,"used":true,"gnssid":0,"svid":13},{"PRN":17,"az":186.0,"ss":44.0,"used":true,"gnssid":0,"svid":17},{"PRN":28,"az":276.0,"ss":50.0,"used":true,"gnssid":0,"svid":28},{"PRN":30,"az":76.0,"ss":56.0,"used":true,"gnssid":0,"svid":30},{"PRN":7,"az":102.0,"ss":48.0,"used":true,"gnssid":0,"svid":7},{"PRN":18,"az":86.0,"ss":42.0,"used":true,"gnssid":0,"svid":18},{"PRN":131,"az":174.0,"ss":47.0,"used":true,"gnssid":1,"svid":12},{"PRN":135,"az":196.0,"ss":47.0,"used":true,"gnssid":1,"svid":16},{"PRN":138,"az":160.0,"ss":49.0,"used":true,"gnssid":1,"svid":19},{"PRN":1,"az":108.0,"ss":38.0,"used":true,"gnssid":0,"svid":1}]}
{"class":"TPV","mode":3,"time":"2018-03-29T21:29:28.750Z","ept":0.005,"lat":44.068788617,"lon":-121.314102594,"altHAE":1106.412,"altMSL":1128.567,"epv":1.697,"track":331.1789,"magtrack":345.5973,"magvar":14.4,"speed":0.008,"climb":0.004,"eps":0.02,"epc":134.74,"ecefx":-2386056.17,"ecefy":-3922197.88,"ecefz":4414356.09,"ecefvx":-0.00,"ecefvy":0.00,"ecefvz":0.01,"ecefpAcc":2.05,"ecefvAcc":0.03,"velN":0.007,"velE":-0.004,"velD":-0.004,"geoidSep":-22.155,"eph":1.148,"sep":31.964}
{"class":"SKY","vdop":1.39,"tdop":1.01,"hdop":0.95,"pdop":1.68,"satellites":[{"PRN":11,"az":102.0,"ss":45.0,"used":true,"gnssid":0,"svid":11},{"PRN":8,"az":48.0,"ss":42.0,"used":true,"gnssid":0,"svid":8},{"PRN":133,"az":192.0,"ss":45.0,"used":false,"gnssid":1,"svid":14},{"PRN":13,"az":306.0,"ss":41.0,"used":true,"gnssid":0,"svid":13},{"PRN":17,"az":186.0,"ss":44.0,"used":true,"gnssid":0,"svid":17},{"PRN":28,"az":276.0,"ss":50.0,"used":true,"gnssid":0,"svid":28},{"PRN":30,"az":76.0,"ss":56.0,"used":true,"gnssid":0,"svid":30},{"PRN":7,"az":102.0,"ss":48.0,"used":true,"gnssid":0,"svid":7},{"PRN":18,"az":86.0,"ss":42.0,"used":true,"gnssid":0,"svid":18},{"PRN":131,"az":174.0,"ss":46.0,"used":true,"gnssid":1,"svid":12},{"PRN":135,"az":196.0,"ss":47.0,"used":true,"gnssid":1,"svid":16},{"PRN":138,"az":160.0,"ss":49.0,"used":true,"gnssid":1,"svid":19},{"PRN":1,"az":108.0,"ss":37.0,"used":true,"gnssid":0,"svid":1}]}
{"class":"TPV","mode":3,"time":"2018-03-29T21:29:29.000Z","ept":0.005,"lat":44.068788843,"lon":-121.314102782,"altHAE":1106.251,"altMSL":1128.406,"epv":1.690,"track":130.1917,"magtrack":144.6101,"magvar":14.4,"speed":0.024,"climb":0.021,"eps":0.02,"epc":134.65,"ecefx":-2386056.11,"ecefy":-3922197.76,"ecefz":4414356.00,"ecefvx":0.00,"ecefvy":-0.03,"ecefvz":0.00,"ecefpAcc":2.04,"ecefvAcc":0.03,"velN":-0.015,"velE":0.018,"velD":-0.021,"geoidSep":-22.155,"eph":1.142,"sep":31.965}
{"class":"SKY","vdop":1.39,"tdop":1.01,"hdop":0.95,"pdop":1.68,"satellites":[{"PRN":11,"az":102.0,"ss":45.0,"used":true,"gnssid":0,"svid":11},{"PRN":8,"az":48.0,"ss":42.0,"used":true,"gnssid":0,"svid":8},{"PRN":133,"az":192.0,"ss":45.0,"used":false,"gnssid":1,"svid":14},{"PRN":13,"az":306.0,"ss":41.0,"used":true,"gnssid":0,"svid":13},{"PRN":17,"az":186.0,"ss":44.0,"used":true,"gnssid":0,"svid":17},{"PRN":28,"az":276.0,"ss":50.0,"used":true,"gnssid":0,"svid":28},{"PRN":30,"az":76.0,"ss":56.0,"used":true,"gnssid":0,"svid":30},{"PRN":7,"az":102.0,"ss":48.0,"used":true,"gnssid":0,"svid":7},{"PRN":18,"az":86.0,"ss":42.0,"used":true,"gnssid":0,"svid":18},{"PRN":131,"az":174.0,"ss":46.0,"used":true,"gnssid":1,"svid":12},{"PRN":135,"az":196.0,"ss":47.0,"used":true,"gnssid":1,"svid":16},{"PRN":138,"az":160.0,"ss":49.0,"used":true,"gnssid":1,"svid":19},{"PRN":1,"az":108.0,"ss":37.0,"used":true,"gnssid":0,"svid":1}]}
{"class":"TPV","mode":3,"time":"2018-03-29T21:29:29.250Z","ept":0.005,"lat":44.068788866,"lon":-121.314103188,"altHAE":1106.109,"altMSL":1128.264,"epv":1.670,"track":200.8703,"magtrack":215.2887,"magvar":14.4,"speed":0.010,"climb":0.001,"eps":0.01,"epc":134.63,"ecefx":-2386056.09,"ecefy":-3922197.65,"ecefz":4414355.90,"ecefvx":-0.01,"ecefvy":-0.00,"ecefvz":-0.01,"ecefpAcc":2.02,"ecefvAcc":0.02,"velN":-0.009,"velE":-0.003,"velD":-0.001,"geoidSep":-22.155,"eph":1.128,"sep":31.965}
{"class":"SKY","vdop":1.39,"tdop":1.01,"hdop":0.95,"pdop":1.68,"satellites":[{"PRN":11,"az":102.0,"ss":45.0,"used":true,"gnssid":0,"svid":11},{"PRN":8,"az":48.0,"ss":42.0,"used":true,"gnssid":0,"svid":8},{"PRN":133,"az":192.0,"ss":45.0,"used":false,"gnssid":1,"svid":14},{"PRN":13,"az":306.0,"ss":41.0,"used":true,"gnssid":0,"svid":13},{"PRN":17,"az":186.0,"ss":44.0,"used":true,"gnssid":0,"svid":17},{"PRN":28,"az":276.0,"ss":50.0,"used":true,"gnssid":0,"svid":28},{"PRN":30,"az":76.0,"ss":56.0,"used":true,"gnssid":0,"svid":30},{"PRN":7,"az":102.0,"ss":48.0,"used":true,"gnssid":0,"svid":7},{"PRN":18,"az":86.0,"ss":42.0,"used":true,"gnssid":0,"svid":18},{"PRN":131,"az":174.0,"ss":46.0,"used":true,"gnssid":1,"svid":12},{"PRN":135,"az":196.0,"ss":47.0,"used":true,"gnssid":1,"svid":16},{"PRN":138,"az":160.0,"ss":49.0,"used":true,"gnssid":1,"svid":19},{"PRN":1,"az":108.0,"ss":37.0,"used":true,"gnssid":0,"svid":1}]}
{"class":"TPV","mode":3,"time":"2018-03-29T21:29:29.500Z","ept":0.005,"lat":44.068788962,"lon":-121.314103575,"altHAE":1105.989,"altMSL":1128.144,"epv":1.677,"track":326.1443,"magtrack":340.5628,"magvar":14.4,"speed":0.022,"climb":-0.010,"eps":0.02,"epc":134.55,"ecefx":-2386056.07,"ecefy":-3922197.56,"ecefz":4414355.82,"ecefvx":-0.00,"ecefvy":0.02,"ecefvz":0.01,"ecefpAcc":2.02,"ecefvAcc":0.03,"velN":0.018,"velE":-0.012,"velD":0.010,"geoidSep":-22.155,"eph":1.131,"sep":31.966}
{"class":"SKY","vdop":1.39,"tdop":1.01,"hdop":0.95,"pdop":1.68,"satellites":[{"PRN":11,"az":102.0,"ss":45.0,"used":true,"gnssid":0,"svid":11},{"PRN":8,"az":48.0,"ss":42.0,"used":true,"gnssid":0,"svid":8},{"PRN":133,"az":192.0,"ss":44.0,"used":false,"gnssid":1,"svid":14},{"PRN":13,"az":306.0,"ss":41.0,"used":true,"gnssid":0,"svid":13},{"PRN":17,"az":186.0,"ss":44.0,"used":true,"gnssid":0,"svid":17},{"PRN":28,"az":276.0,"ss":50.0,"used":true,"gnssid":0,"svid":28},{"PRN":30,"az":76.0,"ss":56.0,"used":true,"gnssid":0,"svid":30},{"PRN":7,"az":102.0,"ss":48.0,"used":true,"gnssid":0,"svid":7},{"PRN":18,"az":86.0,"ss":41.0,"used":true,"gnssid":0,"svid":18},{"PRN":131,"az":174.0,"ss":47.0,"used":true,"gnssid":1,"svid":12},{"PRN":135,"az":196.0,"ss":47.0,"used":true,"gnssid":1,"svid":16},{"PRN":138,"az":160.0,"ss":49.0,"used":true,"gnssid":1,"svid":19},{"PRN":1,"az":108.0,"ss":37.0,"used":true,"gnssid":0,"svid":1}]}
{"class":"TPV","mode":3,"time":"2018-03-29T21:29:29.750Z","ept":0.005,"lat":44.068789082,"lon":-121.314103526,"altHAE":1105.893,"altMSL":1128.047,"epv":1.675,"track":336.9622,"magtrack":351.3806,"magvar":14.4,"speed":0.023,"climb":-0.012,"eps":0.01,"epc":134.59,"ecefx":-2386056.02,"ecefy":-3922197.49,"ecefz":4414355.77,"ecefvx":0.00,"ecefvy":0.02,"ecefvz":0.01,"ecefpAcc":2.02,"ecefvAcc":0.01,"velN":0.021,"velE":-0.009,"velD":0.012,"geoidSep":-22.155,"eph":1.127,"sep":31.967}
{"class":"SKY","vdop":1.39,"tdop":1.01,"hdop":0.95,"pdop":1.68,"satellites":[{"PRN":11,"az":102.0,"ss":45.0,"used":true,"gnssid":0,"svid":11},{"PRN":8,"az":48.0,"ss":42.0,"used":true,"gnssid":0,"svid":8},{"PRN":133,"az":192.0,"ss":45.0,"used":false,"gnssid":1,"svid":14},{"PRN":13,"az":306.0,"ss":42.0,"used":true,"gnssid":0,"svid":13},{"PRN":17,"az":186.0,"ss":44.0,"used":true,"gnssid":0,"svid":17},{"PRN":28,"az":276.0,"ss":50.0,"used":true,"gnssid":0,"svid":28},{"PRN":30,"az":76.0,"ss":56.0,"used":true,"gnssid":0,"svid":30},{"PRN":7,"az":102.0,"ss":48.0,"used":true,"gnssid":0,"svid":7},{"PRN":18,"az":86.0,"ss":41.0,"used":true,"gnssid":0,"svid":18},{"PRN":131,"az":174.0,"ss":46.0,"used":true,"gnssid":1,"svid":12},{"PRN":135,"az":196.0,"ss":47.0,"used":true,"gnssid":1,"svid":16},{"PRN":138,"az":160.0,"ss":49.0,"used":true,"gnssid":1,"svid":19},{"PRN":1,"az":108.0,"ss":37.0,"used":true,"gnssid":0,"svid":1}]}
{"class":"TPV","mode":3,"time":"2018-03-29T21:29:30.000Z","ept":0.005,"lat":44.068788800,"lon":-121.314103200,"altHAE":1105.834,"altMSL":1127.989,"epv":1.668,"track":173.8500,"magtrack":188.2684,"magvar":14.4,"speed":0.005,"climb":0.009,"eps":0.01,"epc":134.58,"ecefx":-2386055.99,"ecefy":-3922197.49,"ecefz":4414355.70,"ecefvx":-0.00,"ecefvy":-0.01,"ecefvz":0.00,"ecefpAcc":2.01,"ecefvAcc":0.01,"velN":-0.005,"velE":0.001,"velD":-0.009,"geoidSep":-22.155,"eph":1.121,"sep":31.968}
{"class":"SKY","vdop":1.39,"tdop":1.01,"hdop":0.95,"pdop":1.68,"satellites":[{"PRN":11,"az":102.0,"ss":45.0,"used":true,"gnssid":0,"svid":11},{"PRN":8,"az":48.0,"ss":42.0,"used":true,"gnssid":0,"svid":8},{"PRN":133,"az":192.0,"ss":45.0,"used":false,"gnssid":1,"svid":14},{"PRN":13,"az":306.0,"ss":41.0,"used":true,"gnssid":0,"svid":13},{"PRN":17,"az":186.0,"ss":44.0,"used":true,"gnssid":0,"svid":17},{"PRN":28,"az":276.0,"ss":50.0,"used":true,"gnssid":0,"svid":28},{"PRN":30,"az":76.0,"ss":56.0,"used":true,"gnssid":0,"svid":30},{"PRN":7,"az":102.0,"ss":48.0,"used":true,"gnssid":0,"svid":7},{"PRN":18,"az":86.0,"ss":41.0,"used":true,"gnssid":0,"svid":18},{"PRN":131,"az":174.0,"ss":46.0,"used":true,"gnssid":1,"svid":12},{"PRN":135,"az":196.0,"ss":47.0,"used":true,"gnssid":1,"svid":16},{"PRN":138,"az":160.0,"ss":49.0,"used":true,"gnssid":1,"svid":19},{"PRN":1,"az":108.0,"ss":37.0,"used":true,"gnssid":0,"svid":1}]}
{"class":"TPV","mode":3,"time":"2018-03-29T21:29:30.250Z","ept":0.005,"lat":44.068788568,"lon":-121.314103286,"altHAE":1105.784,"altMSL":1127.939,"epv":1.664,"track":44.3564,"magtrack":58.7749,"magvar":14.4,"speed":0.001,"climb":0.013,"eps":0.01,"epc":134.56,"ecefx":-2386055.98,"ecefy":-3922197.47,"ecefz":4414355.65,"ecefvx":-0.00,"ecefvy":-0.01,"ecefvz":0.01,"ecefpAcc":2.00,"ecefvAcc":0.01,"velN":0.001,"velE":0.001,"velD":-0.013,"geoidSep":-22.155,"eph":1.116,"sep":31.969}
{"class":"SKY","vdop":1.39,"tdop":1.01,"hdop":0.95,"pdop":1.68,"satellites":[{"PRN":11,"az":102.0,"ss":46.0,"used":true,"gnssid":0,"svid":11},{"PRN":8,"az":48.0,"ss":43.0,"used":true,"gnssid":0,"svid":8},{"PRN":133,"az":192.0,"ss":45.0,"used":false,"gnssid":1,"svid":14},{"PRN":13,"az":306.0,"ss":41.0,"used":true,"gnssid":0,"svid":13},{"PRN":17,"az":186.0,"ss":44.0,"used":true,"gnssid":0,"svid":17},{"PRN":28,"az":276.0,"ss":50.0,"used":true,"gnssid":0,"svid":28},{"PRN":30,"az":76.0,"ss":56.0,"used":true,"gnssid":0,"svid":30},{"PRN":7,"az":102.0,"ss":48.0,"used":true,"gnssid":0,"svid":7},{"PRN":18,"az":86.0,"ss":41.0,"used":true,"gnssid":0,"svid":18},{"PRN":131,"az":174.0,"ss":46.0,"used":true,"gnssid":1,"svid":12},{"PRN":135,"az":196.0,"ss":48.0,"used":true,"gnssid":1,"svid":16},{"PRN":138,"az":160.0,"ss":49.0,"used":true,"gnssid":1,"svid":19},{"PRN":1,"az":108.0,"ss":37.0,"used":true,"gnssid":0,"svid":1}]}
{"class":"TPV","mode":3,"time":"2018-03-29T21:29:30.500Z","ept":0.005,"lat":44.068788464,"lon":-121.314103206,"altHAE":1105.703,"altMSL":1127.858,"epv":1.653,"track":65.4619,"magtrack":79.8803,"magvar":14.4,"speed":0.006,"climb":0.012,"eps":0.02,"epc":134.54,"ecefx":-2386055.95,"ecefy":-3922197.43,"ecefz":4414355.58,"ecefvx":0.00,"ecefvy":-0.01,"ecefvz":0.01,"ecefpAcc":1.99,"ecefvAcc":0.03,"velN":0.003,"velE":0.006,"velD":-0.012,"geoidSep":-22.155,"eph":1.108,"sep":31.970}
{"class":"SKY","vdop":1.39,"tdop":1.01,"hdop":0.95,"pdop":1.68,"satellites":[{"PRN":11,"az":102.0,"ss":46.0,"used":true,"gnssid":0,"svid":11},{"PRN":8,"az":48.0,"ss":43.0,"used":true,"gnssid":0,"svid":8},{"PRN":133,"az":192.0,"ss":45.0,"used":false,"gnssid":1,"svid":14},{"PRN":13,"az":306.0,"ss":42.0,"used":true,"gnssid":0,"svid":13},{"PRN":17,"az":186.0,"ss":44.0,"used":true,"gnssid":0,"svid":17},{"PRN":28,"az":276.0,"ss":50.0,"used":true,"gnssid":0,"svid":28},{"PRN":30,"az":76.0,"ss":56.0,"used":true,"gnssid":0,"svid":30},{"PRN":7,"az":102.0,"ss":49.0,"used":true,"gnssid":0,"svid":7},{"PRN":18,"az":86.0,"ss":41.0,"used":true,"gnssid":0,"svid":18},{"PRN":131,"az":174.0,"ss":47.0,"used":true,"gnssid":1,"svid":12},{"PRN":135,"az":196.0,"ss":48.0,"used":true,"gnssid":1,"svid":16},{"PRN":138,"az":160.0,"ss":49.0,"used":true,"gnssid":1,"svid":19},{"PRN":1,"az":108.0,"ss":37.0,"used":true,"gnssid":0,"svid":1}]}
{"class":"TPV","mode":3,"time":"2018-03-29T21:29:30.750Z","ept":0.005,"lat":44.068788360,"lon":-121.314103248,"altHAE":1105.601,"altMSL":1127.755,"epv":1.645,"track":101.8120,"magtrack":116.2304,"magvar":14.4,"speed":0.006,"climb":0.032,"eps":0.01,"epc":134.51,"ecefx":-2386055.92,"ecefy":-3922197.37,"ecefz":4414355.51,"ecefvx":-0.01,"ecefvy":-0.02,"ecefvz":0.02,"ecefpAcc":1.98,"ecefvAcc":0.02,"velN":-0.001,"velE":0.006,"velD":-0.032,"geoidSep":-22.155,"eph":1.101,"sep":31.970}
{"class":"SKY","vdop":1.39,"tdop":1.01,"hdop":0.95,"pdop":1.68,"satellites":[{"PRN":11,"az":102.0,"ss":46.0,"used":true,"gnssid":0,"svid":11},{"PRN":8,"az":48.0,"ss":43.0,"used":true,"gnssid":0,"svid":8},{"PRN":133,"az":192.0,"ss":45.0,"used":false,"gnssid":1,"svid":14},{"PRN":13,"az":306.0,"ss":42.0,"used":true,"gnssid":0,"svid":13},{"PRN":17,"az":186.0,"ss":44.0,"used":true,"gnssid":0,"svid":17},{"PRN":28,"az":276.0,"ss":50.0,"used":true,"gnssid":0,"svid":28},{"PRN":30,"az":76.0,"ss":56.0,"used":true,"gnssid":0,"svid":30},{"PRN":7,"az":102.0,"ss":49.0,"used":true,"gnssid":0,"svid":7},{"PRN":18,"az":86.0,"ss":41.0,"used":true,"gnssid":0,"svid":18},{"PRN":131,"az":174.0,"ss":46.0,"used":true,"gnssid":1,"svid":12},{"PRN":135,"az":196.0,"ss":48.0,"used":true,"gnssid":1,"svid":16},{"PRN":138,"az":160.0,"ss":49.0,"used":true,"gnssid":1,"svid":19},{"PRN":1,"az":108.0,"ss":36.0,"used":true,"gnssid":0,"svid":1}]}
{"class":"TPV","mode":3,"time":"2018-03-29T21:29:31.000Z","ept":0.005,"lat":44.068788239,"lon":-121.314102872,"altHAE":1105.525,"altMSL":1127.679,"epv":1.614,"track":323.2702,"magtrack":337.6887,"magvar":14.4,"speed":0.008,"climb":-0.002,"eps":0.01,"epc":134.48,"ecefx":-2386055.87,"ecefy":-3922197.35,"ecefz":4414355.44,"ecefvx":-0.00,"ecefvy":0.01,"ecefvz":0.00,"ecefpAcc":1.94,"ecefvAcc":0.01,"velN":0.007,"velE":-0.005,"velD":0.002,"geoidSep":-22.155,"eph":1.080,"sep":31.971}
{"class":"SKY","vdop":1.39,"tdop":1.01,"hdop":0.95,"pdop":1.68,"satellites":[{"PRN":11,"az":102.0,"ss":46.0,"used":true,"gnssid":0,"svid":11},{"PRN":8,"az":48.0,"ss":42.0,"used":true,"gnssid":0,"svid":8},{"PRN":133,"az":192.0,"ss":45.0,"used":false,"gnssid":1,"svid":14},{"PRN":13,"az":306.0,"ss":41.0,"used":true,"gnssid":0,"svid":13},{"PRN":17,"az":186.0,"ss":44.0,"used":true,"gnssid":0,"svid":17},{"PRN":28,"az":276.0,"ss":50.0,"used":true,"gnssid":0,"svid":28},{"PRN":30,"az":76.0,"ss":56.0,"used":true,"gnssid":0,"svid":30},{"PRN":7,"az":102.0,"ss":49.0,"used":true,"gnssid":0,"svid":7},{"PRN":18,"az":86.0,"ss":41.0,"used":true,"gnssid":0,"svid":18},{"PRN":131,"az":174.0,"ss":46.0,"used":true,"gnssid":1,"svid":12},{"PRN":135,"az":196.0,"ss":47.0,"used":true,"gnssid":1,"svid":16},{"PRN":138,"az":160.0,"ss":49.0,"used":true,"gnssid":1,"svid":19},{"PRN":1,"az":108.0,"ss":36.0,"used":true,"gnssid":0,"svid":1}]}
{"class":"TPV","mode":3,"time":"2018-03-29T21:29:31.250Z","ept":0.005,"lat":44.068788234,"lon":-121.314102610,"altHAE":1105.469,"altMSL":1127.624,"epv":1.588,"track":207.6093,"magtrack":222.0277,"magvar":14.4,"speed":0.006,"climb":0.008,"eps":0.01,"epc":134.36,"ecefx":-2386055.83,"ecefy":-3922197.33,"ecefz":4414355.40,"ecefvx":-0.01,"ecefvy":-0.01,"ecefvz":0.00,"ecefpAcc":1.91,"ecefvAcc":0.02,"velN":-0.005,"velE":-0.003,"velD":-0.008,"geoidSep":-22.155,"eph":1.062,"sep":31.972}
{"class":"SKY","vdop":1.39,"tdop":1.01,"hdop":0.95,"pdop":1.68,"satellites":[{"PRN":11,"az":102.0,"ss":46.0,"used":true,"gnssid":0,"svid":11},{"PRN":8,"az":48.0,"ss":42.0,"used":true,"gnssid":0,"svid":8},{"PRN":133,"az":192.0,"ss":45.0,"used":false,"gnssid":1,"svid":14},{"PRN":13,"az":306.0,"ss":41.0,"used":true,"gnssid":0,"svid":13},{"PRN":17,"az":186.0,"ss":44.0,"used":true,"gnssid":0,"svid":17},{"PRN":28,"az":276.0,"ss":50.0,"used":true,"gnssid":0,"svid":28},{"PRN":30,"az":76.0,"ss":56.0,"used":true,"gnssid":0,"svid":30},{"PRN":7,"az":102.0,"ss":49.0,"used":true,"gnssid":0,"svid":7},{"PRN":18,"az":86.0,"ss":41.0,"used":true,"gnssid":0,"svid":18},{"PRN":131,"az":174.0,"ss":46.0,"used":true,"gnssid":1,"svid":12},{"PRN":135,"az":196.0,"ss":47.0,"used":true,"gnssid":1,"svid":16},{"PRN":138,"az":160.0,"ss":49.0,"used":true,"gnssid":1,"svid":19},{"PRN":1,"az":108.0,"ss":37.0,"used":true,"gnssid":0,"svid":1}]}
{"class":"TPV","mode":3,"time":"2018-03-29T21:29:31.500Z","ept":0.005,"lat":44.068788339,"lon":-121.314102221,"altHAE":1105.395,"altMSL":1127.550,"epv":1.573,"track":321.1297,"magtrack":335.5481,"magvar":14.4,"speed":0.010,"climb":0.015,"eps":0.01,"epc":134.26,"ecefx":-2386055.78,"ecefy":-3922197.29,"ecefz":4414355.36,"ecefvx":-0.01,"ecefvy":-0.00,"ecefvz":0.02,"ecefpAcc":1.89,"ecefvAcc":0.02,"velN":0.008,"velE":-0.006,"velD":-0.015,"geoidSep":-22.155,"eph":1.052,"sep":31.973}
{"class":"SKY","vdop":1.39,"tdop":1.01,"hdop":0.95,"pdop":1.68,"satellites":[{"PRN":11,"az":102.0,"ss":46.0,"used":true,"gnssid":0,"svid":11},{"PRN":8,"az":48.0,"ss":42.0,"used":true,"gnssid":0,"svid":8},{"PRN":133,"az":192.0,"ss":45.0,"used":false,"gnssid":1,"svid":14},{"PRN":13,"az":306.0,"ss":41.0,"used":true,"gnssid":0,"svid":13},{"PRN":17,"az":186.0,"ss":44.0,"used":true,"gnssid":0,"svid":17},{"PRN":28,"az":276.0,"ss":50.0,"used":true,"gnssid":0,"svid":28},{"PRN":30,"az":76.0,"ss":56.0,"used":true,"gnssid":0,"svid":30},{"PRN":7,"az":102.0,"ss":49.0,"used":true,"gnssid":0,"svid":7},{"PRN":18,"az":86.0,"ss":41.0,"used":true,"gnssid":0,"svid":18},{"PRN":131,"az":174.0,"ss":47.0,"used":true,"gnssid":1,"svid":12},{"PRN":135,"az":196.0,"ss":47.0,"used":true,"gnssid":1,"svid":16},{"PRN":138,"az":160.0,"ss":49.0,"used":true,"gnssid":1,"svid":19},{"PRN":1,"az":108.0,"ss":37.0,"used":true,"gnssid":0,"svid":1}]}
{"class":"TPV","mode":3,"time":"2018-03-29T21:29:31.750Z","ept":0.005,"lat":44.068788473,"lon":-121.314102152,"altHAE":1105.318,"altMSL":1127.473,"epv":1.553,"track":173.7362,"magtrack":188.1546,"magvar":14.4,"speed":0.006,"climb":0.011,"eps":0.01,"epc":134.20,"ecefx":-2386055.74,"ecefy":-3922197.24,"ecefz":4414355.32,"ecefvx":-0.01,"ecefvy":-0.01,"ecefvz":0.00,"ecefpAcc":1.87,"ecefvAcc":0.01,"velN":-0.006,"velE":0.001,"velD":-0.011,"geoidSep":-22.155,"eph":1.039,"sep":31.974}
{"class":"SKY","vdop":1.39,"tdop":1.01,"hdop":0.95,"pdop":1.68,"satellites":[{"PRN":11,"az":102.0,"ss":46.0,"used":true,"gnssid":0,"svid":11},{"PRN":8,"az":48.0,"ss":43.0,"used":true,"gnssid":0,"svid":8},{"PRN":133,"az":192.0,"ss":45.0,"used":false,"gnssid":1,"svid":14},{"PRN":13,"az":306.0,"ss":41.0,"used":true,"gnssid":0,"svid":13},{"PRN":17,"az":186.0,"ss":44.0,"used":true,"gnssid":0,"svid":17},{"PRN":28,"az":276.0,"ss":50.0,"used":true,"gnssid":0,"svid":28},{"PRN":30,"az":76.0,"ss":56.0,"used":true,"gnssid":0,"svid":30},{"PRN":7,"az":102.0,"ss":49.0,"used":true,"gnssid":0,"svid":7},{"PRN":18,"az":86.0,"ss":41.0,"used":true,"gnssid":0,"svid":18},{"PRN":131,"az":174.0,"ss":46.0,"used":true,"gnssid":1,"svid":12},{"PRN":135,"az":196.0,"ss":47.0,"used":true,"gnssid":1,"svid":16},{"PRN":138,"az":160.0,"ss":49.0,"used":true,"gnssid":1,"svid":19},{"PRN":1,"az":108.0,"ss":36.0,"used":true,"gnssid":0,"svid":1}]}
{"class":"TPV","mode":3,"time":"2018-03-29T21:29:32.000Z","ept":0.005,"lat":44.068788431,"lon":-121.314102018,"altHAE":1105.257,"altMSL":1127.412,"epv":1.529,"track":4.9717,"magtrack":19.3902,"magvar":14.4,"speed":0.010,"climb":-0.021,"eps":0.00,"epc":134.13,"ecefx":-2386055.71,"ecefy":-3922197.21,"ecefz":4414355.27,"ecefvx":0.01,"ecefvy":0.02,"ecefvz":-0.01,"ecefpAcc":1.84,"ecefvAcc":0.01,"velN":0.010,"velE":0.001,"velD":0.021,"geoidSep":-22.155,"eph":1.022,"sep":31.975}
{"class":"SKY","vdop":1.39,"tdop":1.01,"hdop":0.95,"pdop":1.68,"satellites":[{"PRN":11,"az":102.0,"ss":46.0,"used":true,"gnssid":0,"svid":11},{"PRN":8,"az":48.0,"ss":43.0,"used":true,"gnssid":0,"svid":8},{"PRN":133,"az":192.0,"ss":45.0,"used":false,"gnssid":1,"svid":14},{"PRN":13,"az":306.0,"ss":41.0,"used":true,"gnssid":0,"svid":13},{"PRN":17,"az":186.0,"ss":43.0,"used":true,"gnssid":0,"svid":17},{"PRN":28,"az":276.0,"ss":50.0,"used":true,"gnssid":0,"svid":28},{"PRN":30,"az":76.0,"ss":56.0,"used":true,"gnssid":0,"svid":30},{"PRN":7,"az":102.0,"ss":49.0,"used":true,"gnssid":0,"svid":7},{"PRN":18,"az":86.0,"ss":41.0,"used":true,"gnssid":0,"svid":18},{"PRN":131,"az":174.0,"ss":46.0,"used":true,"gnssid":1,"svid":12},{"PRN":135,"az":196.0,"ss":48.0,"used":true,"gnssid":1,"svid":16},{"PRN":138,"az":160.0,"ss":49.0,"used":true,"gnssid":1,"svid":19},{"PRN":1,"az":108.0,"ss":37.0,"used":true,"gnssid":0,"svid":1}]}
{"class":"TPV","mode":3,"time":"2018-03-29T21:29:32.250Z","ept":0.005,"lat":44.068788333,"lon":-121.314101822,"altHAE":1105.206,"altMSL":1127.361,"epv":1.448,"track":42.0072,"magtrack":56.4256,"magvar":14.4,"speed":0.013,"climb":0.010,"eps":0.02,"epc":134.04,"ecefx":-2386055.68,"ecefy":-3922197.19,"ecefz":4414355.23,"ecefvx":0.01,"ecefvy":-0.00,"ecefvz":0.01,"ecefpAcc":1.74,"ecefvAcc":0.03,"velN":0.009,"velE":0.008,"velD":-0.010,"geoidSep":-22.155,"eph":0.968,"sep":31.975}
{"class":"SKY","vdop":1.39,"tdop":1.01,"hdop":0.95,"pdop":1.68,"satellites":[{"PRN":94,"az":72.0,"ss":41.0,"used":true,"gnssid":2,"svid":24},{"PRN":11,"az":102.0,"ss":46.0,"used":true,"gnssid":0,"svid":11},{"PRN":8,"az":48.0,"ss":42.0,"used":true,"gnssid":0,"svid":8},{"PRN":133,"az":192.0,"ss":45.0,"used":false,"gnssid":1,"svid":14},{"PRN":13,"az":306.0,"ss":41.0,"used":true,"gnssid":0,"svid":13},{"PRN":17,"az":186.0,"ss":43.0,"used":true,"gnssid":0,"svid":17},{"PRN":28,"az":278.0,"ss":50.0,"used":true,"gnssid":0,"svid":28},{"PRN":30,"az":76.0,"ss":56.0,"used":true,"gnssid":0,"svid":30},{"PRN":7,"az":102.0,"ss":49.0,"used":true,"gnssid":0,"svid":7},{"PRN":18,"az":86.0,"ss":41.0,"used":true,"gnssid":0,"svid":18},{"PRN":131,"az":174.0,"ss":46.0,"used":true,"gnssid":1,"svid":12},{"PRN":135,"az":196.0,"ss":47.0,"used":true,"gnssid":1,"svid":16},{"PRN":138,"az":160.0,"ss":49.0,"used":true,"gnssid":1,"svid":19},{"PRN":1,"az":108.0,"ss":37.0,"used":true,"gnssid":0,"svid":1}]}
{"class":"TPV","mode":3,"time":"2018-03-29T21:29:32.500Z","ept":0.005,"lat":44.068788247,"lon":-121.314101500,"altHAE":1105.157,"altMSL":1127.312,"epv":1.432,"track":356.2674,"magtrack":10.6858,"magvar":14.4,"speed":0.015,"climb":0.003,"eps":0.01,"epc":133.72,"ecefx":-2386055.64,"ecefy":-3922197.18,"ecefz":4414355.19,"ecefvx":0.00,"ecefvy":0.01,"ecefvz":0.01,"ecefpAcc":1.72,"ecefvAcc":0.02,"velN":0.015,"velE":-0.001,"velD":-0.003,"geoidSep":-22.155,"eph":0.958,"sep":31.976}
{"class":"SKY","vdop":1.39,"tdop":1.01,"hdop":0.95,"pdop":1.68,"satellites":[{"PRN":94,"az":72.0,"ss":42.0,"used":true,"gnssid":2,"svid":24},{"PRN":11,"az":102.0,"ss":46.0,"used":true,"gnssid":0,"svid":11},{"PRN":8,"az":48.0,"ss":43.0,"used":true,"gnssid":0,"svid":8},{"PRN":133,"az":192.0,"ss":45.0,"used":false,"gnssid":1,"svid":14},{"PRN":13,"az":306.0,"ss":41.0,"used":true,"gnssid":0,"svid":13},{"PRN":17,"az":186.0,"ss":43.0,"used":true,"gnssid":0,"svid":17},{"PRN":28,"az":278.0,"ss":50.0,"used":true,"gnssid":0,"svid":28},{"PRN":30,"az":76.0,"ss":56.0,"used":true,"gnssid":0,"svid":30},{"PRN":7,"az":102.0,"ss":49.0,"used":true,"gnssid":0,"svid":7},{"PRN":18,"az":86.0,"ss":41.0,"used":true,"gnssid":0,"svid":18},{"PRN":131,"az":174.0,"ss":46.0,"used":true,"gnssid":1,"svid":12},{"PRN":135,"az":196.0,"ss":48.0,"used":true,"gnssid":1,"svid":16},{"PRN":138,"az":160.0,"ss":49.0,"used":true,"gnssid":1,"svid":19},{"PRN":1,"az":108.0,"ss":37.0,"used":true,"gnssid":0,"svid":1}]}
{"class":"TPV","mode":3,"time":"2018-03-29T21:29:32.750Z","ept":0.005,"lat":44.068788278,"lon":-121.314101376,"altHAE":1105.090,"altMSL":1127.244,"epv":1.420,"track":357.7600,"magtrack":12.1784,"magvar":14.4,"speed":0.026,"climb":-0.010,"eps":0.01,"epc":133.66,"ecefx":-2386055.61,"ecefy":-3922197.14,"ecefz":4414355.14,"ecefvx":0.01,"ecefvy":0.02,"ecefvz":0.01,"ecefpAcc":1.71,"ecefvAcc":0.01,"velN":0.026,"velE":-0.001,"velD":0.010,"geoidSep":-22.155,"eph":0.950,"sep":31.977}
{"class":"SKY","vdop":1.39,"tdop":1.01,"hdop":0.95,"pdop":1.68,"satellites":[{"PRN":94,"az":72.0,"ss":43.0,"used":true,"gnssid":2,"svid":24},{"PRN":11,"az":102.0,"ss":46.0,"used":true,"gnssid":0,"svid":11},{"PRN":8,"az":48.0,"ss":43.0,"used":true,"gnssid":0,"svid":8},{"PRN":133,"az":192.0,"ss":45.0,"used":false,"gnssid":1,"svid":14},{"PRN":13,"az":306.0,"ss":41.0,"used":true,"gnssid":0,"svid":13},{"PRN":17,"az":186.0,"ss":43.0,"used":true,"gnssid":0,"svid":17},{"PRN":28,"az":278.0,"ss":50.0,"used":true,"gnssid":0,"svid":28},{"PRN":30,"az":76.0,"ss":56.0,"used":true,"gnssid":0,"svid":30},{"PRN":7,"az":102.0,"ss":49.0,"used":true,"gnssid":0,"svid":7},{"PRN":18,"az":86.0,"ss":41.0,"used":true,"gnssid":0,"svid":18},{"PRN":131,"az":174.0,"ss":46.0,"used":true,"gnssid":1,"svid":12},{"PRN":135,"az":196.0,"ss":48.0,"used":true,"gnssid":1,"svid":16},{"PRN":138,"az":160.0,"ss":49.0,"used":true,"gnssid":1,"svid":19},{"PRN":1,"az":108.0,"ss":37.0,"used":true,"gnssid":0,"svid":1}]}
{"class":"TPV","mode":3,"time":"2018-03-29T21:29:33.000Z","ept":0.005,"lat":44.068788324,"lon":-121.314101483,"altHAE":1105.031,"altMSL":1127.185,"epv":1.410,"track":54.7022,"magtrack":69.1206,"magvar":14.4,"speed":0.008,"climb":0.018,"eps":0.01,"epc":133.61,"ecefx":-2386055.59,"ecefy":-3922197.10,"ecefz":4414355.11,"ecefvx":0.00,"ecefvy":-0.01,"ecefvz":0.02,"ecefpAcc":1.70,"ecefvAcc":0.01,"velN":0.005,"velE":0.006,"velD":-0.018,"geoidSep":-22.155,"eph":0.943,"sep":31.978}
{"class":"SKY","vdop":1.39,"tdop":1.01,"hdop":0.95,"pdop":1.68,"satellites":[{"PRN":94,"az":72.0,"ss":43.0,"used":true,"gnssid":2,"svid":24},{"PRN":11,"az":102.0,"ss":46.0,"used":true,"gnssid":0,"svid":11},{"PRN":8,"az":48.0,"ss":42.0,"used":true,"gnssid":0,"svid":8},{"PRN":133,"az":192.0,"ss":45.0,"used":false,"gnssid":1,"svid":14},{"PRN":13,"az":306.0,"ss":41.0,"used":true,"gnssid":0,"svid":13},{"PRN":17,"az":186.0,"ss":44.0,"used":true,"gnssid":0,"svid":17},{"PRN":28,"az":278.0,"ss":50.0,"used":true,"gnssid":0,"svid":28},{"PRN":30,"az":76.0,"ss":56.0,"used":true,"gnssid":0,"svid":30},{"PRN":7,"az":102.0,"ss":49.0,"used":true,"gnssid":0,"svid":7},{"PRN":18,"az":86.0,"ss":41.0,"used":true,"gnssid":0,"svid":18},{"PRN":131,"az":174.0,"ss":46.0,"used":true,"gnssid":1,"svid":12},{"PRN":135,"az":196.0,"ss":47.0,"used":true,"gnssid":1,"svid":16},{"PRN":138,"az":160.0,"ss":49.0,"used":true,"gnssid":1,"svid":19},{"PRN":1,"az":108.0,"ss":37.0,"used":true,"gnssid":0,"svid":1}]}
{"class":"TPV","mode":3,"time":"2018-03-29T21:29:33.250Z","ept":0.005,"lat":44.068788191,"lon":-121.314101332,"altHAE":1105.029,"altMSL":1127.184,"epv":1.401,"track":106.2593,"magtrack":120.6777,"magvar":14.4,"speed":0.010,"climb":0.022,"eps":0.01,"epc":133.58,"ecefx":-2386055.58,"ecefy":-3922197.11,"ecefz":4414355.09,"ecefvx":-0.00,"ecefvy":-0.02,"ecefvz":0.01,"ecefpAcc":1.69,"ecefvAcc":0.02,"velN":-0.003,"velE":0.010,"velD":-0.022,"geoidSep":-22.155,"eph":0.937,"sep":31.979}
{"class":"SKY","vdop":1.39,"tdop":1.01,"hdop":0.95,"pdop":1.68,"satellites":[{"PRN":94,"az":72.0,"ss":44.0,"used":true,"gnssid":2,"svid":24},{"PRN":11,"az":102.0,"ss":46.0,"used":true,"gnssid":0,"svid":11},{"PRN":8,"az":48.0,"ss":43.0,"used":true,"gnssid":0,"svid":8},{"PRN":133,"az":192.0,"ss":45.0,"used":false,"gnssid":1,"svid":14},{"PRN":13,"az":306.0,"ss":41.0,"used":true,"gnssid":0,"svid":13},{"PRN":17,"az":186.0,"ss":44.0,"used":true,"gnssid":0,"svid":17},{"PRN":28,"az":278.0,"ss":50.0,"used":true,"gnssid":0,"svid":28},{"PRN":30,"az":76.0,"ss":56.0,"used":true,"gnssid":0,"svid":30},{"PRN":7,"az":102.0,"ss":49.0,"used":true,"gnssid":0,"svid":7},{"PRN":18,"az":86.0,"ss":41.0,"used":true,"gnssid":0,"svid":18},{"PRN":131,"az":174.0,"ss":46.0,"used":true,"gnssid":1,"svid":12},{"PRN":135,"az":196.0,"ss":47.0,"used":true,"gnssid":1,"svid":16},{"PRN":138,"az":160.0,"ss":49.0,"used":true,"gnssid":1,"svid":19},{"PRN":1,"az":108.0,"ss":37.0,"used":true,"gnssid":0,"svid":1}]}
{"class":"TPV","mode":3,"time":"2018-03-29T21:29:33.500Z","ept":0.005,"lat":44.068788172,"lon":-121.314101320,"altHAE":1105.023,"altMSL":1127.177,"epv":1.391,"track":137.3661,"magtrack":151.7846,"magvar":14.4,"speed":0.010,"climb":0.012,"eps":0.01,"epc":133.55,"ecefx":-2386055.58,"ecefy":-3922197.11,"ecefz":4414355.09,"ecefvx":-0.00,"ecefvy":-0.02,"ecefvz":0.00,"ecefpAcc":1.67,"ecefvAcc":0.02,"velN":-0.008,"velE":0.007,"velD":-0.012,"geoidSep":-22.155,"eph":0.930,"sep":31.980}
{"class":"SKY","vdop":1.39,"tdop":1.01,"hdop":0.95,"pdop":1.68,"satellites":[{"PRN":94,"az":72.0,"ss":44.0,"used":true,"gnssid":2,"svid":24},{"PRN":11,"az":102.0,"ss":46.0,"used":true,"gnssid":0,"svid":11},{"PRN":8,"az":48.0,"ss":43.0,"used":true,"gnssid":0,"svid":8},{"PRN":133,"az":192.0,"ss":45.0,"used":false,"gnssid":1,"svid":14},{"PRN":13,"az":306.0,"ss":41.0,"used":true,"gnssid":0,"svid":13},{"PRN":17,"az":186.0,"ss":44.0,"used":true,"gnssid":0,"svid":17},{"PRN":28,"az":278.0,"ss":50.0,"used":true,"gnssid":0,"svid":28},{"PRN":30,"az":76.0,"ss":56.0,"used":true,"gnssid":0,"svid":30},{"PRN":7,"az":102.0,"ss":49.0,"used":true,"gnssid":0,"svid":7},{"PRN":18,"az":86.0,"ss":41.0,"used":true,"gnssid":0,"svid":18},{"PRN":131,"az":174.0,"ss":46.0,"used":true,"gnssid":1,"svid":12},{"PRN":135,"az":196.0,"ss":48.0,"used":true,"gnssid":1,"svid":16},{"PRN":138,"az":160.0,"ss":49.0,"used":true,"gnssid":1,"svid":19},{"PRN":1,"az":108.0,"ss":37.0,"used":true,"gnssid":0,"svid":1}]}
{"class":"TPV","mode":3,"time":"2018-03-29T21:29:33.750Z","ept":0.005,"lat":44.068788092,"lon":-121.314101318,"altHAE":1105.039,"altMSL":1127.193,"epv":1.390,"track":46.2890,"magtrack":60.7074,"magvar":14.4,"speed":0.017,"climb":0.015,"eps":0.01,"epc":133.51,"ecefx":-2386055.59,"ecefy":-3922197.13,"ecefz":4414355.09,"ecefvx":0.01,"ecefvy":-0.01,"ecefvz":0.02,"ecefpAcc":1.67,"ecefvAcc":0.01,"velN":0.012,"velE":0.012,"velD":-0.015,"geoidSep":-22.155,"eph":0.929,"sep":31.980}
{"class":"SKY","vdop":1.39,"tdop":1.01,"hdop":0.95,"pdop":1.68,"satellites":[{"PRN":94,"az":72.0,"ss":44.0,"used":true,"gnssid":2,"svid":24},{"PRN":11,"az":102.0,"ss":46.0,"used":true,"gnssid":0,"svid":11},{"PRN":8,"az":48.0,"ss":43.0,"used":true,"gnssid":0,"svid":8},{"PRN":133,"az":192.0,"ss":45.0,"used":false,"gnssid":1,"svid":14},{"PRN":13,"az":306.0,"ss":41.0,"used":true,"gnssid":0,"svid":13},{"PRN":17,"az":186.0,"ss":44.0,"used":true,"gnssid":0,"svid":17},{"PRN":28,"az":278.0,"ss":50.0,"used":true,"gnssid":0,"svid":28},{"PRN":30,"az":76.0,"ss":56.0,"used":true,"gnssid":0,"svid":30},{"PRN":7,"az":102.0,"ss":49.0,"used":true,"gnssid":0,"svid":7},{"PRN":18,"az":86.0,"ss":41.0,"used":true,"gnssid":0,"svid":18},{"PRN":131,"az":174.0,"ss":46.0,"used":true,"gnssid":1,"svid":12},{"PRN":135,"az":196.0,"ss":48.0,"used":true,"gnssid":1,"svid":16},{"PRN":138,"az":160.0,"ss":49.0,"used":true,"gnssid":1,"svid":19},{"PRN":1,"az":108.0,"ss":37.0,"used":true,"gnssid":0,"svid":1}]}
{"class":"TPV","mode":3,"time":"2018-03-29T21:29:34.000Z","ept":0.005,"lat":44.068787961,"lon":-121.314101158,"altHAE":1105.058,"altMSL":1127.213,"epv":1.390,"track":113.0212,"magtrack":127.4396,"magvar":14.4,"speed":0.008,"climb":0.035,"eps":0.01,"epc":133.51,"ecefx":-2386055.59,"ecefy":-3922197.15,"ecefz":4414355.10,"ecefvx":-0.01,"ecefvy":-0.03,"ecefvz":0.02,"ecefpAcc":1.67,"ecefvAcc":0.02,"velN":-0.003,"velE":0.007,"velD":-0.035,"geoidSep":-22.155,"eph":0.929,"sep":31.981}
{"class":"SKY","vdop":1.39,"tdop":1.01,"hdop":0.95,"pdop":1.68,"satellites":[{"PRN":94,"az":72.0,"ss":44.0,"used":true,"gnssid":2,"svid":24},{"PRN":11,"az":102.0,"ss":46.0,"used":true,"gnssid":0,"svid":11},{"PRN":8,"az":48.0,"ss":43.0,"used":true,"gnssid":0,"svid":8},{"PRN":133,"az":192.0,"ss":45.0,"used":false,"gnssid":1,"svid":14},{"PRN":13,"az":306.0,"ss":41.0,"used":true,"gnssid":0,"svid":13},{"PRN":17,"az":186.0,"ss":44.0,"used":true,"gnssid":0,"svid":17},{"PRN":28,"az":278.0,"ss":50.0,"used":true,"gnssid":0,"svid":28},{"PRN":30,"az":76.0,"ss":56.0,"used":true,"gnssid":0,"svid":30},{"PRN":7,"az":102.0,"ss":49.0,"used":true,"gnssid":0,"svid":7},{"PRN":18,"az":86.0,"ss":41.0,"used":true,"gnssid":0,"svid":18},{"PRN":131,"az":174.0,"ss":46.0,"used":true,"gnssid":1,"svid":12},{"PRN":135,"az":196.0,"ss":47.0,"used":true,"gnssid":1,"svid":16},{"PRN":138,"az":160.0,"ss":49.0,"used":true,"gnssid":1,"svid":19},{"PRN":1,"az":108.0,"ss":37.0,"used":true,"gnssid":0,"svid":1}]}
{"class":"TPV","mode":3,"time":"2018-03-29T21:29:34.250Z","ept":0.005,"lat":44.068788566,"lon":-121.314100987,"altHAE":1105.065,"altMSL":1127.219,"epv":1.360,"track":60.7643,"magtrack":75.1827,"magvar":14.4,"speed":0.013,"climb":-0.000,"eps":0.01,"epc":133.52,"ecefx":-2386055.56,"ecefy":-3922197.12,"ecefz":4414355.15,"ecefvx":0.01,"ecefvy":-0.00,"ecefvz":0.00,"ecefpAcc":1.63,"ecefvAcc":0.02,"velN":0.006,"velE":0.011,"velD":0.000,"geoidSep":-22.155,"eph":0.905,"sep":31.982}
{"class":"SKY","vdop":1.39,"tdop":1.01,"hdop":0.93,"pdop":1.67,"satellites":[{"PRN":81,"az":124.0,"ss":36.0,"used":true,"gnssid":2,"svid":11},{"PRN":94,"az":72.0,"ss":45.0,"used":true,"gnssid":2,"svid":24},{"PRN":11,"az":102.0,"ss":46.0,"used":true,"gnssid":0,"svid":11},{"PRN":8,"az":48.0,"ss":42.0,"used":true,"gnssid":0,"svid":8},{"PRN":133,"az":192.0,"ss":45.0,"used":false,"gnssid":1,"svid":14},{"PRN":13,"az":306.0,"ss":41.0,"used":true,"gnssid":0,"svid":13},{"PRN":17,"az":186.0,"ss":44.0,"used":true,"gnssid":0,"svid":17},{"PRN":28,"az":278.0,"ss":50.0,"used":true,"gnssid":0,"svid":28},{"PRN":30,"az":76.0,"ss":55.0,"used":true,"gnssid":0,"svid":30},{"PRN":7,"az":102.0,"ss":49.0,"used":true,"gnssid":0,"svid":7},{"PRN":18,"az":86.0,"ss":41.0,"used":true,"gnssid":0,"svid":18},{"PRN":131,"az":174.0,"ss":46.0,"used":true,"gnssid":1,"svid":12},{"PRN":135,"az":196.0,"ss":47.0,"used":true,"gnssid":1,"svid":16},{"PRN":138,"az":160.0,"ss":49.0,"used":true,"gnssid":1,"svid":19},{"PRN":1,"az":108.0,"ss":37.0,"used":true,"gnssid":0,"svid":1}]}
{"class":"TPV","mode":3,"time":"2018-03-29T21:29:34.500Z","ept":0.005,"lat":44.068788466,"lon":-121.314100722,"altHAE":1105.091,"altMSL":1127.246,"epv":1.355,"track":48.5547,"magtrack":62.9731,"magvar":14.4,"speed":0.009,"climb":0.010,"eps":0.01,"epc":133.40,"ecefx":-2386055.55,"ecefy":-3922197.16,"ecefz":4414355.16,"ecefvx":0.00,"ecefvy":-0.01,"ecefvz":0.01,"ecefpAcc":1.63,"ecefvAcc":0.01,"velN":0.006,"velE":0.007,"velD":-0.010,"geoidSep":-22.155,"eph":0.901,"sep":31.784}
{"class":"SKY","vdop":1.39,"tdop":1.01,"hdop":0.93,"pdop":1.67,"satellites":[{"PRN":81,"az":124.0,"ss":36.0,"used":true,"gnssid":2,"svid":11},{"PRN":94,"az":72.0,"ss":45.0,"used":true,"gnssid":2,"svid":24},{"PRN":11,"az":102.0,"ss":46.0,"used":true,"gnssid":0,"svid":11},{"PRN":8,"az":48.0,"ss":42.0,"used":true,"gnssid":0,"svid":8},{"PRN":133,"az":192.0,"ss":45.0,"used":false,"gnssid":1,"svid":14},{"PRN":13,"az":306.0,"ss":41.0,"used":true,"gnssid":0,"svid":13},{"PRN":17,"az":186.0,"ss":44.0,"used":true,"gnssid":0,"svid":17},{"PRN":28,"az":278.0,"ss":50.0,"used":true,"gnssid":0,"svid":28},{"PRN":30,"az":76.0,"ss":55.0,"used":true,"gnssid":0,"svid":30},{"PRN":7,"az":102.0,"ss":49.0,"used":true,"gnssid":0,"svid":7},{"PRN":18,"az":86.0,"ss":40.0,"used":true,"gnssid":0,"svid":18},{"PRN":131,"az":174.0,"ss":46.0,"used":true,"gnssid":1,"svid":12},{"PRN":135,"az":196.0,"ss":47.0,"used":true,"gnssid":1,"svid":16},{"PRN":138,"az":160.0,"ss":49.0,"used":true,"gnssid":1,"svid":19},{"PRN":1,"az":108.0,"ss":37.0,"used":true,"gnssid":0,"svid":1}]}
{"class":"TPV","mode":3,"time":"2018-03-29T21:29:34.750Z","ept":0.005,"lat":44.068788308,"lon":-121.314100306,"altHAE":1105.121,"altMSL":1127.275,"epv":1.353,"track":358.7984,"magtrack":13.2168,"magvar":14.4,"speed":0.016,"climb":0.000,"eps":0.01,"epc":133.38,"ecefx":-2386055.54,"ecefy":-3922197.20,"ecefz":4414355.17,"ecefvx":0.01,"ecefvy":0.01,"ecefvz":0.01,"ecefpAcc":1.62,"ecefvAcc":0.02,"velN":0.016,"velE":-0.000,"velD":-0.000,"geoidSep":-22.155,"eph":0.899,"sep":31.785}
{"class":"SKY","vdop":1.39,"tdop":1.01,"hdop":0.93,"pdop":1.67,"satellites":[{"PRN":81,"az":124.0,"ss":36.0,"used":true,"gnssid":2,"svid":11},{"PRN":94,"az":72.0,"ss":45.0,"used":true,"gnssid":2,"svid":24},{"PRN":11,"az":102.0,"ss":46.0,"used":true,"gnssid":0,"svid":11},{"PRN":8,"az":48.0,"ss":42.0,"used":true,"gnssid":0,"svid":8},{"PRN":133,"az":192.0,"ss":45.0,"used":false,"gnssid":1,"svid":14},{"PRN":13,"az":306.0,"ss":41.0,"used":true,"gnssid":0,"svid":13},{"PRN":17,"az":186.0,"ss":44.0,"used":true,"gnssid":0,"svid":17},{"PRN":28,"az":278.0,"ss":50.0,"used":true,"gnssid":0,"svid":28},{"PRN":30,"az":76.0,"ss":55.0,"used":true,"gnssid":0,"svid":30},{"PRN":7,"az":102.0,"ss":49.0,"used":true,"gnssid":0,"svid":7},{"PRN":18,"az":86.0,"ss":41.0,"used":true,"gnssid":0,"svid":18},{"PRN":131,"az":174.0,"ss":46.0,"used":true,"gnssid":1,"svid":12},{"PRN":135,"az":196.0,"ss":47.0,"used":true,"gnssid":1,"svid":16},{"PRN":138,"az":160.0,"ss":49.0,"used":true,"gnssid":1,"svid":19},{"PRN":1,"az":108.0,"ss":36.0,"used":true,"gnssid":0,"svid":1}]}
{"class":"TPV","mode":3,"time":"2018-03-29T21:29:35.000Z","ept":0.005,"lat":44.068788221,"lon":-121.314099862,"altHAE":1105.163,"altMSL":1127.317,"epv":1.349,"track":349.1634,"magtrack":3.5818,"magvar":14.4,"speed":0.003,"climb":0.026,"eps":0.02,"epc":133.38,"ecefx":-2386055.53,"ecefy":-3922197.25,"ecefz":4414355.19,"ecefvx":-0.01,"ecefvy":-0.01,"ecefvz":0.02,"ecefpAcc":1.62,"ecefvAcc":0.03,"velN":0.003,"velE":-0.001,"velD":-0.026,"geoidSep":-22.155,"eph":0.896,"sep":31.786}
{"class":"SKY","vdop":1.39,"tdop":1.01,"hdop":0.93,"pdop":1.67,"satellites":[{"PRN":81,"az":124.0,"ss":37.0,"used":true,"gnssid":2,"svid":11},{"PRN":94,"az":72.0,"ss":46.0,"used":true,"gnssid":2,"svid":24},{"PRN":11,"az":102.0,"ss":46.0,"used":true,"gnssid":0,"svid":11},{"PRN":8,"az":48.0,"ss":43.0,"used":true,"gnssid":0,"svid":8},{"PRN":133,"az":192.0,"ss":45.0,"used":false,"gnssid":1,"svid":14},{"PRN":13,"az":306.0,"ss":41.0,"used":true,"gnssid":0,"svid":13},{"PRN":17,"az":186.0,"ss":44.0,"used":true,"gnssid":0,"svid":17},{"PRN":28,"az":278.0,"ss":50.0,"used":true,"gnssid":0,"svid":28},{"PRN":30,"az":76.0,"ss":55.0,"used":true,"gnssid":0,"svid":30},{"PRN":7,"az":102.0,"ss":49.0,"used":true,"gnssid":0,"svid":7},{"PRN":18,"az":86.0,"ss":41.0,"used":true,"gnssid":0,"svid":18},{"PRN":131,"az":174.0,"ss":46.0,"used":true,"gnssid":1,"svid":12},{"PRN":135,"az":196.0,"ss":47.0,"used":true,"gnssid":1,"svid":16},{"PRN":138,"az":160.0,"ss":49.0,"used":true,"gnssid":1,"svid":19},{"PRN":1,"az":108.0,"ss":36.0,"used":true,"gnssid":0,"svid":1}]}
{"class":"TPV","mode":3,"time":"2018-03-29T21:29:35.250Z","ept":0.005,"lat":44.068788293,"lon":-121.314099535,"altHAE":1105.180,"altMSL":1127.335,"epv":1.350,"track":82.2739,"magtrack":96.6923,"magvar":14.4,"speed":0.024,"climb":0.029,"eps":0.02,"epc":133.37,"ecefx":-2386055.51,"ecefy":-3922197.27,"ecefz":4414355.21,"ecefvx":0.01,"ecefvy":-0.03,"ecefvz":0.02,"ecefpAcc":1.62,"ecefvAcc":0.03,"velN":0.003,"velE":0.024,"velD":-0.029,"geoidSep":-22.155,"eph":0.895,"sep":31.787}
{"class":"SKY","vdop":1.39,"tdop":1.01,"hdop":0.93,"pdop":1.67,"satellites":[{"PRN":81,"az":124.0,"ss":37.0,"used":true,"gnssid":2,"svid":11},{"PRN":94,"az":72.0,"ss":46.0,"used":true,"gnssid":2,"svid":24},{"PRN":11,"az":102.0,"ss":46.0,"used":true,"gnssid":0,"svid":11},{"PRN":8,"az":48.0,"ss":43.0,"used":true,"gnssid":0,"svid":8},{"PRN":133,"az":192.0,"ss":45.0,"used":false,"gnssid":1,"svid":14},{"PRN":13,"az":306.0,"ss":41.0,"used":true,"gnssid":0,"svid":13},{"PRN":17,"az":186.0,"ss":44.0,"used":true,"gnssid":0,"svid":17},{"PRN":28,"az":278.0,"ss":50.0,"used":true,"gnssid":0,"svid":28},{"PRN":30,"az":76.0,"ss":55.0,"used":true,"gnssid":0,"svid":30},{"PRN":7,"az":102.0,"ss":50.0,"used":true,"gnssid":0,"svid":7},{"PRN":18,"az":86.0,"ss":41.0,"used":true,"gnssid":0,"svid":18},{"PRN":131,"az":174.0,"ss":46.0,"used":true,"gnssid":1,"svid":12},{"PRN":135,"az":196.0,"ss":47.0,"used":true,"gnssid":1,"svid":16},{"PRN":138,"az":160.0,"ss":49.0,"used":true,"gnssid":1,"svid":19},{"PRN":1,"az":108.0,"ss":36.0,"used":true,"gnssid":0,"svid":1}]}
{"class":"TPV","mode":3,"time":"2018-03-29T21:29:35.500Z","ept":0.005,"lat":44.068788222,"lon":-121.314099315,"altHAE":1105.197,"altMSL":1127.352,"epv":1.347,"track":7.4783,"magtrack":21.8967,"magvar":14.4,"speed":0.018,"climb":0.006,"eps":0.02,"epc":133.37,"ecefx":-2386055.51,"ecefy":-3922197.30,"ecefz":4414355.21,"ecefvx":0.01,"ecefvy":0.01,"ecefvz":0.02,"ecefpAcc":1.62,"ecefvAcc":0.03,"velN":0.017,"velE":0.002,"velD":-0.006,"geoidSep":-22.155,"eph":0.893,"sep":31.788}
{"class":"SKY","vdop":1.39,"tdop":1.01,"hdop":0.93,"pdop":1.67,"satellites":[{"PRN":81,"az":124.0,"ss":38.0,"used":true,"gnssid":2,"svid":11},{"PRN":94,"az":72.0,"ss":46.0,"used":true,"gnssid":2,"svid":24},{"PRN":11,"az":102.0,"ss":46.0,"used":true,"gnssid":0,"svid":11},{"PRN":8,"az":48.0,"ss":43.0,"used":true,"gnssid":0,"svid":8},{"PRN":133,"az":192.0,"ss":46.0,"used":false,"gnssid":1,"svid":14},{"PRN":13,"az":306.0,"ss":41.0,"used":true,"gnssid":0,"svid":13},{"PRN":17,"az":186.0,"ss":44.0,"used":true,"gnssid":0,"svid":17},{"PRN":28,"az":278.0,"ss":50.0,"used":true,"gnssid":0,"svid":28},{"PRN":30,"az":76.0,"ss":55.0,"used":true,"gnssid":0,"svid":30},{"PRN":7,"az":102.0,"ss":50.0,"used":true,"gnssid":0,"svid":7},{"PRN":18,"az":86.0,"ss":41.0,"used":true,"gnssid":0,"svid":18},{"PRN":131,"az":174.0,"ss":46.0,"used":true,"gnssid":1,"svid":12},{"PRN":135,"az":196.0,"ss":47.0,"used":true,"gnssid":1,"svid":16},{"PRN":138,"az":160.0,"ss":49.0,"used":true,"gnssid":1,"svid":19},{"PRN":1,"az":108.0,"ss":36.0,"used":true,"gnssid":0,"svid":1}]}
{"class":"TPV","mode":3,"time":"2018-03-29T21:29:35.750Z","ept":0.005,"lat":44.068788212,"lon":-121.314099149,"altHAE":1105.206,"altMSL":1127.361,"epv":1.340,"track":28.6668,"magtrack":43.0852,"magvar":14.4,"speed":0.013,"climb":0.022,"eps":0.02,"epc":133.37,"ecefx":-2386055.50,"ecefy":-3922197.31,"ecefz":4414355.22,"ecefvx":0.00,"ecefvy":-0.01,"ecefvz":0.02,"ecefpAcc":1.61,"ecefvAcc":0.03,"velN":0.011,"velE":0.006,"velD":-0.022,"geoidSep":-22.155,"eph":0.887,"sep":31.789}
{"class":"SKY","vdop":1.39,"tdop":1.01,"hdop":0.93,"pdop":1.67,"satellites":[{"PRN":81,"az":124.0,"ss":38.0,"used":true,"gnssid":2,"svid":11},{"PRN":94,"az":72.0,"ss":46.0,"used":true,"gnssid":2,"svid":24},{"PRN":11,"az":102.0,"ss":46.0,"used":true,"gnssid":0,"svid":11},{"PRN":8,"az":48.0,"ss":43.0,"used":true,"gnssid":0,"svid":8},{"PRN":133,"az":192.0,"ss":46.0,"used":false,"gnssid":1,"svid":14},{"PRN":13,"az":306.0,"ss":41.0,"used":true,"gnssid":0,"svid":13},{"PRN":17,"az":186.0,"ss":44.0,"used":true,"gnssid":0,"svid":17},{"PRN":28,"az":278.0,"ss":50.0,"used":true,"gnssid":0,"svid":28},{"PRN":30,"az":76.0,"ss":55.0,"used":true,"gnssid":0,"svid":30},{"PRN":7,"az":102.0,"ss":50.0,"used":true,"gnssid":0,"svid":7},{"PRN":18,"az":86.0,"ss":41.0,"used":true,"gnssid":0,"svid":18},{"PRN":131,"az":174.0,"ss":46.0,"used":true,"gnssid":1,"svid":12},{"PRN":135,"az":196.0,"ss":47.0,"used":true,"gnssid":1,"svid":16},{"PRN":138,"az":160.0,"ss":49.0,"used":true,"gnssid":1,"svid":19},{"PRN":1,"az":108.0,"ss":36.0,"used":true,"gnssid":0,"svid":1}]}
{"class":"TPV","mode":3,"time":"2018-03-29T21:29:36.000Z","ept":0.005,"lat":44.068788144,"lon":-121.314098844,"altHAE":1105.249,"altMSL":1127.403,"epv":1.337,"track":349.4444,"magtrack":3.8628,"magvar":14.4,"speed":0.016,"climb":-0.008,"eps":0.02,"epc":133.34,"ecefx":-2386055.50,"ecefy":-3922197.35,"ecefz":4414355.24,"ecefvx":0.01,"ecefvy":0.02,"ecefvz":0.01,"ecefpAcc":1.60,"ecefvAcc":0.03,"velN":0.015,"velE":-0.003,"velD":0.008,"geoidSep":-22.155,"eph":0.884,"sep":31.790}
{"class":"SKY","vdop":1.39,"tdop":1.01,"hdop":0.93,"pdop":1.67,"satellites":[{"PRN":81,"az":124.0,"ss":38.0,"used":true,"gnssid":2,"svid":11},{"PRN":94,"az":72.0,"ss":47.0,"used":true,"gnssid":2,"svid":24},{"PRN":11,"az":102.0,"ss":46.0,"used":true,"gnssid":0,"svid":11},{"PRN":8,"az":48.0,"ss":43.0,"used":true,"gnssid":0,"svid":8},{"PRN":133,"az":192.0,"ss":46.0,"used":false,"gnssid":1,"svid":14},{"PRN":13,"az":306.0,"ss":41.0,"used":true,"gnssid":0,"svid":13},{"PRN":17,"az":186.0,"ss":44.0,"used":true,"gnssid":0,"svid":17},{"PRN":28,"az":278.0,"ss":50.0,"used":true,"gnssid":0,"svid":28},{"PRN":30,"az":76.0,"ss":55.0,"used":true,"gnssid":0,"svid":30},{"PRN":7,"az":102.0,"ss":50.0,"used":true,"gnssid":0,"svid":7},{"PRN":18,"az":86.0,"ss":41.0,"used":true,"gnssid":0,"svid":18},{"PRN":131,"az":174.0,"ss":45.0,"used":true,"gnssid":1,"svid":12},{"PRN":135,"az":196.0,"ss":47.0,"used":true,"gnssid":1,"svid":16},{"PRN":138,"az":160.0,"ss":49.0,"used":true,"gnssid":1,"svid":19},{"PRN":1,"az":108.0,"ss":36.0,"used":true,"gnssid":0,"svid":1}]}
{"class":"TPV","mode":3,"time":"2018-03-29T21:29:36.250Z","ept":0.005,"lat":44.068788039,"lon":-121.314098566,"altHAE":1105.279,"altMSL":1127.434,"epv":1.332,"track":340.3129,"magtrack":354.7313,"magvar":14.4,"speed":0.020,"climb":-0.005,"eps":0.02,"epc":133.33,"ecefx":-2386055.49,"ecefy":-3922197.39,"ecefz":4414355.26,"ecefvx":0.00,"ecefvy":0.02,"ecefvz":0.01,"ecefpAcc":1.60,"ecefvAcc":0.02,"velN":0.019,"velE":-0.007,"velD":0.005,"geoidSep":-22.155,"eph":0.880,"sep":31.790}
{"class":"SKY","vdop":1.39,"tdop":1.01,"hdop":0.93,"pdop":1.67,"satellites":[{"PRN":81,"az":124.0,"ss":38.0,"used":true,"gnssid":2,"svid":11},{"PRN":94,"az":72.0,"ss":47.0,"used":true,"gnssid":2,"svid":24},{"PRN":11,"az":102.0,"ss":46.0,"used":true,"gnssid":0,"svid":11},{"PRN":8,"az":48.0,"ss":43.0,"used":true,"gnssid":0,"svid":8},{"PRN":133,"az":192.0,"ss":46.0,"used":false,"gnssid":1,"svid":14},{"PRN":13,"az":306.0,"ss":41.0,"used":true,"gnssid":0,"svid":13},{"PRN":17,"az":186.0,"ss":44.0,"used":true,"gnssid":0,"svid":17},{"PRN":28,"az":278.0,"ss":50.0,"used":true,"gnssid":0,"svid":28},{"PRN":30,"az":76.0,"ss":55.0,"used":true,"gnssid":0,"svid":30},{"PRN":7,"az":102.0,"ss":50.0,"used":true,"gnssid":0,"svid":7},{"PRN":18,"az":86.0,"ss":40.0,"used":true,"gnssid":0,"svid":18},{"PRN":131,"az":174.0,"ss":46.0,"used":true,"gnssid":1,"svid":12},{"PRN":135,"az":196.0,"ss":47.0,"used":true,"gnssid":1,"svid":16},{"PRN":138,"az":160.0,"ss":49.0,"used":true,"gnssid":1,"svid":19},{"PRN":1,"az":108.0,"ss":36.0,"used":true,"gnssid":0,"svid":1}]}
