{"class":"TPV","mode":3,"lat":44.068811947,"lon":-121.314307081,"altHAE":1110.277,"altMSL":1132.432,"epv":1.180,"track":205.4488,"magtrack":219.8672,"magvar":14.4,"speed":0.016,"climb":0.022,"eps":0.00,"ecefx":-2386070.67,"ecefy":-3922190.20,"ecefz":4414360.64,"ecefvx":-0.02,"ecefvy":-0.02,"ecefvz":0.00,"ecefpAcc":1.38,"ecefvAcc":0.00,"velN":-0.015,"velE":-0.007,"velD":-0.022,"geoidSep":-22.155,"eph":0.716,"sep":35.068}
{"class":"SKY","vdop":1.54,"tdop":1.03,"hdop":1.01,"pdop":1.85,"satellites":[{"PRN":133,"az":192.0,"ss":48.0,"used":false,"gnssid":1,"svid":14},{"PRN":3,"az":178.0,"ss":45.0,"used":true,"gnssid":0,"svid":3},{"PRN":7,"az":250.0,"ss":44.0,"used":true,"gnssid":0,"svid":7},{"PRN":22,"az":170.0,"ss":42.0,"used":true,"gnssid":0,"svid":22},{"PRN":9,"az":310.0,"ss":44.0,"used":true,"gnssid":0,"svid":9},{"PRN":135,"az":196.0,"ss":48.0,"used":false,"gnssid":1,"svid":16},{"PRN":4,"az":104.0,"ss":39.0,"used":false,"gnssid":0,"svid":4},{"PRN":131,"az":174.0,"ss":46.0,"used":false,"gnssid":1,"svid":12},{"PRN":138,"az":160.0,"ss":43.0,"used":false,"gnssid":1,"svid":19},{"PRN":94,"az":212.0,"ss":43.0,"used":false,"gnssid":2,"svid":24},{"PRN":26,"az":50.0,"ss":46.0,"used":true,"gnssid":0,"svid":26},{"PRN":71,"az":54.0,"ss":49.0,"used":false,"gnssid":2,"svid":1},{"PRN":6,"az":276.0,"ss":36.0,"used":true,"gnssid":0,"svid":6},{"PRN":23,"az":50.0,"ss":51.0,"used":true,"gnssid":0,"svid":23},{"PRN":74,"az":132.0,"ss":50.0,"used":false,"gnssid":2,"svid":4},{"PRN":79,"az":304.0,"ss":45.0,"used":false,"gnssid":2,"svid":9},{"PRN":16,"az":78.0,"ss":50.0,"used":true,"gnssid":0,"svid":16}]}
{"class":"TPV","mode":3,"lat":44.068811845,"lon":-121.314307042,"altHAE":1110.300,"altMSL":1132.455,"epv":1.180,"track":321.0625,"magtrack":335.4810,"magvar":14.4,"speed":0.010,"climb":-0.009,"eps":0.00,"ecefx":-2386070.68,"ecefy":-3922190.22,"ecefz":4414360.65,"ecefvx":0.00,"ecefvy":0.01,"ecefvz":-0.00,"ecefpAcc":1.38,"ecefvAcc":0.01,"velN":0.008,"velE":-0.006,"velD":0.009,"geoidSep":-22.155,"eph":0.717,"sep":35.068}
{"class":"SKY","vdop":1.54,"tdop":1.03,"hdop":1.01,"pdop":1.85,"satellites":[{"PRN":133,"az":192.0,"ss":48.0,"used":false,"gnssid":1,"svid":14},{"PRN":3,"az":178.0,"ss":45.0,"used":true,"gnssid":0,"svid":3},{"PRN":7,"az":250.0,"ss":44.0,"used":true,"gnssid":0,"svid":7},{"PRN":22,"az":170.0,"ss":42.0,"used":true,"gnssid":0,"svid":22},{"PRN":9,"az":310.0,"ss":44.0,"used":true,"gnssid":0,"svid":9},{"PRN":135,"az":196.0,"ss":48.0,"used":false,"gnssid":1,"svid":16},{"PRN":4,"az":104.0,"ss":40.0,"used":false,"gnssid":0,"svid":4},{"PRN":131,"az":174.0,"ss":46.0,"used":false,"gnssid":1,"svid":12},{"PRN":138,"az":160.0,"ss":44.0,"used":false,"gnssid":1,"svid":19},{"PRN":94,"az":212.0,"ss":43.0,"used":false,"gnssid":2,"svid":24},{"PRN":26,"az":50.0,"ss":46.0,"used":true,"gnssid":0,"svid":26},{"PRN":71,"az":54.0,"ss":49.0,"used":false,"gnssid":2,"svid":1},{"PRN":6,"az":276.0,"ss":36.0,"used":true,"gnssid":0,"svid":6},{"PRN":23,"az":50.0,"ss":51.0,"used":true,"gnssid":0,"svid":23},{"PRN":74,"az":132.0,"ss":50.0,"used":false,"gnssid":2,"svid":4},{"PRN":79,"az":304.0,"ss":45.0,"used":false,"gnssid":2,"svid":9},{"PRN":16,"az":78.0,"ss":50.0,"used":true,"gnssid":0,"svid":16}]}
{"class":"TPV","mode":3,"lat":44.068811833,"lon":-121.314307063,"altHAE":1110.308,"altMSL":1132.462,"epv":1.184,"track":123.7411,"magtrack":138.1596,"magvar":14.4,"speed":0.015,"climb":-0.007,"eps":0.01,"ecefx":-2386070.69,"ecefy":-3922190.22,"ecefz":4414360.65,"ecefvx":0.01,"ecefvy":-0.01,"ecefvz":-0.01,"ecefpAcc":1.38,"ecefvAcc":0.01,"velN":-0.009,"velE":0.013,"velD":0.007,"geoidSep":-22.155,"eph":0.719,"sep":35.064}
{"class":"SKY","vdop":1.54,"tdop":1.03,"hdop":1.01,"pdop":1.85,"satellites":[{"PRN":133,"az":192.0,"ss":48.0,"used":false,"gnssid":1,"svid":14},{"PRN":3,"az":178.0,"ss":45.0,"used":true,"gnssid":0,"svid":3},{"PRN":7,"az":250.0,"ss":44.0,"used":true,"gnssid":0,"svid":7},{"PRN":22,"az":170.0,"ss":42.0,"used":true,"gnssid":0,"svid":22},{"PRN":9,"az":310.0,"ss":44.0,"used":true,"gnssid":0,"svid":9},{"PRN":135,"az":196.0,"ss":48.0,"used":false,"gnssid":1,"svid":16},{"PRN":4,"az":104.0,"ss":40.0,"used":false,"gnssid":0,"svid":4},{"PRN":131,"az":174.0,"ss":46.0,"used":false,"gnssid":1,"svid":12},{"PRN":138,"az":160.0,"ss":44.0,"used":false,"gnssid":1,"svid":19},{"PRN":94,"az":212.0,"ss":43.0,"used":false,"gnssid":2,"svid":24},{"PRN":26,"az":50.0,"ss":46.0,"used":true,"gnssid":0,"svid":26},{"PRN":71,"az":54.0,"ss":49.0,"used":false,"gnssid":2,"svid":1},{"PRN":6,"az":276.0,"ss":37.0,"used":true,"gnssid":0,"svid":6},{"PRN":23,"az":50.0,"ss":52.0,"used":true,"gnssid":0,"svid":23},{"PRN":74,"az":132.0,"ss":50.0,"used":false,"gnssid":2,"svid":4},{"PRN":79,"az":304.0,"ss":45.0,"used":false,"gnssid":2,"svid":9},{"PRN":16,"az":78.0,"ss":50.0,"used":true,"gnssid":0,"svid":16}]}
{"class":"TPV","mode":3,"lat":44.068811921,"lon":-121.314307221,"altHAE":1110.294,"altMSL":1132.449,"epv":1.185,"track":101.3536,"magtrack":115.7720,"magvar":14.4,"speed":0.003,"climb":0.027,"eps":0.01,"ecefx":-2386070.69,"ecefy":-3922190.20,"ecefz":4414360.65,"ecefvx":-0.01,"ecefvy":-0.02,"ecefvz":0.02,"ecefpAcc":1.39,"ecefvAcc":0.01,"velN":-0.001,"velE":0.003,"velD":-0.027,"geoidSep":-22.155,"eph":0.720,"sep":35.060}
{"class":"SKY","vdop":1.54,"tdop":1.03,"hdop":1.01,"pdop":1.85,"satellites":[{"PRN":133,"az":192.0,"ss":48.0,"used":false,"gnssid":1,"svid":14},{"PRN":3,"az":178.0,"ss":45.0,"used":true,"gnssid":0,"svid":3},{"PRN":7,"az":250.0,"ss":44.0,"used":true,"gnssid":0,"svid":7},{"PRN":22,"az":170.0,"ss":42.0,"used":true,"gnssid":0,"svid":22},{"PRN":9,"az":310.0,"ss":44.0,"used":true,"gnssid":0,"svid":9},{"PRN":135,"az":196.0,"ss":48.0,"used":false,"gnssid":1,"svid":16},{"PRN":4,"az":104.0,"ss":41.0,"used":false,"gnssid":0,"svid":4},{"PRN":131,"az":174.0,"ss":46.0,"used":false,"gnssid":1,"svid":12},{"PRN":138,"az":160.0,"ss":44.0,"used":false,"gnssid":1,"svid":19},{"PRN":94,"az":212.0,"ss":43.0,"used":false,"gnssid":2,"svid":24},{"PRN":26,"az":50.0,"ss":46.0,"used":true,"gnssid":0,"svid":26},{"PRN":71,"az":54.0,"ss":49.0,"used":false,"gnssid":2,"svid":1},{"PRN":6,"az":276.0,"ss":37.0,"used":true,"gnssid":0,"svid":6},{"PRN":23,"az":50.0,"ss":51.0,"used":true,"gnssid":0,"svid":23},{"PRN":74,"az":132.0,"ss":50.0,"used":false,"gnssid":2,"svid":4},{"PRN":79,"az":304.0,"ss":45.0,"used":false,"gnssid":2,"svid":9},{"PRN":16,"az":78.0,"ss":50.0,"used":true,"gnssid":0,"svid":16}]}
{"class":"TPV","mode":3,"lat":44.068811998,"lon":-121.314307369,"altHAE":1110.271,"altMSL":1132.426,"epv":1.185,"track":219.1799,"magtrack":233.5984,"magvar":14.4,"speed":0.017,"climb":0.009,"eps":0.01,"ecefx":-2386070.69,"ecefy":-3922190.18,"ecefz":4414360.64,"ecefvx":-0.02,"ecefvy":-0.01,"ecefvz":-0.00,"ecefpAcc":1.39,"ecefvAcc":0.01,"velN":-0.013,"velE":-0.011,"velD":-0.009,"geoidSep":-22.155,"eph":0.720,"sep":35.055}
{"class":"SKY","vdop":1.54,"tdop":1.03,"hdop":1.01,"pdop":1.84,"satellites":[{"PRN":133,"az":192.0,"ss":48.0,"used":false,"gnssid":1,"svid":14},{"PRN":3,"az":178.0,"ss":45.0,"used":true,"gnssid":0,"svid":3},{"PRN":7,"az":250.0,"ss":43.0,"used":true,"gnssid":0,"svid":7},{"PRN":22,"az":170.0,"ss":42.0,"used":true,"gnssid":0,"svid":22},{"PRN":9,"az":310.0,"ss":44.0,"used":true,"gnssid":0,"svid":9},{"PRN":135,"az":196.0,"ss":48.0,"used":false,"gnssid":1,"svid":16},{"PRN":4,"az":104.0,"ss":40.0,"used":false,"gnssid":0,"svid":4},{"PRN":131,"az":174.0,"ss":45.0,"used":false,"gnssid":1,"svid":12},{"PRN":138,"az":160.0,"ss":44.0,"used":false,"gnssid":1,"svid":19},{"PRN":94,"az":212.0,"ss":43.0,"used":false,"gnssid":2,"svid":24},{"PRN":26,"az":50.0,"ss":46.0,"used":true,"gnssid":0,"svid":26},{"PRN":71,"az":54.0,"ss":49.0,"used":false,"gnssid":2,"svid":1},{"PRN":6,"az":276.0,"ss":37.0,"used":true,"gnssid":0,"svid":6},{"PRN":23,"az":50.0,"ss":51.0,"used":true,"gnssid":0,"svid":23},{"PRN":74,"az":132.0,"ss":50.0,"used":false,"gnssid":2,"svid":4},{"PRN":79,"az":304.0,"ss":45.0,"used":false,"gnssid":2,"svid":9},{"PRN":16,"az":78.0,"ss":50.0,"used":true,"gnssid":0,"svid":16}]}
{"class":"TPV","mode":3,"lat":44.068812097,"lon":-121.314307536,"altHAE":1110.250,"altMSL":1132.405,"epv":1.186,"track":331.4147,"magtrack":345.8331,"magvar":14.4,"speed":0.018,"climb":0.022,"eps":0.01,"ecefx":-2386070.69,"ecefy":-3922190.15,"ecefz":4414360.63,"ecefvx":-0.01,"ecefvy":0.00,"ecefvz":0.03,"ecefpAcc":1.39,"ecefvAcc":0.01,"velN":0.016,"velE":-0.009,"velD":-0.022,"geoidSep":-22.155,"eph":0.721,"sep":35.051}
{"class":"SKY","vdop":1.54,"tdop":1.03,"hdop":1.01,"pdop":1.84,"satellites":[{"PRN":133,"az":192.0,"ss":48.0,"used":false,"gnssid":1,"svid":14},{"PRN":3,"az":178.0,"ss":45.0,"used":true,"gnssid":0,"svid":3},{"PRN":7,"az":250.0,"ss":44.0,"used":true,"gnssid":0,"svid":7},{"PRN":22,"az":170.0,"ss":43.0,"used":true,"gnssid":0,"svid":22},{"PRN":9,"az":310.0,"ss":44.0,"used":true,"gnssid":0,"svid":9},{"PRN":135,"az":196.0,"ss":48.0,"used":false,"gnssid":1,"svid":16},{"PRN":4,"az":104.0,"ss":40.0,"used":false,"gnssid":0,"svid":4},{"PRN":131,"az":174.0,"ss":46.0,"used":false,"gnssid":1,"svid":12},{"PRN":138,"az":160.0,"ss":44.0,"used":false,"gnssid":1,"svid":19},{"PRN":94,"az":212.0,"ss":44.0,"used":false,"gnssid":2,"svid":24},{"PRN":26,"az":50.0,"ss":47.0,"used":true,"gnssid":0,"svid":26},{"PRN":71,"az":54.0,"ss":50.0,"used":false,"gnssid":2,"svid":1},{"PRN":6,"az":276.0,"ss":37.0,"used":true,"gnssid":0,"svid":6},{"PRN":23,"az":50.0,"ss":52.0,"used":true,"gnssid":0,"svid":23},{"PRN":74,"az":132.0,"ss":50.0,"used":false,"gnssid":2,"svid":4},{"PRN":79,"az":304.0,"ss":45.0,"used":false,"gnssid":2,"svid":9},{"PRN":16,"az":78.0,"ss":50.0,"used":true,"gnssid":0,"svid":16}]}
{"class":"TPV","mode":3,"lat":44.068812061,"lon":-121.314307558,"altHAE":1110.242,"altMSL":1132.397,"epv":1.186,"track":341.3992,"magtrack":355.8176,"magvar":14.4,"speed":0.003,"climb":0.017,"eps":0.01,"ecefx":-2386070.69,"ecefy":-3922190.15,"ecefz":4414360.63,"ecefvx":-0.01,"ecefvy":-0.01,"ecefvz":0.01,"ecefpAcc":1.39,"ecefvAcc":0.01,"velN":0.003,"velE":-0.001,"velD":-0.017,"geoidSep":-22.155,"eph":0.721,"sep":35.047}
{"class":"SKY","vdop":1.54,"tdop":1.03,"hdop":1.01,"pdop":1.84,"satellites":[{"PRN":133,"az":192.0,"ss":48.0,"used":false,"gnssid":1,"svid":14},{"PRN":3,"az":178.0,"ss":45.0,"used":true,"gnssid":0,"svid":3},{"PRN":7,"az":250.0,"ss":43.0,"used":true,"gnssid":0,"svid":7},{"PRN":22,"az":170.0,"ss":42.0,"used":true,"gnssid":0,"svid":22},{"PRN":9,"az":310.0,"ss":44.0,"used":true,"gnssid":0,"svid":9},{"PRN":135,"az":196.0,"ss":48.0,"used":false,"gnssid":1,"svid":16},{"PRN":4,"az":104.0,"ss":40.0,"used":false,"gnssid":0,"svid":4},{"PRN":131,"az":174.0,"ss":46.0,"used":false,"gnssid":1,"svid":12},{"PRN":138,"az":160.0,"ss":44.0,"used":false,"gnssid":1,"svid":19},{"PRN":94,"az":212.0,"ss":44.0,"used":false,"gnssid":2,"svid":24},{"PRN":26,"az":50.0,"ss":46.0,"used":true,"gnssid":0,"svid":26},{"PRN":71,"az":54.0,"ss":49.0,"used":false,"gnssid":2,"svid":1},{"PRN":6,"az":276.0,"ss":37.0,"used":true,"gnssid":0,"svid":6},{"PRN":23,"az":50.0,"ss":52.0,"used":true,"gnssid":0,"svid":23},{"PRN":74,"az":132.0,"ss":50.0,"used":false,"gnssid":2,"svid":4},{"PRN":79,"az":304.0,"ss":45.0,"used":false,"gnssid":2,"svid":9},{"PRN":16,"az":78.0,"ss":50.0,"used":true,"gnssid":0,"svid":16}]}
{"class":"TPV","mode":3,"lat":44.068812022,"lon":-121.314307604,"altHAE":1110.243,"altMSL":1132.398,"epv":1.186,"track":228.5101,"magtrack":242.9286,"magvar":14.4,"speed":0.005,"climb":0.006,"eps":0.01,"ecefx":-2386070.69,"ecefy":-3922190.15,"ecefz":4414360.62,"ecefvx":-0.01,"ecefvy":-0.00,"ecefvz":0.00,"ecefpAcc":1.39,"ecefvAcc":0.01,"velN":-0.003,"velE":-0.004,"velD":-0.006,"geoidSep":-22.155,"eph":0.721,"sep":35.043}
{"class":"SKY","vdop":1.54,"tdop":1.03,"hdop":1.01,"pdop":1.84,"satellites":[{"PRN":133,"az":192.0,"ss":48.0,"used":false,"gnssid":1,"svid":14},{"PRN":3,"az":178.0,"ss":44.0,"used":true,"gnssid":0,"svid":3},{"PRN":7,"az":250.0,"ss":43.0,"used":true,"gnssid":0,"svid":7},{"PRN":22,"az":170.0,"ss":42.0,"used":true,"gnssid":0,"svid":22},{"PRN":9,"az":310.0,"ss":43.0,"used":true,"gnssid":0,"svid":9},{"PRN":135,"az":196.0,"ss":48.0,"used":false,"gnssid":1,"svid":16},{"PRN":4,"az":104.0,"ss":40.0,"used":false,"gnssid":0,"svid":4},{"PRN":131,"az":174.0,"ss":45.0,"used":false,"gnssid":1,"svid":12},{"PRN":138,"az":160.0,"ss":44.0,"used":false,"gnssid":1,"svid":19},{"PRN":94,"az":212.0,"ss":43.0,"used":false,"gnssid":2,"svid":24},{"PRN":26,"az":50.0,"ss":46.0,"used":true,"gnssid":0,"svid":26},{"PRN":71,"az":54.0,"ss":49.0,"used":false,"gnssid":2,"svid":1},{"PRN":6,"az":276.0,"ss":37.0,"used":true,"gnssid":0,"svid":6},{"PRN":23,"az":50.0,"ss":52.0,"used":true,"gnssid":0,"svid":23},{"PRN":74,"az":132.0,"ss":49.0,"used":false,"gnssid":2,"svid":4},{"PRN":79,"az":304.0,"ss":44.0,"used":false,"gnssid":2,"svid":9},{"PRN":16,"az":78.0,"ss":50.0,"used":true,"gnssid":0,"svid":16}]}
{"class":"TPV","mode":3,"lat":44.068811954,"lon":-121.314307619,"altHAE":1110.247,"altMSL":1132.402,"epv":1.187,"track":120.5471,"magtrack":134.9656,"magvar":14.4,"speed":0.022,"climb":0.016,"eps":0.01,"ecefx":-2386070.70,"ecefy":-3922190.16,"ecefz":4414360.62,"ecefvx":0.01,"ecefvy":-0.03,"ecefvz":0.00,"ecefpAcc":1.39,"ecefvAcc":0.02,"velN":-0.011,"velE":0.019,"velD":-0.016,"geoidSep":-22.155,"eph":0.722,"sep":35.038}
{"class":"SKY","vdop":1.54,"tdop":1.03,"hdop":1.01,"pdop":1.84,"satellites":[{"PRN":133,"az":192.0,"ss":48.0,"used":false,"gnssid":1,"svid":14},{"PRN":3,"az":178.0,"ss":45.0,"used":true,"gnssid":0,"svid":3},{"PRN":7,"az":250.0,"ss":43.0,"used":true,"gnssid":0,"svid":7},{"PRN":22,"az":170.0,"ss":43.0,"used":true,"gnssid":0,"svid":22},{"PRN":9,"az":310.0,"ss":44.0,"used":true,"gnssid":0,"svid":9},{"PRN":135,"az":196.0,"ss":48.0,"used":false,"gnssid":1,"svid":16},{"PRN":4,"az":104.0,"ss":40.0,"used":false,"gnssid":0,"svid":4},{"PRN":131,"az":174.0,"ss":46.0,"used":false,"gnssid":1,"svid":12},{"PRN":138,"az":160.0,"ss":44.0,"used":false,"gnssid":1,"svid":19},{"PRN":94,"az":212.0,"ss":44.0,"used":false,"gnssid":2,"svid":24},{"PRN":26,"az":50.0,"ss":47.0,"used":true,"gnssid":0,"svid":26},{"PRN":71,"az":54.0,"ss":50.0,"used":false,"gnssid":2,"svid":1},{"PRN":6,"az":276.0,"ss":37.0,"used":true,"gnssid":0,"svid":6},{"PRN":23,"az":50.0,"ss":52.0,"used":true,"gnssid":0,"svid":23},{"PRN":74,"az":132.0,"ss":50.0,"used":false,"gnssid":2,"svid":4},{"PRN":79,"az":304.0,"ss":45.0,"used":false,"gnssid":2,"svid":9},{"PRN":16,"az":78.0,"ss":51.0,"used":true,"gnssid":0,"svid":16}]}
{"class":"TPV","mode":3,"lat":44.068811984,"lon":-121.314307709,"altHAE":1110.241,"altMSL":1132.396,"epv":1.184,"track":73.7285,"magtrack":88.1470,"magvar":14.4,"speed":0.011,"climb":0.045,"eps":0.01,"ecefx":-2386070.70,"ecefy":-3922190.15,"ecefz":4414360.62,"ecefvx":-0.01,"ecefvy":-0.03,"ecefvz":0.03,"ecefpAcc":1.39,"ecefvAcc":0.01,"velN":0.003,"velE":0.011,"velD":-0.045,"geoidSep":-22.155,"eph":0.720,"sep":35.034}
{"class":"SKY","vdop":1.54,"tdop":1.03,"hdop":1.01,"pdop":1.84,"satellites":[{"PRN":133,"az":192.0,"ss":48.0,"used":false,"gnssid":1,"svid":14},{"PRN":3,"az":178.0,"ss":45.0,"used":true,"gnssid":0,"svid":3},{"PRN":7,"az":250.0,"ss":43.0,"used":true,"gnssid":0,"svid":7},{"PRN":22,"az":170.0,"ss":42.0,"used":true,"gnssid":0,"svid":22},{"PRN":9,"az":310.0,"ss":44.0,"used":true,"gnssid":0,"svid":9},{"PRN":135,"az":196.0,"ss":48.0,"used":false,"gnssid":1,"svid":16},{"PRN":4,"az":104.0,"ss":40.0,"used":false,"gnssid":0,"svid":4},{"PRN":131,"az":174.0,"ss":46.0,"used":false,"gnssid":1,"svid":12},{"PRN":138,"az":160.0,"ss":44.0,"used":false,"gnssid":1,"svid":19},{"PRN":94,"az":212.0,"ss":44.0,"used":false,"gnssid":2,"svid":24},{"PRN":26,"az":50.0,"ss":46.0,"used":true,"gnssid":0,"svid":26},{"PRN":71,"az":54.0,"ss":49.0,"used":false,"gnssid":2,"svid":1},{"PRN":6,"az":276.0,"ss":37.0,"used":true,"gnssid":0,"svid":6},{"PRN":23,"az":50.0,"ss":52.0,"used":true,"gnssid":0,"svid":23},{"PRN":74,"az":132.0,"ss":50.0,"used":false,"gnssid":2,"svid":4},{"PRN":79,"az":304.0,"ss":45.0,"used":false,"gnssid":2,"svid":9},{"PRN":16,"az":78.0,"ss":50.0,"used":true,"gnssid":0,"svid":16}]}
{"class":"TPV","mode":3,"lat":44.068811999,"lon":-121.314307806,"altHAE":1110.242,"altMSL":1132.397,"epv":1.175,"track":275.7887,"magtrack":290.2071,"magvar":14.4,"speed":0.019,"climb":0.005,"eps":0.01,"ecefx":-2386070.71,"ecefy":-3922190.14,"ecefz":4414360.62,"ecefvx":-0.02,"ecefvy":0.01,"ecefvz":0.01,"ecefpAcc":1.38,"ecefvAcc":0.01,"velN":0.002,"velE":-0.019,"velD":-0.005,"geoidSep":-22.155,"eph":0.715,"sep":35.030}
{"class":"SKY","vdop":1.54,"tdop":1.03,"hdop":1.01,"pdop":1.84,"satellites":[{"PRN":133,"az":192.0,"ss":48.0,"used":false,"gnssid":1,"svid":14},{"PRN":3,"az":178.0,"ss":45.0,"used":true,"gnssid":0,"svid":3},{"PRN":7,"az":250.0,"ss":43.0,"used":true,"gnssid":0,"svid":7},{"PRN":22,"az":170.0,"ss":42.0,"used":true,"gnssid":0,"svid":22},{"PRN":9,"az":310.0,"ss":43.0,"used":true,"gnssid":0,"svid":9},{"PRN":135,"az":196.0,"ss":48.0,"used":false,"gnssid":1,"svid":16},{"PRN":4,"az":104.0,"ss":39.0,"used":false,"gnssid":0,"svid":4},{"PRN":131,"az":174.0,"ss":46.0,"used":false,"gnssid":1,"svid":12},{"PRN":138,"az":160.0,"ss":44.0,"used":false,"gnssid":1,"svid":19},{"PRN":94,"az":212.0,"ss":43.0,"used":false,"gnssid":2,"svid":24},{"PRN":26,"az":50.0,"ss":46.0,"used":true,"gnssid":0,"svid":26},{"PRN":71,"az":54.0,"ss":49.0,"used":false,"gnssid":2,"svid":1},{"PRN":6,"az":276.0,"ss":36.0,"used":true,"gnssid":0,"svid":6},{"PRN":23,"az":50.0,"ss":52.0,"used":true,"gnssid":0,"svid":23},{"PRN":74,"az":132.0,"ss":49.0,"used":false,"gnssid":2,"svid":4},{"PRN":79,"az":304.0,"ss":45.0,"used":false,"gnssid":2,"svid":9},{"PRN":16,"az":78.0,"ss":50.0,"used":true,"gnssid":0,"svid":16}]}
{"class":"TPV","mode":3,"lat":44.068811982,"lon":-121.314307817,"altHAE":1110.251,"altMSL":1132.406,"epv":1.169,"track":303.0370,"magtrack":317.4555,"magvar":14.4,"speed":0.017,"climb":-0.005,"eps":0.01,"ecefx":-2386070.71,"ecefy":-3922190.15,"ecefz":4414360.63,"ecefvx":-0.01,"ecefvy":0.02,"ecefvz":0.00,"ecefpAcc":1.37,"ecefvAcc":0.02,"velN":0.010,"velE":-0.015,"velD":0.005,"geoidSep":-22.155,"eph":0.712,"sep":35.025}
{"class":"SKY","vdop":1.54,"tdop":1.03,"hdop":1.01,"pdop":1.84,"satellites":[{"PRN":133,"az":192.0,"ss":48.0,"used":false,"gnssid":1,"svid":14},{"PRN":3,"az":178.0,"ss":45.0,"used":true,"gnssid":0,"svid":3},{"PRN":7,"az":250.0,"ss":43.0,"used":true,"gnssid":0,"svid":7},{"PRN":22,"az":170.0,"ss":42.0,"used":true,"gnssid":0,"svid":22},{"PRN":9,"az":310.0,"ss":43.0,"used":true,"gnssid":0,"svid":9},{"PRN":135,"az":196.0,"ss":48.0,"used":false,"gnssid":1,"svid":16},{"PRN":4,"az":104.0,"ss":39.0,"used":false,"gnssid":0,"svid":4},{"PRN":131,"az":174.0,"ss":46.0,"used":false,"gnssid":1,"svid":12},{"PRN":138,"az":160.0,"ss":44.0,"used":false,"gnssid":1,"svid":19},{"PRN":94,"az":212.0,"ss":44.0,"used":false,"gnssid":2,"svid":24},{"PRN":26,"az":50.0,"ss":46.0,"used":true,"gnssid":0,"svid":26},{"PRN":71,"az":54.0,"ss":49.0,"used":false,"gnssid":2,"svid":1},{"PRN":6,"az":276.0,"ss":36.0,"used":true,"gnssid":0,"svid":6},{"PRN":23,"az":50.0,"ss":52.0,"used":true,"gnssid":0,"svid":23},{"PRN":74,"az":132.0,"ss":49.0,"used":false,"gnssid":2,"svid":4},{"PRN":79,"az":304.0,"ss":44.0,"used":false,"gnssid":2,"svid":9},{"PRN":16,"az":78.0,"ss":50.0,"used":true,"gnssid":0,"svid":16}]}
{"class":"TPV","mode":3,"lat":44.068811882,"lon":-121.314307788,"altHAE":1110.263,"altMSL":1132.417,"epv":1.169,"track":131.4946,"magtrack":145.9131,"magvar":14.4,"speed":0.004,"climb":0.001,"eps":0.01,"ecefx":-2386070.72,"ecefy":-3922190.16,"ecefz":4414360.63,"ecefvx":0.00,"ecefvy":-0.00,"ecefvz":-0.00,"ecefpAcc":1.37,"ecefvAcc":0.01,"velN":-0.003,"velE":0.003,"velD":-0.001,"geoidSep":-22.155,"eph":0.712,"sep":35.021}
{"class":"SKY","vdop":1.54,"tdop":1.03,"hdop":1.01,"pdop":1.84,"satellites":[{"PRN":133,"az":192.0,"ss":48.0,"used":false,"gnssid":1,"svid":14},{"PRN":3,"az":178.0,"ss":45.0,"used":true,"gnssid":0,"svid":3},{"PRN":7,"az":250.0,"ss":43.0,"used":true,"gnssid":0,"svid":7},{"PRN":22,"az":170.0,"ss":42.0,"used":true,"gnssid":0,"svid":22},{"PRN":9,"az":310.0,"ss":43.0,"used":true,"gnssid":0,"svid":9},{"PRN":135,"az":196.0,"ss":48.0,"used":false,"gnssid":1,"svid":16},{"PRN":4,"az":104.0,"ss":39.0,"used":false,"gnssid":0,"svid":4},{"PRN":131,"az":174.0,"ss":46.0,"used":false,"gnssid":1,"svid":12},{"PRN":138,"az":160.0,"ss":44.0,"used":false,"gnssid":1,"svid":19},{"PRN":94,"az":212.0,"ss":44.0,"used":false,"gnssid":2,"svid":24},{"PRN":26,"az":50.0,"ss":46.0,"used":true,"gnssid":0,"svid":26},{"PRN":71,"az":54.0,"ss":49.0,"used":false,"gnssid":2,"svid":1},{"PRN":6,"az":276.0,"ss":36.0,"used":true,"gnssid":0,"svid":6},{"PRN":23,"az":50.0,"ss":52.0,"used":true,"gnssid":0,"svid":23},{"PRN":74,"az":132.0,"ss":49.0,"used":false,"gnssid":2,"svid":4},{"PRN":79,"az":304.0,"ss":44.0,"used":false,"gnssid":2,"svid":9},{"PRN":16,"az":78.0,"ss":50.0,"used":true,"gnssid":0,"svid":16}]}
{"class":"TPV","mode":3,"lat":44.068811934,"lon":-121.314307810,"altHAE":1110.263,"altMSL":1132.418,"epv":1.167,"track":103.8169,"magtrack":118.2354,"magvar":14.4,"speed":0.011,"climb":0.011,"eps":0.01,"ecefx":-2386070.72,"ecefy":-3922190.16,"ecefz":4414360.63,"ecefvx":0.00,"ecefvy":-0.01,"ecefvz":0.01,"ecefpAcc":1.37,"ecefvAcc":0.01,"velN":-0.003,"velE":0.011,"velD":-0.011,"geoidSep":-22.155,"eph":0.710,"sep":35.017}
{"class":"SKY","vdop":1.54,"tdop":1.03,"hdop":1.01,"pdop":1.84,"satellites":[{"PRN":133,"az":192.0,"ss":48.0,"used":false,"gnssid":1,"svid":14},{"PRN":3,"az":178.0,"ss":45.0,"used":true,"gnssid":0,"svid":3},{"PRN":7,"az":250.0,"ss":43.0,"used":true,"gnssid":0,"svid":7},{"PRN":22,"az":170.0,"ss":42.0,"used":true,"gnssid":0,"svid":22},{"PRN":9,"az":310.0,"ss":44.0,"used":true,"gnssid":0,"svid":9},{"PRN":135,"az":196.0,"ss":48.0,"used":false,"gnssid":1,"svid":16},{"PRN":4,"az":104.0,"ss":39.0,"used":false,"gnssid":0,"svid":4},{"PRN":131,"az":174.0,"ss":46.0,"used":false,"gnssid":1,"svid":12},{"PRN":138,"az":160.0,"ss":44.0,"used":false,"gnssid":1,"svid":19},{"PRN":94,"az":212.0,"ss":44.0,"used":false,"gnssid":2,"svid":24},{"PRN":26,"az":50.0,"ss":46.0,"used":true,"gnssid":0,"svid":26},{"PRN":71,"az":54.0,"ss":49.0,"used":false,"gnssid":2,"svid":1},{"PRN":6,"az":276.0,"ss":36.0,"used":true,"gnssid":0,"svid":6},{"PRN":23,"az":50.0,"ss":52.0,"used":true,"gnssid":0,"svid":23},{"PRN":74,"az":132.0,"ss":49.0,"used":false,"gnssid":2,"svid":4},{"PRN":79,"az":304.0,"ss":44.0,"used":false,"gnssid":2,"svid":9},{"PRN":16,"az":78.0,"ss":50.0,"used":true,"gnssid":0,"svid":16}]}
{"class":"TPV","mode":3,"lat":44.068811930,"lon":-121.314307838,"altHAE":1110.263,"altMSL":1132.418,"epv":1.165,"track":242.9096,"magtrack":257.3280,"magvar":14.4,"speed":0.015,"climb":0.001,"eps":0.00,"ecefx":-2386070.72,"ecefy":-3922190.16,"ecefz":4414360.63,"ecefvx":-0.01,"ecefvy":0.00,"ecefvz":-0.00,"ecefpAcc":1.36,"ecefvAcc":0.01,"velN":-0.007,"velE":-0.014,"velD":-0.001,"geoidSep":-22.155,"eph":0.710,"sep":35.013}
{"class":"SKY","vdop":1.54,"tdop":1.03,"hdop":1.01,"pdop":1.84,"satellites":[{"PRN":133,"az":192.0,"ss":48.0,"used":false,"gnssid":1,"svid":14},{"PRN":3,"az":178.0,"ss":45.0,"used":true,"gnssid":0,"svid":3},{"PRN":7,"az":250.0,"ss":43.0,"used":true,"gnssid":0,"svid":7},{"PRN":22,"az":170.0,"ss":42.0,"used":true,"gnssid":0,"svid":22},{"PRN":9,"az":310.0,"ss":44.0,"used":true,"gnssid":0,"svid":9},{"PRN":135,"az":196.0,"ss":48.0,"used":false,"gnssid":1,"svid":16},{"PRN":4,"az":104.0,"ss":40.0,"used":false,"gnssid":0,"svid":4},{"PRN":131,"az":174.0,"ss":46.0,"used":false,"gnssid":1,"svid":12},{"PRN":138,"az":160.0,"ss":44.0,"used":false,"gnssid":1,"svid":19},{"PRN":94,"az":212.0,"ss":44.0,"used":false,"gnssid":2,"svid":24},{"PRN":26,"az":50.0,"ss":46.0,"used":true,"gnssid":0,"svid":26},{"PRN":71,"az":54.0,"ss":49.0,"used":false,"gnssid":2,"svid":1},{"PRN":6,"az":276.0,"ss":35.0,"used":true,"gnssid":0,"svid":6},{"PRN":23,"az":50.0,"ss":52.0,"used":true,"gnssid":0,"svid":23},{"PRN":74,"az":132.0,"ss":50.0,"used":false,"gnssid":2,"svid":4},{"PRN":79,"az":304.0,"ss":45.0,"used":false,"gnssid":2,"svid":9},{"PRN":16,"az":78.0,"ss":50.0,"used":true,"gnssid":0,"svid":16}]}
{"class":"TPV","mode":3,"lat":44.068812001,"lon":-121.314307881,"altHAE":1110.247,"altMSL":1132.402,"epv":1.161,"track":147.1412,"magtrack":161.5597,"magvar":14.4,"speed":0.004,"climb":-0.001,"eps":0.01,"ecefx":-2386070.72,"ecefy":-3922190.14,"ecefz":4414360.62,"ecefvx":0.00,"ecefvy":-0.00,"ecefvz":-0.00,"ecefpAcc":1.36,"ecefvAcc":0.01,"velN":-0.004,"velE":0.002,"velD":0.001,"geoidSep":-22.155,"eph":0.708,"sep":35.008}
{"class":"SKY","vdop":1.54,"tdop":1.03,"hdop":1.01,"pdop":1.84,"satellites":[{"PRN":133,"az":192.0,"ss":49.0,"used":false,"gnssid":1,"svid":14},{"PRN":3,"az":178.0,"ss":45.0,"used":true,"gnssid":0,"svid":3},{"PRN":7,"az":250.0,"ss":43.0,"used":true,"gnssid":0,"svid":7},{"PRN":22,"az":170.0,"ss":42.0,"used":true,"gnssid":0,"svid":22},{"PRN":9,"az":310.0,"ss":44.0,"used":true,"gnssid":0,"svid":9},{"PRN":135,"az":196.0,"ss":49.0,"used":false,"gnssid":1,"svid":16},{"PRN":4,"az":104.0,"ss":40.0,"used":false,"gnssid":0,"svid":4},{"PRN":131,"az":174.0,"ss":46.0,"used":false,"gnssid":1,"svid":12},{"PRN":138,"az":160.0,"ss":45.0,"used":false,"gnssid":1,"svid":19},{"PRN":94,"az":212.0,"ss":45.0,"used":false,"gnssid":2,"svid":24},{"PRN":26,"az":50.0,"ss":47.0,"used":true,"gnssid":0,"svid":26},{"PRN":71,"az":54.0,"ss":50.0,"used":false,"gnssid":2,"svid":1},{"PRN":6,"az":276.0,"ss":36.0,"used":true,"gnssid":0,"svid":6},{"PRN":23,"az":50.0,"ss":53.0,"used":true,"gnssid":0,"svid":23},{"PRN":74,"az":132.0,"ss":50.0,"used":false,"gnssid":2,"svid":4},{"PRN":79,"az":304.0,"ss":45.0,"used":false,"gnssid":2,"svid":9},{"PRN":16,"az":78.0,"ss":51.0,"used":true,"gnssid":0,"svid":16}]}
{"class":"TPV","mode":3,"lat":44.068812001,"lon":-121.314307894,"altHAE":1110.241,"altMSL":1132.396,"epv":1.158,"track":171.0218,"magtrack":185.4403,"magvar":14.4,"speed":0.019,"climb":0.034,"eps":0.01,"ecefx":-2386070.71,"ecefy":-3922190.14,"ecefz":4414360.62,"ecefvx":-0.02,"ecefvy":-0.03,"ecefvz":0.01,"ecefpAcc":1.36,"ecefvAcc":0.02,"velN":-0.019,"velE":0.003,"velD":-0.034,"geoidSep":-22.155,"eph":0.706,"sep":35.004}
{"class":"SKY","vdop":1.54,"tdop":1.03,"hdop":1.01,"pdop":1.84,"satellites":[{"PRN":133,"az":192.0,"ss":49.0,"used":false,"gnssid":1,"svid":14},{"PRN":3,"az":178.0,"ss":45.0,"used":true,"gnssid":0,"svid":3},{"PRN":7,"az":250.0,"ss":43.0,"used":true,"gnssid":0,"svid":7},{"PRN":22,"az":170.0,"ss":42.0,"used":true,"gnssid":0,"svid":22},{"PRN":9,"az":310.0,"ss":44.0,"used":true,"gnssid":0,"svid":9},{"PRN":135,"az":196.0,"ss":49.0,"used":false,"gnssid":1,"svid":16},{"PRN":4,"az":104.0,"ss":40.0,"used":false,"gnssid":0,"svid":4},{"PRN":131,"az":174.0,"ss":46.0,"used":false,"gnssid":1,"svid":12},{"PRN":138,"az":160.0,"ss":45.0,"used":false,"gnssid":1,"svid":19},{"PRN":94,"az":212.0,"ss":45.0,"used":false,"gnssid":2,"svid":24},{"PRN":26,"az":50.0,"ss":47.0,"used":true,"gnssid":0,"svid":26},{"PRN":71,"az":54.0,"ss":50.0,"used":false,"gnssid":2,"svid":1},{"PRN":6,"az":276.0,"ss":35.0,"used":true,"gnssid":0,"svid":6},{"PRN":23,"az":50.0,"ss":53.0,"used":true,"gnssid":0,"svid":23},{"PRN":74,"az":132.0,"ss":50.0,"used":false,"gnssid":2,"svid":4},{"PRN":79,"az":304.0,"ss":45.0,"used":false,"gnssid":2,"svid":9},{"PRN":16,"az":78.0,"ss":51.0,"used":true,"gnssid":0,"svid":16}]}
{"class":"TPV","mode":3,"lat":44.068811996,"lon":-121.314307959,"altHAE":1110.248,"altMSL":1132.403,"epv":1.157,"track":269.2870,"magtrack":283.7055,"magvar":14.4,"speed":0.005,"climb":0.035,"eps":0.01,"ecefx":-2386070.72,"ecefy":-3922190.14,"ecefz":4414360.62,"ecefvx":-0.02,"ecefvy":-0.02,"ecefvz":0.02,"ecefpAcc":1.35,"ecefvAcc":0.01,"velN":-0.000,"velE":-0.005,"velD":-0.035,"geoidSep":-22.155,"eph":0.705,"sep":35.000}
{"class":"SKY","vdop":1.54,"tdop":1.03,"hdop":1.01,"pdop":1.84,"satellites":[{"PRN":133,"az":192.0,"ss":48.0,"used":false,"gnssid":1,"svid":14},{"PRN":3,"az":178.0,"ss":45.0,"used":true,"gnssid":0,"svid":3},{"PRN":7,"az":250.0,"ss":43.0,"used":true,"gnssid":0,"svid":7},{"PRN":22,"az":170.0,"ss":42.0,"used":true,"gnssid":0,"svid":22},{"PRN":9,"az":310.0,"ss":43.0,"used":true,"gnssid":0,"svid":9},{"PRN":135,"az":196.0,"ss":48.0,"used":false,"gnssid":1,"svid":16},{"PRN":4,"az":104.0,"ss":40.0,"used":false,"gnssid":0,"svid":4},{"PRN":131,"az":174.0,"ss":46.0,"used":false,"gnssid":1,"svid":12},{"PRN":138,"az":160.0,"ss":44.0,"used":false,"gnssid":1,"svid":19},{"PRN":94,"az":212.0,"ss":45.0,"used":false,"gnssid":2,"svid":24},{"PRN":26,"az":50.0,"ss":46.0,"used":true,"gnssid":0,"svid":26},{"PRN":71,"az":54.0,"ss":49.0,"used":false,"gnssid":2,"svid":1},{"PRN":6,"az":276.0,"ss":35.0,"used":true,"gnssid":0,"svid":6},{"PRN":23,"az":52.0,"ss":52.0,"used":true,"gnssid":0,"svid":23},{"PRN":74,"az":132.0,"ss":50.0,"used":false,"gnssid":2,"svid":4},{"PRN":79,"az":304.0,"ss":45.0,"used":false,"gnssid":2,"svid":9},{"PRN":16,"az":78.0,"ss":50.0,"used":true,"gnssid":0,"svid":16}]}
{"class":"TPV","mode":3,"lat":44.068811995,"lon":-121.314308021,"altHAE":1110.241,"altMSL":1132.396,"epv":1.152,"track":309.7160,"magtrack":324.1345,"magvar":14.4,"speed":0.014,"climb":0.010,"eps":0.01,"ecefx":-2386070.72,"ecefy":-3922190.13,"ecefz":4414360.62,"ecefvx":-0.01,"ecefvy":0.00,"ecefvz":0.01,"ecefpAcc":1.35,"ecefvAcc":0.01,"velN":0.009,"velE":-0.011,"velD":-0.010,"geoidSep":-22.155,"eph":0.703,"sep":34.996}
{"class":"SKY","vdop":1.54,"tdop":1.03,"hdop":1.01,"pdop":1.84,"satellites":[{"PRN":133,"az":192.0,"ss":48.0,"used":false,"gnssid":1,"svid":14},{"PRN":3,"az":178.0,"ss":45.0,"used":true,"gnssid":0,"svid":3},{"PRN":7,"az":250.0,"ss":43.0,"used":true,"gnssid":0,"svid":7},{"PRN":22,"az":170.0,"ss":41.0,"used":true,"gnssid":0,"svid":22},{"PRN":9,"az":310.0,"ss":43.0,"used":true,"gnssid":0,"svid":9},{"PRN":135,"az":196.0,"ss":48.0,"used":false,"gnssid":1,"svid":16},{"PRN":4,"az":104.0,"ss":39.0,"used":false,"gnssid":0,"svid":4},{"PRN":131,"az":174.0,"ss":46.0,"used":false,"gnssid":1,"svid":12},{"PRN":138,"az":160.0,"ss":45.0,"used":false,"gnssid":1,"svid":19},{"PRN":94,"az":212.0,"ss":45.0,"used":false,"gnssid":2,"svid":24},{"PRN":26,"az":50.0,"ss":46.0,"used":true,"gnssid":0,"svid":26},{"PRN":71,"az":54.0,"ss":49.0,"used":false,"gnssid":2,"svid":1},{"PRN":6,"az":276.0,"ss":35.0,"used":true,"gnssid":0,"svid":6},{"PRN":23,"az":52.0,"ss":52.0,"used":true,"gnssid":0,"svid":23},{"PRN":74,"az":132.0,"ss":50.0,"used":false,"gnssid":2,"svid":4},{"PRN":79,"az":304.0,"ss":44.0,"used":false,"gnssid":2,"svid":9},{"PRN":16,"az":78.0,"ss":50.0,"used":true,"gnssid":0,"svid":16}]}
{"class":"TPV","mode":3,"lat":44.068812029,"lon":-121.314308059,"altHAE":1110.232,"altMSL":1132.387,"epv":1.150,"track":288.6803,"magtrack":303.0988,"magvar":14.4,"speed":0.019,"climb":-0.008,"eps":0.01,"ecefx":-2386070.72,"ecefy":-3922190.12,"ecefz":4414360.62,"ecefvx":-0.01,"ecefvy":0.02,"ecefvz":-0.00,"ecefpAcc":1.35,"ecefvAcc":0.02,"velN":0.006,"velE":-0.018,"velD":0.008,"geoidSep":-22.155,"eph":0.701,"sep":34.991}
{"class":"SKY","vdop":1.54,"tdop":1.03,"hdop":1.01,"pdop":1.84,"satellites":[{"PRN":133,"az":192.0,"ss":48.0,"used":false,"gnssid":1,"svid":14},{"PRN":3,"az":178.0,"ss":45.0,"used":true,"gnssid":0,"svid":3},{"PRN":7,"az":250.0,"ss":43.0,"used":true,"gnssid":0,"svid":7},{"PRN":22,"az":170.0,"ss":42.0,"used":true,"gnssid":0,"svid":22},{"PRN":9,"az":310.0,"ss":43.0,"used":true,"gnssid":0,"svid":9},{"PRN":135,"az":196.0,"ss":48.0,"used":false,"gnssid":1,"svid":16},{"PRN":4,"az":104.0,"ss":39.0,"used":false,"gnssid":0,"svid":4},{"PRN":131,"az":174.0,"ss":46.0,"used":false,"gnssid":1,"svid":12},{"PRN":138,"az":160.0,"ss":45.0,"used":false,"gnssid":1,"svid":19},{"PRN":94,"az":212.0,"ss":44.0,"used":false,"gnssid":2,"svid":24},{"PRN":26,"az":50.0,"ss":46.0,"used":true,"gnssid":0,"svid":26},{"PRN":71,"az":54.0,"ss":49.0,"used":false,"gnssid":2,"svid":1},{"PRN":6,"az":276.0,"ss":35.0,"used":true,"gnssid":0,"svid":6},{"PRN":23,"az":52.0,"ss":52.0,"used":true,"gnssid":0,"svid":23},{"PRN":74,"az":132.0,"ss":49.0,"used":false,"gnssid":2,"svid":4},{"PRN":79,"az":304.0,"ss":44.0,"used":false,"gnssid":2,"svid":9},{"PRN":16,"az":78.0,"ss":50.0,"used":true,"gnssid":0,"svid":16}]}
{"class":"TPV","mode":3,"lat":44.068811977,"lon":-121.314308017,"altHAE":1110.248,"altMSL":1132.403,"epv":1.148,"track":153.6457,"magtrack":168.0642,"magvar":14.4,"speed":0.018,"climb":0.021,"eps":0.01,"ecefx":-2386070.73,"ecefy":-3922190.14,"ecefz":4414360.62,"ecefvx":-0.01,"ecefvy":-0.03,"ecefvz":0.00,"ecefpAcc":1.34,"ecefvAcc":0.01,"velN":-0.016,"velE":0.008,"velD":-0.021,"geoidSep":-22.155,"eph":0.701,"sep":34.987}
{"class":"SKY","vdop":1.54,"tdop":1.03,"hdop":1.01,"pdop":1.84,"satellites":[{"PRN":133,"az":192.0,"ss":49.0,"used":false,"gnssid":1,"svid":14},{"PRN":3,"az":178.0,"ss":45.0,"used":true,"gnssid":0,"svid":3},{"PRN":7,"az":250.0,"ss":44.0,"used":true,"gnssid":0,"svid":7},{"PRN":22,"az":170.0,"ss":42.0,"used":true,"gnssid":0,"svid":22},{"PRN":9,"az":310.0,"ss":44.0,"used":true,"gnssid":0,"svid":9},{"PRN":135,"az":196.0,"ss":49.0,"used":false,"gnssid":1,"svid":16},{"PRN":4,"az":104.0,"ss":40.0,"used":false,"gnssid":0,"svid":4},{"PRN":131,"az":174.0,"ss":46.0,"used":false,"gnssid":1,"svid":12},{"PRN":138,"az":160.0,"ss":45.0,"used":false,"gnssid":1,"svid":19},{"PRN":94,"az":212.0,"ss":45.0,"used":false,"gnssid":2,"svid":24},{"PRN":26,"az":50.0,"ss":47.0,"used":true,"gnssid":0,"svid":26},{"PRN":71,"az":54.0,"ss":50.0,"used":false,"gnssid":2,"svid":1},{"PRN":6,"az":276.0,"ss":36.0,"used":true,"gnssid":0,"svid":6},{"PRN":23,"az":52.0,"ss":53.0,"used":true,"gnssid":0,"svid":23},{"PRN":74,"az":132.0,"ss":50.0,"used":false,"gnssid":2,"svid":4},{"PRN":79,"az":304.0,"ss":45.0,"used":false,"gnssid":2,"svid":9},{"PRN":16,"az":78.0,"ss":51.0,"used":true,"gnssid":0,"svid":16}]}
{"class":"TPV","mode":3,"lat":44.068811974,"lon":-121.314308019,"altHAE":1110.262,"altMSL":1132.417,"epv":1.143,"track":99.8873,"magtrack":114.3058,"magvar":14.4,"speed":0.013,"climb":0.027,"eps":0.01,"ecefx":-2386070.73,"ecefy":-3922190.15,"ecefz":4414360.63,"ecefvx":-0.00,"ecefvy":-0.02,"ecefvz":0.02,"ecefpAcc":1.34,"ecefvAcc":0.02,"velN":-0.002,"velE":0.012,"velD":-0.027,"geoidSep":-22.155,"eph":0.698,"sep":34.983}
{"class":"SKY","vdop":1.54,"tdop":1.03,"hdop":1.01,"pdop":1.84,"satellites":[{"PRN":133,"az":192.0,"ss":48.0,"used":false,"gnssid":1,"svid":14},{"PRN":3,"az":178.0,"ss":45.0,"used":true,"gnssid":0,"svid":3},{"PRN":7,"az":250.0,"ss":43.0,"used":true,"gnssid":0,"svid":7},{"PRN":22,"az":170.0,"ss":43.0,"used":true,"gnssid":0,"svid":22},{"PRN":9,"az":310.0,"ss":44.0,"used":true,"gnssid":0,"svid":9},{"PRN":135,"az":196.0,"ss":49.0,"used":false,"gnssid":1,"svid":16},{"PRN":4,"az":104.0,"ss":39.0,"used":false,"gnssid":0,"svid":4},{"PRN":131,"az":174.0,"ss":46.0,"used":false,"gnssid":1,"svid":12},{"PRN":138,"az":160.0,"ss":45.0,"used":false,"gnssid":1,"svid":19},{"PRN":94,"az":212.0,"ss":45.0,"used":false,"gnssid":2,"svid":24},{"PRN":26,"az":50.0,"ss":46.0,"used":true,"gnssid":0,"svid":26},{"PRN":71,"az":54.0,"ss":50.0,"used":false,"gnssid":2,"svid":1},{"PRN":6,"az":276.0,"ss":35.0,"used":true,"gnssid":0,"svid":6},{"PRN":23,"az":52.0,"ss":52.0,"used":true,"gnssid":0,"svid":23},{"PRN":74,"az":132.0,"ss":50.0,"used":false,"gnssid":2,"svid":4},{"PRN":79,"az":304.0,"ss":45.0,"used":false,"gnssid":2,"svid":9},{"PRN":16,"az":78.0,"ss":51.0,"used":true,"gnssid":0,"svid":16}]}
{"class":"TPV","mode":3,"lat":44.068811978,"lon":-121.314308036,"altHAE":1110.272,"altMSL":1132.427,"epv":1.138,"track":340.9236,"magtrack":355.3420,"magvar":14.4,"speed":0.011,"climb":0.003,"eps":0.01,"ecefx":-2386070.74,"ecefy":-3922190.15,"ecefz":4414360.64,"ecefvx":-0.00,"ecefvy":0.01,"ecefvz":0.01,"ecefpAcc":1.33,"ecefvAcc":0.01,"velN":0.010,"velE":-0.004,"velD":-0.003,"geoidSep":-22.155,"eph":0.695,"sep":34.978}
{"class":"SKY","vdop":1.54,"tdop":1.03,"hdop":1.01,"pdop":1.84,"satellites":[{"PRN":133,"az":192.0,"ss":48.0,"used":false,"gnssid":1,"svid":14},{"PRN":3,"az":178.0,"ss":45.0,"used":true,"gnssid":0,"svid":3},{"PRN":7,"az":250.0,"ss":43.0,"used":true,"gnssid":0,"svid":7},{"PRN":22,"az":170.0,"ss":42.0,"used":true,"gnssid":0,"svid":22},{"PRN":9,"az":310.0,"ss":44.0,"used":true,"gnssid":0,"svid":9},{"PRN":135,"az":196.0,"ss":48.0,"used":false,"gnssid":1,"svid":16},{"PRN":4,"az":104.0,"ss":39.0,"used":false,"gnssid":0,"svid":4},{"PRN":131,"az":174.0,"ss":46.0,"used":false,"gnssid":1,"svid":12},{"PRN":138,"az":160.0,"ss":45.0,"used":false,"gnssid":1,"svid":19},{"PRN":94,"az":212.0,"ss":44.0,"used":false,"gnssid":2,"svid":24},{"PRN":26,"az":50.0,"ss":46.0,"used":true,"gnssid":0,"svid":26},{"PRN":71,"az":54.0,"ss":49.0,"used":false,"gnssid":2,"svid":1},{"PRN":6,"az":276.0,"ss":35.0,"used":true,"gnssid":0,"svid":6},{"PRN":23,"az":52.0,"ss":52.0,"used":true,"gnssid":0,"svid":23},{"PRN":74,"az":132.0,"ss":50.0,"used":false,"gnssid":2,"svid":4},{"PRN":79,"az":304.0,"ss":45.0,"used":false,"gnssid":2,"svid":9},{"PRN":16,"az":78.0,"ss":50.0,"used":true,"gnssid":0,"svid":16}]}
{"class":"TPV","mode":3,"lat":44.068812001,"lon":-121.314308060,"altHAE":1110.281,"altMSL":1132.436,"epv":1.137,"track":328.5326,"magtrack":342.9511,"magvar":14.4,"speed":0.010,"climb":-0.008,"eps":0.01,"ecefx":-2386070.74,"ecefy":-3922190.16,"ecefz":4414360.65,"ecefvx":0.00,"ecefvy":0.01,"ecefvz":0.00,"ecefpAcc":1.33,"ecefvAcc":0.02,"velN":0.008,"velE":-0.005,"velD":0.008,"geoidSep":-22.155,"eph":0.694,"sep":34.974}
{"class":"SKY","vdop":1.54,"tdop":1.03,"hdop":1.01,"pdop":1.84,"satellites":[{"PRN":133,"az":192.0,"ss":49.0,"used":false,"gnssid":1,"svid":14},{"PRN":3,"az":178.0,"ss":46.0,"used":true,"gnssid":0,"svid":3},{"PRN":7,"az":250.0,"ss":43.0,"used":true,"gnssid":0,"svid":7},{"PRN":22,"az":170.0,"ss":43.0,"used":true,"gnssid":0,"svid":22},{"PRN":9,"az":310.0,"ss":44.0,"used":true,"gnssid":0,"svid":9},{"PRN":135,"az":196.0,"ss":49.0,"used":false,"gnssid":1,"svid":16},{"PRN":4,"az":104.0,"ss":40.0,"used":false,"gnssid":0,"svid":4},{"PRN":131,"az":174.0,"ss":46.0,"used":false,"gnssid":1,"svid":12},{"PRN":138,"az":160.0,"ss":45.0,"used":false,"gnssid":1,"svid":19},{"PRN":94,"az":212.0,"ss":45.0,"used":false,"gnssid":2,"svid":24},{"PRN":26,"az":50.0,"ss":47.0,"used":true,"gnssid":0,"svid":26},{"PRN":71,"az":54.0,"ss":50.0,"used":false,"gnssid":2,"svid":1},{"PRN":6,"az":276.0,"ss":35.0,"used":true,"gnssid":0,"svid":6},{"PRN":23,"az":52.0,"ss":53.0,"used":true,"gnssid":0,"svid":23},{"PRN":74,"az":132.0,"ss":50.0,"used":false,"gnssid":2,"svid":4},{"PRN":79,"az":304.0,"ss":45.0,"used":false,"gnssid":2,"svid":9},{"PRN":16,"az":78.0,"ss":51.0,"used":true,"gnssid":0,"svid":16}]}
{"class":"TPV","mode":3,"lat":44.068812060,"lon":-121.314308060,"altHAE":1110.287,"altMSL":1132.442,"epv":1.132,"track":246.3946,"magtrack":260.8130,"magvar":14.4,"speed":0.010,"climb":0.004,"eps":0.00,"ecefx":-2386070.74,"ecefy":-3922190.16,"ecefz":4414360.66,"ecefvx":-0.01,"ecefvy":-0.00,"ecefvz":0.00,"ecefpAcc":1.33,"ecefvAcc":0.01,"velN":-0.004,"velE":-0.009,"velD":-0.004,"geoidSep":-22.155,"eph":0.691,"sep":34.970}
{"class":"SKY","vdop":1.54,"tdop":1.03,"hdop":1.01,"pdop":1.84,"satellites":[{"PRN":133,"az":192.0,"ss":48.0,"used":false,"gnssid":1,"svid":14},{"PRN":3,"az":178.0,"ss":45.0,"used":true,"gnssid":0,"svid":3},{"PRN":7,"az":250.0,"ss":43.0,"used":true,"gnssid":0,"svid":7},{"PRN":22,"az":170.0,"ss":43.0,"used":true,"gnssid":0,"svid":22},{"PRN":9,"az":310.0,"ss":44.0,"used":true,"gnssid":0,"svid":9},{"PRN":135,"az":196.0,"ss":48.0,"used":false,"gnssid":1,"svid":16},{"PRN":4,"az":104.0,"ss":40.0,"used":false,"gnssid":0,"svid":4},{"PRN":131,"az":174.0,"ss":46.0,"used":false,"gnssid":1,"svid":12},{"PRN":138,"az":160.0,"ss":45.0,"used":false,"gnssid":1,"svid":19},{"PRN":94,"az":212.0,"ss":45.0,"used":false,"gnssid":2,"svid":24},{"PRN":26,"az":50.0,"ss":46.0,"used":true,"gnssid":0,"svid":26},{"PRN":71,"az":54.0,"ss":49.0,"used":false,"gnssid":2,"svid":1},{"PRN":6,"az":276.0,"ss":35.0,"used":true,"gnssid":0,"svid":6},{"PRN":23,"az":52.0,"ss":53.0,"used":true,"gnssid":0,"svid":23},{"PRN":74,"az":132.0,"ss":50.0,"used":false,"gnssid":2,"svid":4},{"PRN":79,"az":304.0,"ss":45.0,"used":false,"gnssid":2,"svid":9},{"PRN":16,"az":78.0,"ss":50.0,"used":true,"gnssid":0,"svid":16}]}
{"class":"TPV","mode":3,"lat":44.068812072,"lon":-121.314308017,"altHAE":1110.293,"altMSL":1132.448,"epv":1.125,"track":64.3081,"magtrack":78.7266,"magvar":14.4,"speed":0.014,"climb":-0.000,"eps":0.01,"ecefx":-2386070.74,"ecefy":-3922190.16,"ecefz":4414360.66,"ecefvx":0.01,"ecefvy":-0.00,"ecefvz":0.00,"ecefpAcc":1.32,"ecefvAcc":0.02,"velN":0.006,"velE":0.013,"velD":0.000,"geoidSep":-22.155,"eph":0.688,"sep":34.966}
{"class":"SKY","vdop":1.54,"tdop":1.03,"hdop":1.01,"pdop":1.84,"satellites":[{"PRN":133,"az":192.0,"ss":48.0,"used":false,"gnssid":1,"svid":14},{"PRN":3,"az":178.0,"ss":45.0,"used":true,"gnssid":0,"svid":3},{"PRN":7,"az":250.0,"ss":43.0,"used":true,"gnssid":0,"svid":7},{"PRN":22,"az":170.0,"ss":43.0,"used":true,"gnssid":0,"svid":22},{"PRN":9,"az":310.0,"ss":44.0,"used":true,"gnssid":0,"svid":9},{"PRN":135,"az":196.0,"ss":48.0,"used":false,"gnssid":1,"svid":16},{"PRN":4,"az":104.0,"ss":39.0,"used":false,"gnssid":0,"svid":4},{"PRN":131,"az":174.0,"ss":46.0,"used":false,"gnssid":1,"svid":12},{"PRN":138,"az":160.0,"ss":45.0,"used":false,"gnssid":1,"svid":19},{"PRN":94,"az":212.0,"ss":44.0,"used":false,"gnssid":2,"svid":24},{"PRN":26,"az":50.0,"ss":46.0,"used":true,"gnssid":0,"svid":26},{"PRN":71,"az":54.0,"ss":49.0,"used":false,"gnssid":2,"svid":1},{"PRN":6,"az":276.0,"ss":35.0,"used":true,"gnssid":0,"svid":6},{"PRN":23,"az":52.0,"ss":53.0,"used":true,"gnssid":0,"svid":23},{"PRN":74,"az":132.0,"ss":50.0,"used":false,"gnssid":2,"svid":4},{"PRN":79,"az":304.0,"ss":45.0,"used":false,"gnssid":2,"svid":9},{"PRN":16,"az":78.0,"ss":50.0,"used":true,"gnssid":0,"svid":16}]}
{"class":"TPV","mode":3,"lat":44.068812014,"lon":-121.314307931,"altHAE":1110.306,"altMSL":1132.461,"epv":1.121,"track":283.3457,"magtrack":297.7642,"magvar":14.4,"speed":0.016,"climb":0.001,"eps":0.01,"ecefx":-2386070.74,"ecefy":-3922190.18,"ecefz":4414360.67,"ecefvx":-0.01,"ecefvy":0.01,"ecefvz":0.00,"ecefpAcc":1.31,"ecefvAcc":0.02,"velN":0.004,"velE":-0.016,"velD":-0.001,"geoidSep":-22.155,"eph":0.685,"sep":34.961}
{"class":"SKY","vdop":1.54,"tdop":1.03,"hdop":1.01,"pdop":1.84,"satellites":[{"PRN":133,"az":192.0,"ss":48.0,"used":false,"gnssid":1,"svid":14},{"PRN":3,"az":178.0,"ss":45.0,"used":true,"gnssid":0,"svid":3},{"PRN":7,"az":250.0,"ss":43.0,"used":true,"gnssid":0,"svid":7},{"PRN":22,"az":170.0,"ss":43.0,"used":true,"gnssid":0,"svid":22},{"PRN":9,"az":310.0,"ss":44.0,"used":true,"gnssid":0,"svid":9},{"PRN":135,"az":196.0,"ss":48.0,"used":false,"gnssid":1,"svid":16},{"PRN":4,"az":104.0,"ss":39.0,"used":false,"gnssid":0,"svid":4},{"PRN":131,"az":174.0,"ss":46.0,"used":false,"gnssid":1,"svid":12},{"PRN":138,"az":160.0,"ss":45.0,"used":false,"gnssid":1,"svid":19},{"PRN":94,"az":212.0,"ss":45.0,"used":false,"gnssid":2,"svid":24},{"PRN":26,"az":50.0,"ss":46.0,"used":true,"gnssid":0,"svid":26},{"PRN":71,"az":54.0,"ss":49.0,"used":false,"gnssid":2,"svid":1},{"PRN":6,"az":276.0,"ss":35.0,"used":true,"gnssid":0,"svid":6},{"PRN":23,"az":52.0,"ss":53.0,"used":true,"gnssid":0,"svid":23},{"PRN":74,"az":132.0,"ss":50.0,"used":false,"gnssid":2,"svid":4},{"PRN":79,"az":304.0,"ss":45.0,"used":false,"gnssid":2,"svid":9},{"PRN":16,"az":78.0,"ss":50.0,"used":true,"gnssid":0,"svid":16}]}
{"class":"TPV","mode":3,"lat":44.068811998,"lon":-121.314307854,"altHAE":1110.315,"altMSL":1132.470,"epv":1.116,"track":136.5943,"magtrack":151.0128,"magvar":14.4,"speed":0.007,"climb":0.007,"eps":0.01,"ecefx":-2386070.74,"ecefy":-3922190.19,"ecefz":4414360.67,"ecefvx":-0.00,"ecefvy":-0.01,"ecefvz":0.00,"ecefpAcc":1.31,"ecefvAcc":0.01,"velN":-0.005,"velE":0.005,"velD":-0.007,"geoidSep":-22.155,"eph":0.683,"sep":34.957}
{"class":"SKY","vdop":1.54,"tdop":1.03,"hdop":1.01,"pdop":1.84,"satellites":[{"PRN":133,"az":192.0,"ss":49.0,"used":false,"gnssid":1,"svid":14},{"PRN":3,"az":178.0,"ss":45.0,"used":true,"gnssid":0,"svid":3},{"PRN":7,"az":250.0,"ss":44.0,"used":true,"gnssid":0,"svid":7},{"PRN":22,"az":170.0,"ss":43.0,"used":true,"gnssid":0,"svid":22},{"PRN":9,"az":310.0,"ss":44.0,"used":true,"gnssid":0,"svid":9},{"PRN":135,"az":196.0,"ss":49.0,"used":false,"gnssid":1,"svid":16},{"PRN":4,"az":104.0,"ss":39.0,"used":false,"gnssid":0,"svid":4},{"PRN":131,"az":174.0,"ss":46.0,"used":false,"gnssid":1,"svid":12},{"PRN":138,"az":160.0,"ss":45.0,"used":false,"gnssid":1,"svid":19},{"PRN":94,"az":212.0,"ss":45.0,"used":false,"gnssid":2,"svid":24},{"PRN":26,"az":50.0,"ss":47.0,"used":true,"gnssid":0,"svid":26},{"PRN":71,"az":54.0,"ss":50.0,"used":false,"gnssid":2,"svid":1},{"PRN":6,"az":276.0,"ss":36.0,"used":true,"gnssid":0,"svid":6},{"PRN":23,"az":52.0,"ss":53.0,"used":true,"gnssid":0,"svid":23},{"PRN":74,"az":132.0,"ss":50.0,"used":false,"gnssid":2,"svid":4},{"PRN":79,"az":304.0,"ss":45.0,"used":false,"gnssid":2,"svid":9},{"PRN":16,"az":78.0,"ss":50.0,"used":true,"gnssid":0,"svid":16}]}
{"class":"TPV","mode":3,"lat":44.068811979,"lon":-121.314307816,"altHAE":1110.322,"altMSL":1132.477,"epv":1.114,"track":338.2169,"magtrack":352.6353,"magvar":14.4,"speed":0.014,"climb":0.011,"eps":0.01,"ecefx":-2386070.74,"ecefy":-3922190.19,"ecefz":4414360.67,"ecefvx":-0.00,"ecefvy":0.00,"ecefvz":0.02,"ecefpAcc":1.31,"ecefvAcc":0.01,"velN":0.013,"velE":-0.005,"velD":-0.011,"geoidSep":-22.155,"eph":0.681,"sep":34.953}
{"class":"SKY","vdop":1.54,"tdop":1.03,"hdop":1.01,"pdop":1.84,"satellites":[{"PRN":133,"az":192.0,"ss":48.0,"used":false,"gnssid":1,"svid":14},{"PRN":3,"az":178.0,"ss":45.0,"used":true,"gnssid":0,"svid":3},{"PRN":7,"az":250.0,"ss":44.0,"used":true,"gnssid":0,"svid":7},{"PRN":22,"az":170.0,"ss":43.0,"used":true,"gnssid":0,"svid":22},{"PRN":9,"az":310.0,"ss":44.0,"used":true,"gnssid":0,"svid":9},{"PRN":135,"az":196.0,"ss":48.0,"used":false,"gnssid":1,"svid":16},{"PRN":4,"az":104.0,"ss":38.0,"used":false,"gnssid":0,"svid":4},{"PRN":131,"az":174.0,"ss":45.0,"used":false,"gnssid":1,"svid":12},{"PRN":138,"az":160.0,"ss":45.0,"used":false,"gnssid":1,"svid":19},{"PRN":94,"az":212.0,"ss":45.0,"used":false,"gnssid":2,"svid":24},{"PRN":26,"az":50.0,"ss":46.0,"used":true,"gnssid":0,"svid":26},{"PRN":71,"az":54.0,"ss":49.0,"used":false,"gnssid":2,"svid":1},{"PRN":6,"az":276.0,"ss":36.0,"used":true,"gnssid":0,"svid":6},{"PRN":23,"az":52.0,"ss":53.0,"used":true,"gnssid":0,"svid":23},{"PRN":74,"az":132.0,"ss":50.0,"used":false,"gnssid":2,"svid":4},{"PRN":79,"az":304.0,"ss":45.0,"used":false,"gnssid":2,"svid":9},{"PRN":16,"az":78.0,"ss":50.0,"used":true,"gnssid":0,"svid":16}]}
{"class":"TPV","mode":3,"lat":44.068811965,"lon":-121.314307814,"altHAE":1110.338,"altMSL":1132.493,"epv":1.109,"track":181.9870,"magtrack":196.4055,"magvar":14.4,"speed":0.003,"climb":0.010,"eps":0.01,"ecefx":-2386070.75,"ecefy":-3922190.20,"ecefz":4414360.68,"ecefvx":-0.00,"ecefvy":-0.01,"ecefvz":0.00,"ecefpAcc":1.30,"ecefvAcc":0.01,"velN":-0.003,"velE":-0.000,"velD":-0.010,"geoidSep":-22.155,"eph":0.679,"sep":34.949}
{"class":"SKY","vdop":1.54,"tdop":1.03,"hdop":1.01,"pdop":1.84,"satellites":[{"PRN":133,"az":192.0,"ss":48.0,"used":false,"gnssid":1,"svid":14},{"PRN":3,"az":178.0,"ss":45.0,"used":true,"gnssid":0,"svid":3},{"PRN":7,"az":250.0,"ss":44.0,"used":true,"gnssid":0,"svid":7},{"PRN":22,"az":170.0,"ss":43.0,"used":true,"gnssid":0,"svid":22},{"PRN":9,"az":310.0,"ss":44.0,"used":true,"gnssid":0,"svid":9},{"PRN":135,"az":196.0,"ss":48.0,"used":false,"gnssid":1,"svid":16},{"PRN":4,"az":104.0,"ss":38.0,"used":false,"gnssid":0,"svid":4},{"PRN":131,"az":174.0,"ss":45.0,"used":false,"gnssid":1,"svid":12},{"PRN":138,"az":160.0,"ss":45.0,"used":false,"gnssid":1,"svid":19},{"PRN":94,"az":212.0,"ss":45.0,"used":false,"gnssid":2,"svid":24},{"PRN":26,"az":50.0,"ss":46.0,"used":true,"gnssid":0,"svid":26},{"PRN":71,"az":54.0,"ss":49.0,"used":false,"gnssid":2,"svid":1},{"PRN":6,"az":276.0,"ss":35.0,"used":true,"gnssid":0,"svid":6},{"PRN":23,"az":52.0,"ss":53.0,"used":true,"gnssid":0,"svid":23},{"PRN":74,"az":132.0,"ss":49.0,"used":false,"gnssid":2,"svid":4},{"PRN":79,"az":304.0,"ss":44.0,"used":false,"gnssid":2,"svid":9},{"PRN":16,"az":78.0,"ss":50.0,"used":true,"gnssid":0,"svid":16}]}
{"class":"TPV","mode":3,"lat":44.068811973,"lon":-121.314307817,"altHAE":1110.346,"altMSL":1132.501,"epv":1.108,"track":323.0122,"magtrack":337.4307,"magvar":14.4,"speed":0.004,"climb":0.010,"eps":0.00,"ecefx":-2386070.75,"ecefy":-3922190.21,"ecefz":4414360.69,"ecefvx":-0.00,"ecefvy":-0.00,"ecefvz":0.01,"ecefpAcc":1.30,"ecefvAcc":0.01,"velN":0.003,"velE":-0.002,"velD":-0.010,"geoidSep":-22.155,"eph":0.678,"sep":34.944}
{"class":"SKY","vdop":1.54,"tdop":1.03,"hdop":1.01,"pdop":1.84,"satellites":[{"PRN":133,"az":192.0,"ss":48.0,"used":false,"gnssid":1,"svid":14},{"PRN":3,"az":178.0,"ss":45.0,"used":true,"gnssid":0,"svid":3},{"PRN":7,"az":250.0,"ss":44.0,"used":true,"gnssid":0,"svid":7},{"PRN":22,"az":170.0,"ss":43.0,"used":true,"gnssid":0,"svid":22},{"PRN":9,"az":310.0,"ss":44.0,"used":true,"gnssid":0,"svid":9},{"PRN":135,"az":196.0,"ss":48.0,"used":false,"gnssid":1,"svid":16},{"PRN":4,"az":104.0,"ss":39.0,"used":false,"gnssid":0,"svid":4},{"PRN":131,"az":174.0,"ss":46.0,"used":false,"gnssid":1,"svid":12},{"PRN":138,"az":160.0,"ss":45.0,"used":false,"gnssid":1,"svid":19},{"PRN":94,"az":212.0,"ss":45.0,"used":false,"gnssid":2,"svid":24},{"PRN":26,"az":50.0,"ss":46.0,"used":true,"gnssid":0,"svid":26},{"PRN":71,"az":54.0,"ss":49.0,"used":false,"gnssid":2,"svid":1},{"PRN":6,"az":276.0,"ss":35.0,"used":true,"gnssid":0,"svid":6},{"PRN":23,"az":52.0,"ss":53.0,"used":true,"gnssid":0,"svid":23},{"PRN":74,"az":132.0,"ss":50.0,"used":false,"gnssid":2,"svid":4},{"PRN":79,"az":304.0,"ss":45.0,"used":false,"gnssid":2,"svid":9},{"PRN":16,"az":78.0,"ss":50.0,"used":true,"gnssid":0,"svid":16}]}
{"class":"TPV","mode":3,"lat":44.068812032,"lon":-121.314307822,"altHAE":1110.336,"altMSL":1132.491,"epv":1.105,"track":167.8345,"magtrack":182.2529,"magvar":14.4,"speed":0.014,"climb":0.011,"eps":0.00,"ecefx":-2386070.74,"ecefy":-3922190.20,"ecefz":4414360.69,"ecefvx":-0.01,"ecefvy":-0.02,"ecefvz":-0.00,"ecefpAcc":1.30,"ecefvAcc":0.01,"velN":-0.014,"velE":0.003,"velD":-0.011,"geoidSep":-22.155,"eph":0.676,"sep":34.940}
{"class":"SKY","vdop":1.54,"tdop":1.03,"hdop":1.01,"pdop":1.84,"satellites":[{"PRN":133,"az":192.0,"ss":48.0,"used":false,"gnssid":1,"svid":14},{"PRN":3,"az":178.0,"ss":45.0,"used":true,"gnssid":0,"svid":3},{"PRN":7,"az":250.0,"ss":44.0,"used":true,"gnssid":0,"svid":7},{"PRN":22,"az":170.0,"ss":43.0,"used":true,"gnssid":0,"svid":22},{"PRN":9,"az":310.0,"ss":45.0,"used":true,"gnssid":0,"svid":9},{"PRN":135,"az":196.0,"ss":49.0,"used":false,"gnssid":1,"svid":16},{"PRN":4,"az":104.0,"ss":38.0,"used":false,"gnssid":0,"svid":4},{"PRN":131,"az":174.0,"ss":46.0,"used":false,"gnssid":1,"svid":12},{"PRN":138,"az":160.0,"ss":45.0,"used":false,"gnssid":1,"svid":19},{"PRN":94,"az":212.0,"ss":45.0,"used":false,"gnssid":2,"svid":24},{"PRN":26,"az":50.0,"ss":46.0,"used":true,"gnssid":0,"svid":26},{"PRN":71,"az":54.0,"ss":50.0,"used":false,"gnssid":2,"svid":1},{"PRN":6,"az":276.0,"ss":35.0,"used":true,"gnssid":0,"svid":6},{"PRN":23,"az":52.0,"ss":53.0,"used":true,"gnssid":0,"svid":23},{"PRN":74,"az":132.0,"ss":50.0,"used":false,"gnssid":2,"svid":4},{"PRN":79,"az":304.0,"ss":45.0,"used":false,"gnssid":2,"svid":9},{"PRN":16,"az":78.0,"ss":50.0,"used":true,"gnssid":0,"svid":16}]}
{"class":"TPV","mode":3,"lat":44.068812103,"lon":-121.314307920,"altHAE":1110.324,"altMSL":1132.479,"epv":1.099,"track":278.7219,"magtrack":293.1404,"magvar":14.4,"speed":0.022,"climb":-0.011,"eps":0.01,"ecefx":-2386070.74,"ecefy":-3922190.18,"ecefz":4414360.69,"ecefvx":-0.01,"ecefvy":0.02,"ecefvz":-0.01,"ecefpAcc":1.29,"ecefvAcc":0.01,"velN":0.003,"velE":-0.022,"velD":0.011,"geoidSep":-22.155,"eph":0.673,"sep":34.936}
{"class":"SKY","vdop":1.54,"tdop":1.03,"hdop":1.01,"pdop":1.84,"satellites":[{"PRN":133,"az":192.0,"ss":48.0,"used":false,"gnssid":1,"svid":14},{"PRN":3,"az":178.0,"ss":46.0,"used":true,"gnssid":0,"svid":3},{"PRN":7,"az":250.0,"ss":44.0,"used":true,"gnssid":0,"svid":7},{"PRN":22,"az":170.0,"ss":43.0,"used":true,"gnssid":0,"svid":22},{"PRN":9,"az":310.0,"ss":45.0,"used":true,"gnssid":0,"svid":9},{"PRN":135,"az":196.0,"ss":49.0,"used":false,"gnssid":1,"svid":16},{"PRN":4,"az":104.0,"ss":39.0,"used":false,"gnssid":0,"svid":4},{"PRN":131,"az":174.0,"ss":46.0,"used":false,"gnssid":1,"svid":12},{"PRN":138,"az":160.0,"ss":45.0,"used":false,"gnssid":1,"svid":19},{"PRN":94,"az":212.0,"ss":45.0,"used":false,"gnssid":2,"svid":24},{"PRN":26,"az":50.0,"ss":46.0,"used":true,"gnssid":0,"svid":26},{"PRN":71,"az":54.0,"ss":50.0,"used":false,"gnssid":2,"svid":1},{"PRN":6,"az":276.0,"ss":35.0,"used":true,"gnssid":0,"svid":6},{"PRN":23,"az":52.0,"ss":53.0,"used":true,"gnssid":0,"svid":23},{"PRN":74,"az":132.0,"ss":50.0,"used":false,"gnssid":2,"svid":4},{"PRN":79,"az":304.0,"ss":45.0,"used":false,"gnssid":2,"svid":9},{"PRN":16,"az":78.0,"ss":50.0,"used":true,"gnssid":0,"svid":16}]}
{"class":"TPV","mode":3,"lat":44.068812093,"lon":-121.314307850,"altHAE":1110.333,"altMSL":1132.487,"epv":1.097,"track":279.6354,"magtrack":294.0539,"magvar":14.4,"speed":0.018,"climb":-0.008,"eps":0.01,"ecefx":-2386070.74,"ecefy":-3922190.19,"ecefz":4414360.69,"ecefvx":-0.01,"ecefvy":0.02,"ecefvz":-0.00,"ecefpAcc":1.29,"ecefvAcc":0.01,"velN":0.003,"velE":-0.018,"velD":0.008,"geoidSep":-22.155,"eph":0.672,"sep":34.931}
{"class":"SKY","vdop":1.54,"tdop":1.03,"hdop":1.01,"pdop":1.84,"satellites":[{"PRN":133,"az":192.0,"ss":48.0,"used":false,"gnssid":1,"svid":14},{"PRN":3,"az":178.0,"ss":46.0,"used":true,"gnssid":0,"svid":3},{"PRN":7,"az":250.0,"ss":44.0,"used":true,"gnssid":0,"svid":7},{"PRN":22,"az":170.0,"ss":43.0,"used":true,"gnssid":0,"svid":22},{"PRN":9,"az":310.0,"ss":44.0,"used":true,"gnssid":0,"svid":9},{"PRN":135,"az":196.0,"ss":49.0,"used":false,"gnssid":1,"svid":16},{"PRN":4,"az":104.0,"ss":38.0,"used":false,"gnssid":0,"svid":4},{"PRN":131,"az":174.0,"ss":46.0,"used":false,"gnssid":1,"svid":12},{"PRN":138,"az":160.0,"ss":45.0,"used":false,"gnssid":1,"svid":19},{"PRN":94,"az":212.0,"ss":44.0,"used":false,"gnssid":2,"svid":24},{"PRN":26,"az":50.0,"ss":46.0,"used":true,"gnssid":0,"svid":26},{"PRN":71,"az":54.0,"ss":49.0,"used":false,"gnssid":2,"svid":1},{"PRN":6,"az":276.0,"ss":35.0,"used":true,"gnssid":0,"svid":6},{"PRN":23,"az":52.0,"ss":53.0,"used":true,"gnssid":0,"svid":23},{"PRN":74,"az":132.0,"ss":50.0,"used":false,"gnssid":2,"svid":4},{"PRN":79,"az":304.0,"ss":45.0,"used":false,"gnssid":2,"svid":9},{"PRN":16,"az":78.0,"ss":50.0,"used":true,"gnssid":0,"svid":16}]}
{"class":"TPV","mode":3,"lat":44.068812136,"lon":-121.314307859,"altHAE":1110.335,"altMSL":1132.490,"epv":1.088,"track":125.7542,"magtrack":140.1727,"magvar":14.4,"speed":0.011,"climb":0.018,"eps":0.01,"ecefx":-2386070.74,"ecefy":-3922190.19,"ecefz":4414360.70,"ecefvx":-0.00,"ecefvy":-0.02,"ecefvz":0.01,"ecefpAcc":1.28,"ecefvAcc":0.01,"velN":-0.007,"velE":0.009,"velD":-0.018,"geoidSep":-22.155,"eph":0.667,"sep":34.927}
{"class":"SKY","vdop":1.54,"tdop":1.03,"hdop":1.01,"pdop":1.84,"satellites":[{"PRN":133,"az":192.0,"ss":48.0,"used":false,"gnssid":1,"svid":14},{"PRN":3,"az":178.0,"ss":46.0,"used":true,"gnssid":0,"svid":3},{"PRN":7,"az":250.0,"ss":44.0,"used":true,"gnssid":0,"svid":7},{"PRN":22,"az":170.0,"ss":42.0,"used":true,"gnssid":0,"svid":22},{"PRN":9,"az":310.0,"ss":44.0,"used":true,"gnssid":0,"svid":9},{"PRN":135,"az":196.0,"ss":48.0,"used":false,"gnssid":1,"svid":16},{"PRN":4,"az":104.0,"ss":38.0,"used":false,"gnssid":0,"svid":4},{"PRN":131,"az":174.0,"ss":45.0,"used":false,"gnssid":1,"svid":12},{"PRN":138,"az":160.0,"ss":45.0,"used":false,"gnssid":1,"svid":19},{"PRN":94,"az":212.0,"ss":44.0,"used":false,"gnssid":2,"svid":24},{"PRN":26,"az":50.0,"ss":46.0,"used":true,"gnssid":0,"svid":26},{"PRN":71,"az":54.0,"ss":49.0,"used":false,"gnssid":2,"svid":1},{"PRN":6,"az":276.0,"ss":34.0,"used":true,"gnssid":0,"svid":6},{"PRN":23,"az":52.0,"ss":53.0,"used":true,"gnssid":0,"svid":23},{"PRN":74,"az":132.0,"ss":49.0,"used":false,"gnssid":2,"svid":4},{"PRN":79,"az":304.0,"ss":45.0,"used":false,"gnssid":2,"svid":9},{"PRN":16,"az":78.0,"ss":50.0,"used":true,"gnssid":0,"svid":16}]}
{"class":"TPV","mode":3,"lat":44.068812179,"lon":-121.314307836,"altHAE":1110.339,"altMSL":1132.494,"epv":1.085,"track":79.9023,"magtrack":94.3208,"magvar":14.4,"speed":0.006,"climb":0.017,"eps":0.00,"ecefx":-2386070.74,"ecefy":-3922190.19,"ecefz":4414360.70,"ecefvx":-0.00,"ecefvy":-0.01,"ecefvz":0.01,"ecefpAcc":1.27,"ecefvAcc":0.00,"velN":0.001,"velE":0.006,"velD":-0.017,"geoidSep":-22.155,"eph":0.665,"sep":34.923}
{"class":"SKY","vdop":1.53,"tdop":1.03,"hdop":1.01,"pdop":1.84,"satellites":[{"PRN":133,"az":192.0,"ss":48.0,"used":false,"gnssid":1,"svid":14},{"PRN":3,"az":178.0,"ss":46.0,"used":true,"gnssid":0,"svid":3},{"PRN":7,"az":250.0,"ss":44.0,"used":true,"gnssid":0,"svid":7},{"PRN":22,"az":170.0,"ss":43.0,"used":true,"gnssid":0,"svid":22},{"PRN":9,"az":310.0,"ss":44.0,"used":true,"gnssid":0,"svid":9},{"PRN":135,"az":196.0,"ss":48.0,"used":false,"gnssid":1,"svid":16},{"PRN":4,"az":104.0,"ss":38.0,"used":false,"gnssid":0,"svid":4},{"PRN":131,"az":174.0,"ss":45.0,"used":false,"gnssid":1,"svid":12},{"PRN":138,"az":160.0,"ss":45.0,"used":false,"gnssid":1,"svid":19},{"PRN":94,"az":212.0,"ss":44.0,"used":false,"gnssid":2,"svid":24},{"PRN":26,"az":50.0,"ss":46.0,"used":true,"gnssid":0,"svid":26},{"PRN":71,"az":54.0,"ss":49.0,"used":false,"gnssid":2,"svid":1},{"PRN":6,"az":276.0,"ss":34.0,"used":true,"gnssid":0,"svid":6},{"PRN":23,"az":52.0,"ss":53.0,"used":true,"gnssid":0,"svid":23},{"PRN":74,"az":132.0,"ss":49.0,"used":false,"gnssid":2,"svid":4},{"PRN":79,"az":304.0,"ss":44.0,"used":false,"gnssid":2,"svid":9},{"PRN":16,"az":78.0,"ss":50.0,"used":true,"gnssid":0,"svid":16}]}
{"class":"TPV","mode":3,"lat":44.068812201,"lon":-121.314307849,"altHAE":1110.339,"altMSL":1132.494,"epv":1.084,"track":319.5208,"magtrack":333.9393,"magvar":14.4,"speed":0.020,"climb":-0.002,"eps":0.01,"ecefx":-2386070.74,"ecefy":-3922190.19,"ecefz":4414360.70,"ecefvx":-0.00,"ecefvy":0.02,"ecefvz":0.01,"ecefpAcc":1.27,"ecefvAcc":0.01,"velN":0.015,"velE":-0.013,"velD":0.002,"geoidSep":-22.155,"eph":0.664,"sep":34.919}
{"class":"SKY","vdop":1.53,"tdop":1.03,"hdop":1.01,"pdop":1.84,"satellites":[{"PRN":133,"az":192.0,"ss":48.0,"used":false,"gnssid":1,"svid":14},{"PRN":3,"az":178.0,"ss":46.0,"used":true,"gnssid":0,"svid":3},{"PRN":7,"az":250.0,"ss":44.0,"used":true,"gnssid":0,"svid":7},{"PRN":22,"az":170.0,"ss":43.0,"used":true,"gnssid":0,"svid":22},{"PRN":9,"az":310.0,"ss":44.0,"used":true,"gnssid":0,"svid":9},{"PRN":135,"az":196.0,"ss":48.0,"used":false,"gnssid":1,"svid":16},{"PRN":4,"az":104.0,"ss":38.0,"used":false,"gnssid":0,"svid":4},{"PRN":131,"az":174.0,"ss":45.0,"used":false,"gnssid":1,"svid":12},{"PRN":138,"az":160.0,"ss":45.0,"used":false,"gnssid":1,"svid":19},{"PRN":94,"az":212.0,"ss":44.0,"used":false,"gnssid":2,"svid":24},{"PRN":26,"az":50.0,"ss":46.0,"used":true,"gnssid":0,"svid":26},{"PRN":71,"az":54.0,"ss":49.0,"used":false,"gnssid":2,"svid":1},{"PRN":6,"az":276.0,"ss":34.0,"used":true,"gnssid":0,"svid":6},{"PRN":23,"az":52.0,"ss":53.0,"used":true,"gnssid":0,"svid":23},{"PRN":74,"az":132.0,"ss":49.0,"used":false,"gnssid":2,"svid":4},{"PRN":79,"az":304.0,"ss":44.0,"used":false,"gnssid":2,"svid":9},{"PRN":16,"az":78.0,"ss":50.0,"used":true,"gnssid":0,"svid":16}]}
{"class":"TPV","mode":3,"lat":44.068812136,"lon":-121.314307735,"altHAE":1110.342,"altMSL":1132.496,"epv":1.084,"track":255.9015,"magtrack":270.3200,"magvar":14.4,"speed":0.003,"climb":-0.001,"eps":0.02,"ecefx":-2386070.74,"ecefy":-3922190.20,"ecefz":4414360.70,"ecefvx":-0.00,"ecefvy":0.00,"ecefvz":-0.00,"ecefpAcc":1.27,"ecefvAcc":0.02,"velN":-0.001,"velE":-0.002,"velD":0.001,"geoidSep":-22.155,"eph":0.665,"sep":34.914}
