{"class":"TPV","mode":3,"time":"2037-08-01T03:34:59.500Z","ept":0.005,"lat":33.824362434,"lon":-118.146965011,"alt":-13.149,"epv":0.763,"track":246.7599,"speed":0.008,"climb":0.011,"eps":0.01,"ecefx":-2502136.44,"ecefy":-4676854.48,"ecefz":3530271.38,"ecefvx":-0.01,"ecefvy":-0.01,"ecefvz":0.00,"ecefpAcc":0.89,"ecefvAcc":0.01,"velN":-0.003,"velE":-0.008,"velD":-0.011,"geoidSep":-32.127,"eph":0.449,"sep":20.446}
{"class":"SKY","vdop":0.89,"tdop":0.52,"hdop":0.61,"pdop":1.08,"satellites":[{"PRN":138,"az":160.0,"ss":47.0,"used":false,"gnssid":1,"svid":19},{"PRN":73,"az":176.0,"ss":47.0,"used":true,"gnssid":2,"svid":3},{"PRN":8,"az":62.0,"ss":47.0,"used":true,"gnssid":0,"svid":8},{"PRN":23,"az":150.0,"ss":46.0,"used":true,"gnssid":0,"svid":23},{"PRN":7,"az":36.0,"ss":47.0,"used":true,"gnssid":0,"svid":7},{"PRN":78,"az":234.0,"ss":55.0,"used":true,"gnssid":2,"svid":8},{"PRN":100,"az":286.0,"ss":48.0,"used":true,"gnssid":2,"svid":30},{"PRN":27,"az":38.0,"ss":42.0,"used":true,"gnssid":0,"svid":27},{"PRN":5,"az":288.0,"ss":50.0,"used":true,"gnssid":0,"svid":5},{"PRN":9,"az":160.0,"ss":49.0,"used":true,"gnssid":0,"svid":9},{"PRN":13,"az":320.0,"ss":40.0,"used":true,"gnssid":0,"svid":13},{"PRN":81,"az":52.0,"ss":45.0,"used":true,"gnssid":2,"svid":11},{"PRN":135,"az":206.0,"ss":52.0,"used":false,"gnssid":1,"svid":16},{"PRN":72,"az":18.0,"ss":49.0,"used":true,"gnssid":2,"svid":2},{"PRN":28,"az":252.0,"ss":46.0,"used":true,"gnssid":0,"svid":28},{"PRN":11,"az":120.0,"ss":40.0,"used":true,"gnssid":0,"svid":11},{"PRN":30,"az":332.0,"ss":48.0,"used":true,"gnssid":0,"svid":30},{"PRN":77,"az":304.0,"ss":45.0,"used":true,"gnssid":2,"svid":7},{"PRN":17,"az":190.0,"ss":45.0,"used":true,"gnssid":0,"svid":17},{"PRN":131,"az":178.0,"ss":48.0,"used":false,"gnssid":1,"svid":12}]}
{"class":"TPV","mode":3,"time":"2037-08-01T03:34:59.750Z","ept":0.005,"lat":33.824362427,"lon":-118.146964990,"alt":-13.148,"epv":0.764,"track":322.2664,"speed":0.004,"climb":-0.003,"eps":0.00,"epc":84.68,"ecefx":-2502136.44,"ecefy":-4676854.48,"ecefz":3530271.38,"ecefvx":-0.00,"ecefvy":0.01,"ecefvz":0.00,"ecefpAcc":0.89,"ecefvAcc":0.01,"velN":0.004,"velE":-0.003,"velD":0.003,"geoidSep":-32.127,"eph":0.449,"sep":20.446}
{"class":"SKY","vdop":0.89,"tdop":0.52,"hdop":0.61,"pdop":1.08,"satellites":[{"PRN":138,"az":160.0,"ss":47.0,"used":false,"gnssid":1,"svid":19},{"PRN":73,"az":176.0,"ss":47.0,"used":true,"gnssid":2,"svid":3},{"PRN":8,"az":62.0,"ss":47.0,"used":true,"gnssid":0,"svid":8},{"PRN":23,"az":150.0,"ss":46.0,"used":true,"gnssid":0,"svid":23},{"PRN":7,"az":36.0,"ss":47.0,"used":true,"gnssid":0,"svid":7},{"PRN":78,"az":234.0,"ss":55.0,"used":true,"gnssid":2,"svid":8},{"PRN":100,"az":286.0,"ss":48.0,"used":true,"gnssid":2,"svid":30},{"PRN":27,"az":38.0,"ss":42.0,"used":true,"gnssid":0,"svid":27},{"PRN":5,"az":288.0,"ss":50.0,"used":true,"gnssid":0,"svid":5},{"PRN":9,"az":160.0,"ss":49.0,"used":true,"gnssid":0,"svid":9},{"PRN":13,"az":320.0,"ss":39.0,"used":true,"gnssid":0,"svid":13},{"PRN":81,"az":52.0,"ss":45.0,"used":true,"gnssid":2,"svid":11},{"PRN":135,"az":206.0,"ss":52.0,"used":false,"gnssid":1,"svid":16},{"PRN":72,"az":18.0,"ss":50.0,"used":true,"gnssid":2,"svid":2},{"PRN":28,"az":252.0,"ss":46.0,"used":true,"gnssid":0,"svid":28},{"PRN":11,"az":120.0,"ss":40.0,"used":true,"gnssid":0,"svid":11},{"PRN":30,"az":332.0,"ss":48.0,"used":true,"gnssid":0,"svid":30},{"PRN":77,"az":304.0,"ss":45.0,"used":true,"gnssid":2,"svid":7},{"PRN":17,"az":190.0,"ss":45.0,"used":true,"gnssid":0,"svid":17},{"PRN":131,"az":178.0,"ss":48.0,"used":false,"gnssid":1,"svid":12}]}
{"class":"TPV","mode":3,"time":"2037-08-01T03:35:00.000Z","ept":0.005,"lat":33.824362427,"lon":-118.146964983,"alt":-13.147,"epv":0.765,"track":70.2452,"speed":0.015,"climb":-0.001,"eps":0.01,"epc":84.69,"ecefx":-2502136.44,"ecefy":-4676854.48,"ecefz":3530271.38,"ecefvx":0.01,"ecefvy":-0.00,"ecefvz":0.00,"ecefpAcc":0.89,"ecefvAcc":0.01,"velN":0.005,"velE":0.014,"velD":0.001,"geoidSep":-32.127,"eph":0.450,"sep":20.446}
{"class":"SKY","vdop":0.89,"tdop":0.52,"hdop":0.61,"pdop":1.08,"satellites":[{"PRN":138,"az":160.0,"ss":47.0,"used":false,"gnssid":1,"svid":19},{"PRN":73,"az":176.0,"ss":47.0,"used":true,"gnssid":2,"svid":3},{"PRN":8,"az":62.0,"ss":47.0,"used":true,"gnssid":0,"svid":8},{"PRN":23,"az":150.0,"ss":46.0,"used":true,"gnssid":0,"svid":23},{"PRN":7,"az":36.0,"ss":47.0,"used":true,"gnssid":0,"svid":7},{"PRN":78,"az":234.0,"ss":55.0,"used":true,"gnssid":2,"svid":8},{"PRN":100,"az":286.0,"ss":48.0,"used":true,"gnssid":2,"svid":30},{"PRN":27,"az":38.0,"ss":42.0,"used":true,"gnssid":0,"svid":27},{"PRN":5,"az":288.0,"ss":50.0,"used":true,"gnssid":0,"svid":5},{"PRN":9,"az":160.0,"ss":49.0,"used":true,"gnssid":0,"svid":9},{"PRN":13,"az":320.0,"ss":40.0,"used":true,"gnssid":0,"svid":13},{"PRN":81,"az":52.0,"ss":45.0,"used":true,"gnssid":2,"svid":11},{"PRN":135,"az":206.0,"ss":52.0,"used":false,"gnssid":1,"svid":16},{"PRN":72,"az":18.0,"ss":49.0,"used":true,"gnssid":2,"svid":2},{"PRN":28,"az":252.0,"ss":46.0,"used":true,"gnssid":0,"svid":28},{"PRN":11,"az":120.0,"ss":40.0,"used":true,"gnssid":0,"svid":11},{"PRN":30,"az":332.0,"ss":48.0,"used":true,"gnssid":0,"svid":30},{"PRN":77,"az":304.0,"ss":45.0,"used":true,"gnssid":2,"svid":7},{"PRN":17,"az":190.0,"ss":45.0,"used":true,"gnssid":0,"svid":17},{"PRN":131,"az":178.0,"ss":48.0,"used":false,"gnssid":1,"svid":12}]}
{"class":"TPV","mode":3,"time":"2037-08-01T03:35:00.250Z","ept":0.005,"lat":33.824362425,"lon":-118.146964989,"alt":-13.149,"epv":0.766,"track":225.1132,"speed":0.006,"climb":-0.005,"eps":0.00,"epc":84.69,"ecefx":-2502136.44,"ecefy":-4676854.48,"ecefz":3530271.38,"ecefvx":-0.00,"ecefvy":0.00,"ecefvz":-0.01,"ecefpAcc":0.89,"ecefvAcc":0.01,"velN":-0.004,"velE":-0.004,"velD":0.005,"geoidSep":-32.127,"eph":0.451,"sep":20.446}
{"class":"SKY","vdop":0.89,"tdop":0.52,"hdop":0.61,"pdop":1.08,"satellites":[{"PRN":138,"az":160.0,"ss":47.0,"used":false,"gnssid":1,"svid":19},{"PRN":73,"az":176.0,"ss":47.0,"used":true,"gnssid":2,"svid":3},{"PRN":8,"az":62.0,"ss":47.0,"used":true,"gnssid":0,"svid":8},{"PRN":23,"az":150.0,"ss":46.0,"used":true,"gnssid":0,"svid":23},{"PRN":7,"az":36.0,"ss":47.0,"used":true,"gnssid":0,"svid":7},{"PRN":78,"az":234.0,"ss":55.0,"used":true,"gnssid":2,"svid":8},{"PRN":100,"az":286.0,"ss":48.0,"used":true,"gnssid":2,"svid":30},{"PRN":27,"az":38.0,"ss":42.0,"used":true,"gnssid":0,"svid":27},{"PRN":5,"az":288.0,"ss":50.0,"used":true,"gnssid":0,"svid":5},{"PRN":9,"az":160.0,"ss":49.0,"used":true,"gnssid":0,"svid":9},{"PRN":13,"az":320.0,"ss":40.0,"used":true,"gnssid":0,"svid":13},{"PRN":81,"az":52.0,"ss":45.0,"used":true,"gnssid":2,"svid":11},{"PRN":135,"az":206.0,"ss":52.0,"used":false,"gnssid":1,"svid":16},{"PRN":72,"az":18.0,"ss":50.0,"used":true,"gnssid":2,"svid":2},{"PRN":28,"az":252.0,"ss":46.0,"used":true,"gnssid":0,"svid":28},{"PRN":11,"az":120.0,"ss":40.0,"used":true,"gnssid":0,"svid":11},{"PRN":30,"az":332.0,"ss":47.0,"used":true,"gnssid":0,"svid":30},{"PRN":77,"az":304.0,"ss":45.0,"used":true,"gnssid":2,"svid":7},{"PRN":17,"az":190.0,"ss":45.0,"used":true,"gnssid":0,"svid":17},{"PRN":131,"az":178.0,"ss":48.0,"used":false,"gnssid":1,"svid":12}]}
{"class":"TPV","mode":3,"time":"2037-08-01T03:35:00.500Z","ept":0.005,"lat":33.824362424,"lon":-118.146964953,"alt":-13.147,"epv":0.766,"track":340.9262,"speed":0.002,"climb":-0.001,"eps":0.01,"epc":84.70,"ecefx":-2502136.44,"ecefy":-4676854.48,"ecefz":3530271.38,"ecefvx":0.00,"ecefvy":0.00,"ecefvz":0.00,"ecefpAcc":0.89,"ecefvAcc":0.01,"velN":0.002,"velE":-0.001,"velD":0.001,"geoidSep":-32.127,"eph":0.451,"sep":20.446}
{"class":"SKY","vdop":0.89,"tdop":0.52,"hdop":0.61,"pdop":1.08,"satellites":[{"PRN":138,"az":160.0,"ss":47.0,"used":false,"gnssid":1,"svid":19},{"PRN":73,"az":176.0,"ss":47.0,"used":true,"gnssid":2,"svid":3},{"PRN":8,"az":62.0,"ss":47.0,"used":true,"gnssid":0,"svid":8},{"PRN":23,"az":150.0,"ss":46.0,"used":true,"gnssid":0,"svid":23},{"PRN":7,"az":36.0,"ss":47.0,"used":true,"gnssid":0,"svid":7},{"PRN":78,"az":234.0,"ss":55.0,"used":true,"gnssid":2,"svid":8},{"PRN":100,"az":286.0,"ss":48.0,"used":true,"gnssid":2,"svid":30},{"PRN":27,"az":38.0,"ss":42.0,"used":true,"gnssid":0,"svid":27},{"PRN":5,"az":288.0,"ss":50.0,"used":true,"gnssid":0,"svid":5},{"PRN":9,"az":160.0,"ss":49.0,"used":true,"gnssid":0,"svid":9},{"PRN":13,"az":320.0,"ss":40.0,"used":true,"gnssid":0,"svid":13},{"PRN":81,"az":52.0,"ss":45.0,"used":true,"gnssid":2,"svid":11},{"PRN":135,"az":206.0,"ss":52.0,"used":false,"gnssid":1,"svid":16},{"PRN":72,"az":18.0,"ss":50.0,"used":true,"gnssid":2,"svid":2},{"PRN":28,"az":252.0,"ss":46.0,"used":true,"gnssid":0,"svid":28},{"PRN":11,"az":120.0,"ss":40.0,"used":true,"gnssid":0,"svid":11},{"PRN":30,"az":332.0,"ss":48.0,"used":true,"gnssid":0,"svid":30},{"PRN":77,"az":304.0,"ss":45.0,"used":true,"gnssid":2,"svid":7},{"PRN":17,"az":190.0,"ss":45.0,"used":true,"gnssid":0,"svid":17},{"PRN":131,"az":178.0,"ss":48.0,"used":false,"gnssid":1,"svid":12}]}
{"class":"TPV","mode":3,"time":"2037-08-01T03:35:00.750Z","ept":0.005,"lat":33.824362415,"lon":-118.146964959,"alt":-13.143,"epv":0.767,"track":102.4965,"speed":0.001,"climb":0.029,"eps":0.01,"epc":84.70,"ecefx":-2502136.44,"ecefy":-4676854.48,"ecefz":3530271.38,"ecefvx":-0.01,"ecefvy":-0.02,"ecefvz":0.02,"ecefpAcc":0.89,"ecefvAcc":0.01,"velN":-0.000,"velE":0.001,"velD":-0.029,"geoidSep":-32.127,"eph":0.451,"sep":20.446}
{"class":"SKY","vdop":0.89,"tdop":0.52,"hdop":0.61,"pdop":1.08,"satellites":[{"PRN":138,"az":160.0,"ss":47.0,"used":false,"gnssid":1,"svid":19},{"PRN":73,"az":176.0,"ss":47.0,"used":true,"gnssid":2,"svid":3},{"PRN":8,"az":62.0,"ss":47.0,"used":true,"gnssid":0,"svid":8},{"PRN":23,"az":150.0,"ss":46.0,"used":true,"gnssid":0,"svid":23},{"PRN":7,"az":36.0,"ss":47.0,"used":true,"gnssid":0,"svid":7},{"PRN":78,"az":234.0,"ss":55.0,"used":true,"gnssid":2,"svid":8},{"PRN":100,"az":286.0,"ss":48.0,"used":true,"gnssid":2,"svid":30},{"PRN":27,"az":38.0,"ss":42.0,"used":true,"gnssid":0,"svid":27},{"PRN":5,"az":288.0,"ss":50.0,"used":true,"gnssid":0,"svid":5},{"PRN":9,"az":160.0,"ss":49.0,"used":true,"gnssid":0,"svid":9},{"PRN":13,"az":320.0,"ss":40.0,"used":true,"gnssid":0,"svid":13},{"PRN":81,"az":52.0,"ss":45.0,"used":true,"gnssid":2,"svid":11},{"PRN":135,"az":206.0,"ss":52.0,"used":false,"gnssid":1,"svid":16},{"PRN":72,"az":18.0,"ss":49.0,"used":true,"gnssid":2,"svid":2},{"PRN":28,"az":252.0,"ss":46.0,"used":true,"gnssid":0,"svid":28},{"PRN":11,"az":120.0,"ss":40.0,"used":true,"gnssid":0,"svid":11},{"PRN":30,"az":332.0,"ss":47.0,"used":true,"gnssid":0,"svid":30},{"PRN":77,"az":304.0,"ss":45.0,"used":true,"gnssid":2,"svid":7},{"PRN":17,"az":190.0,"ss":45.0,"used":true,"gnssid":0,"svid":17},{"PRN":131,"az":178.0,"ss":48.0,"used":false,"gnssid":1,"svid":12}]}
{"class":"TPV","mode":3,"time":"2037-08-01T03:35:01.000Z","ept":0.005,"lat":33.824362409,"lon":-118.146964952,"alt":-13.145,"epv":0.769,"track":208.0892,"speed":0.003,"climb":0.010,"eps":0.01,"epc":84.70,"ecefx":-2502136.44,"ecefy":-4676854.48,"ecefz":3530271.38,"ecefvx":-0.01,"ecefvy":-0.01,"ecefvz":0.00,"ecefpAcc":0.89,"ecefvAcc":0.01,"velN":-0.003,"velE":-0.001,"velD":-0.010,"geoidSep":-32.127,"eph":0.452,"sep":20.446}
{"class":"SKY","vdop":0.89,"tdop":0.52,"hdop":0.61,"pdop":1.08,"satellites":[{"PRN":138,"az":160.0,"ss":47.0,"used":false,"gnssid":1,"svid":19},{"PRN":73,"az":176.0,"ss":47.0,"used":true,"gnssid":2,"svid":3},{"PRN":8,"az":62.0,"ss":47.0,"used":true,"gnssid":0,"svid":8},{"PRN":23,"az":150.0,"ss":46.0,"used":true,"gnssid":0,"svid":23},{"PRN":7,"az":36.0,"ss":47.0,"used":true,"gnssid":0,"svid":7},{"PRN":78,"az":234.0,"ss":55.0,"used":true,"gnssid":2,"svid":8},{"PRN":100,"az":286.0,"ss":48.0,"used":true,"gnssid":2,"svid":30},{"PRN":27,"az":38.0,"ss":42.0,"used":true,"gnssid":0,"svid":27},{"PRN":5,"az":288.0,"ss":50.0,"used":true,"gnssid":0,"svid":5},{"PRN":9,"az":160.0,"ss":49.0,"used":true,"gnssid":0,"svid":9},{"PRN":13,"az":320.0,"ss":40.0,"used":true,"gnssid":0,"svid":13},{"PRN":81,"az":52.0,"ss":45.0,"used":true,"gnssid":2,"svid":11},{"PRN":135,"az":206.0,"ss":52.0,"used":false,"gnssid":1,"svid":16},{"PRN":72,"az":18.0,"ss":49.0,"used":true,"gnssid":2,"svid":2},{"PRN":28,"az":252.0,"ss":46.0,"used":true,"gnssid":0,"svid":28},{"PRN":11,"az":120.0,"ss":40.0,"used":true,"gnssid":0,"svid":11},{"PRN":30,"az":332.0,"ss":48.0,"used":true,"gnssid":0,"svid":30},{"PRN":77,"az":304.0,"ss":45.0,"used":true,"gnssid":2,"svid":7},{"PRN":17,"az":190.0,"ss":45.0,"used":true,"gnssid":0,"svid":17},{"PRN":131,"az":178.0,"ss":48.0,"used":false,"gnssid":1,"svid":12}]}
{"class":"TPV","mode":3,"time":"2037-08-01T03:35:01.250Z","ept":0.005,"lat":33.824362415,"lon":-118.146964965,"alt":-13.149,"epv":0.769,"track":146.6911,"speed":0.003,"climb":-0.001,"eps":0.01,"epc":84.71,"ecefx":-2502136.44,"ecefy":-4676854.48,"ecefz":3530271.38,"ecefvx":0.00,"ecefvy":-0.00,"ecefvz":-0.00,"ecefpAcc":0.89,"ecefvAcc":0.01,"velN":-0.002,"velE":0.002,"velD":0.001,"geoidSep":-32.127,"eph":0.452,"sep":20.446}
{"class":"SKY","vdop":0.89,"tdop":0.52,"hdop":0.61,"pdop":1.08,"satellites":[{"PRN":138,"az":160.0,"ss":47.0,"used":false,"gnssid":1,"svid":19},{"PRN":73,"az":176.0,"ss":47.0,"used":true,"gnssid":2,"svid":3},{"PRN":8,"az":62.0,"ss":47.0,"used":true,"gnssid":0,"svid":8},{"PRN":23,"az":150.0,"ss":46.0,"used":true,"gnssid":0,"svid":23},{"PRN":7,"az":36.0,"ss":47.0,"used":true,"gnssid":0,"svid":7},{"PRN":78,"az":234.0,"ss":55.0,"used":true,"gnssid":2,"svid":8},{"PRN":100,"az":286.0,"ss":48.0,"used":true,"gnssid":2,"svid":30},{"PRN":27,"az":38.0,"ss":42.0,"used":true,"gnssid":0,"svid":27},{"PRN":5,"az":288.0,"ss":50.0,"used":true,"gnssid":0,"svid":5},{"PRN":9,"az":160.0,"ss":49.0,"used":true,"gnssid":0,"svid":9},{"PRN":13,"az":320.0,"ss":40.0,"used":true,"gnssid":0,"svid":13},{"PRN":81,"az":52.0,"ss":45.0,"used":true,"gnssid":2,"svid":11},{"PRN":135,"az":206.0,"ss":52.0,"used":false,"gnssid":1,"svid":16},{"PRN":72,"az":18.0,"ss":49.0,"used":true,"gnssid":2,"svid":2},{"PRN":28,"az":252.0,"ss":46.0,"used":true,"gnssid":0,"svid":28},{"PRN":11,"az":120.0,"ss":40.0,"used":true,"gnssid":0,"svid":11},{"PRN":30,"az":332.0,"ss":47.0,"used":true,"gnssid":0,"svid":30},{"PRN":77,"az":304.0,"ss":45.0,"used":true,"gnssid":2,"svid":7},{"PRN":17,"az":190.0,"ss":45.0,"used":true,"gnssid":0,"svid":17},{"PRN":131,"az":178.0,"ss":48.0,"used":false,"gnssid":1,"svid":12}]}
{"class":"TPV","mode":3,"time":"2037-08-01T03:35:01.500Z","ept":0.005,"lat":33.824362417,"lon":-118.146964953,"alt":-13.146,"epv":0.768,"track":303.1285,"speed":0.005,"climb":-0.002,"eps":0.00,"epc":84.71,"ecefx":-2502136.44,"ecefy":-4676854.48,"ecefz":3530271.38,"ecefvx":-0.00,"ecefvy":0.00,"ecefvz":0.00,"ecefpAcc":0.89,"ecefvAcc":0.01,"velN":0.002,"velE":-0.004,"velD":0.002,"geoidSep":-32.127,"eph":0.452,"sep":20.447}
{"class":"SKY","vdop":0.89,"tdop":0.52,"hdop":0.61,"pdop":1.08,"satellites":[{"PRN":138,"az":160.0,"ss":47.0,"used":false,"gnssid":1,"svid":19},{"PRN":73,"az":176.0,"ss":47.0,"used":true,"gnssid":2,"svid":3},{"PRN":8,"az":62.0,"ss":47.0,"used":true,"gnssid":0,"svid":8},{"PRN":23,"az":150.0,"ss":46.0,"used":true,"gnssid":0,"svid":23},{"PRN":7,"az":36.0,"ss":47.0,"used":true,"gnssid":0,"svid":7},{"PRN":78,"az":234.0,"ss":55.0,"used":true,"gnssid":2,"svid":8},{"PRN":100,"az":286.0,"ss":48.0,"used":true,"gnssid":2,"svid":30},{"PRN":27,"az":38.0,"ss":42.0,"used":true,"gnssid":0,"svid":27},{"PRN":5,"az":288.0,"ss":50.0,"used":true,"gnssid":0,"svid":5},{"PRN":9,"az":160.0,"ss":49.0,"used":true,"gnssid":0,"svid":9},{"PRN":13,"az":320.0,"ss":40.0,"used":true,"gnssid":0,"svid":13},{"PRN":81,"az":52.0,"ss":45.0,"used":true,"gnssid":2,"svid":11},{"PRN":135,"az":206.0,"ss":52.0,"used":false,"gnssid":1,"svid":16},{"PRN":72,"az":18.0,"ss":49.0,"used":true,"gnssid":2,"svid":2},{"PRN":28,"az":252.0,"ss":46.0,"used":true,"gnssid":0,"svid":28},{"PRN":11,"az":120.0,"ss":40.0,"used":true,"gnssid":0,"svid":11},{"PRN":30,"az":332.0,"ss":47.0,"used":true,"gnssid":0,"svid":30},{"PRN":77,"az":304.0,"ss":45.0,"used":true,"gnssid":2,"svid":7},{"PRN":17,"az":190.0,"ss":46.0,"used":true,"gnssid":0,"svid":17},{"PRN":131,"az":178.0,"ss":48.0,"used":false,"gnssid":1,"svid":12}]}
{"class":"TPV","mode":3,"time":"2037-08-01T03:35:01.750Z","ept":0.005,"lat":33.824362413,"lon":-118.146964955,"alt":-13.146,"epv":0.769,"track":8.4332,"speed":0.004,"climb":-0.009,"eps":0.01,"epc":84.71,"ecefx":-2502136.44,"ecefy":-4676854.48,"ecefz":3530271.38,"ecefvx":0.01,"ecefvy":0.01,"ecefvz":-0.00,"ecefpAcc":0.89,"ecefvAcc":0.01,"velN":0.004,"velE":0.001,"velD":0.009,"geoidSep":-32.127,"eph":0.452,"sep":20.447}
{"class":"SKY","vdop":0.89,"tdop":0.52,"hdop":0.61,"pdop":1.08,"satellites":[{"PRN":138,"az":160.0,"ss":47.0,"used":false,"gnssid":1,"svid":19},{"PRN":73,"az":176.0,"ss":47.0,"used":true,"gnssid":2,"svid":3},{"PRN":8,"az":62.0,"ss":47.0,"used":true,"gnssid":0,"svid":8},{"PRN":23,"az":150.0,"ss":46.0,"used":true,"gnssid":0,"svid":23},{"PRN":7,"az":36.0,"ss":47.0,"used":true,"gnssid":0,"svid":7},{"PRN":78,"az":234.0,"ss":55.0,"used":true,"gnssid":2,"svid":8},{"PRN":100,"az":286.0,"ss":48.0,"used":true,"gnssid":2,"svid":30},{"PRN":27,"az":38.0,"ss":42.0,"used":true,"gnssid":0,"svid":27},{"PRN":5,"az":288.0,"ss":50.0,"used":true,"gnssid":0,"svid":5},{"PRN":9,"az":160.0,"ss":49.0,"used":true,"gnssid":0,"svid":9},{"PRN":13,"az":320.0,"ss":39.0,"used":true,"gnssid":0,"svid":13},{"PRN":81,"az":52.0,"ss":45.0,"used":true,"gnssid":2,"svid":11},{"PRN":135,"az":206.0,"ss":52.0,"used":false,"gnssid":1,"svid":16},{"PRN":72,"az":18.0,"ss":49.0,"used":true,"gnssid":2,"svid":2},{"PRN":28,"az":252.0,"ss":46.0,"used":true,"gnssid":0,"svid":28},{"PRN":11,"az":120.0,"ss":40.0,"used":true,"gnssid":0,"svid":11},{"PRN":30,"az":332.0,"ss":48.0,"used":true,"gnssid":0,"svid":30},{"PRN":77,"az":304.0,"ss":45.0,"used":true,"gnssid":2,"svid":7},{"PRN":17,"az":190.0,"ss":46.0,"used":true,"gnssid":0,"svid":17},{"PRN":131,"az":178.0,"ss":48.0,"used":false,"gnssid":1,"svid":12}]}
{"class":"TPV","mode":3,"time":"2037-08-01T03:35:02.000Z","ept":0.005,"lat":33.824362409,"lon":-118.146964966,"alt":-13.145,"epv":0.769,"track":275.6307,"speed":0.009,"climb":0.007,"eps":0.00,"epc":84.71,"ecefx":-2502136.44,"ecefy":-4676854.48,"ecefz":3530271.38,"ecefvx":-0.01,"ecefvy":-0.00,"ecefvz":0.00,"ecefpAcc":0.89,"ecefvAcc":0.01,"velN":0.001,"velE":-0.009,"velD":-0.007,"geoidSep":-32.127,"eph":0.452,"sep":20.447}
{"class":"SKY","vdop":0.89,"tdop":0.52,"hdop":0.61,"pdop":1.08,"satellites":[{"PRN":138,"az":160.0,"ss":47.0,"used":false,"gnssid":1,"svid":19},{"PRN":73,"az":176.0,"ss":47.0,"used":true,"gnssid":2,"svid":3},{"PRN":8,"az":62.0,"ss":47.0,"used":true,"gnssid":0,"svid":8},{"PRN":23,"az":150.0,"ss":46.0,"used":true,"gnssid":0,"svid":23},{"PRN":7,"az":36.0,"ss":47.0,"used":true,"gnssid":0,"svid":7},{"PRN":78,"az":234.0,"ss":55.0,"used":true,"gnssid":2,"svid":8},{"PRN":100,"az":286.0,"ss":48.0,"used":true,"gnssid":2,"svid":30},{"PRN":27,"az":38.0,"ss":42.0,"used":true,"gnssid":0,"svid":27},{"PRN":5,"az":288.0,"ss":50.0,"used":true,"gnssid":0,"svid":5},{"PRN":9,"az":160.0,"ss":49.0,"used":true,"gnssid":0,"svid":9},{"PRN":13,"az":320.0,"ss":40.0,"used":true,"gnssid":0,"svid":13},{"PRN":81,"az":52.0,"ss":45.0,"used":true,"gnssid":2,"svid":11},{"PRN":135,"az":206.0,"ss":52.0,"used":false,"gnssid":1,"svid":16},{"PRN":72,"az":18.0,"ss":49.0,"used":true,"gnssid":2,"svid":2},{"PRN":28,"az":252.0,"ss":46.0,"used":true,"gnssid":0,"svid":28},{"PRN":11,"az":120.0,"ss":40.0,"used":true,"gnssid":0,"svid":11},{"PRN":30,"az":332.0,"ss":48.0,"used":true,"gnssid":0,"svid":30},{"PRN":77,"az":304.0,"ss":45.0,"used":true,"gnssid":2,"svid":7},{"PRN":17,"az":190.0,"ss":46.0,"used":true,"gnssid":0,"svid":17},{"PRN":131,"az":178.0,"ss":48.0,"used":false,"gnssid":1,"svid":12}]}
{"class":"TPV","mode":3,"time":"2037-08-01T03:35:02.250Z","ept":0.005,"lat":33.824362405,"lon":-118.146964960,"alt":-13.149,"epv":0.769,"track":217.0899,"speed":0.005,"climb":0.004,"eps":0.00,"epc":84.71,"ecefx":-2502136.44,"ecefy":-4676854.48,"ecefz":3530271.38,"ecefvx":-0.01,"ecefvy":-0.00,"ecefvz":-0.00,"ecefpAcc":0.89,"ecefvAcc":0.01,"velN":-0.004,"velE":-0.003,"velD":-0.004,"geoidSep":-32.127,"eph":0.452,"sep":20.447}
{"class":"SKY","vdop":0.89,"tdop":0.52,"hdop":0.61,"pdop":1.08,"satellites":[{"PRN":138,"az":160.0,"ss":47.0,"used":false,"gnssid":1,"svid":19},{"PRN":73,"az":176.0,"ss":47.0,"used":true,"gnssid":2,"svid":3},{"PRN":8,"az":62.0,"ss":47.0,"used":true,"gnssid":0,"svid":8},{"PRN":23,"az":150.0,"ss":46.0,"used":true,"gnssid":0,"svid":23},{"PRN":7,"az":36.0,"ss":47.0,"used":true,"gnssid":0,"svid":7},{"PRN":78,"az":234.0,"ss":55.0,"used":true,"gnssid":2,"svid":8},{"PRN":100,"az":286.0,"ss":48.0,"used":true,"gnssid":2,"svid":30},{"PRN":27,"az":38.0,"ss":42.0,"used":true,"gnssid":0,"svid":27},{"PRN":5,"az":288.0,"ss":50.0,"used":true,"gnssid":0,"svid":5},{"PRN":9,"az":160.0,"ss":48.0,"used":true,"gnssid":0,"svid":9},{"PRN":13,"az":320.0,"ss":39.0,"used":true,"gnssid":0,"svid":13},{"PRN":81,"az":52.0,"ss":45.0,"used":true,"gnssid":2,"svid":11},{"PRN":135,"az":206.0,"ss":52.0,"used":false,"gnssid":1,"svid":16},{"PRN":72,"az":18.0,"ss":49.0,"used":true,"gnssid":2,"svid":2},{"PRN":28,"az":252.0,"ss":46.0,"used":true,"gnssid":0,"svid":28},{"PRN":11,"az":120.0,"ss":40.0,"used":true,"gnssid":0,"svid":11},{"PRN":30,"az":332.0,"ss":48.0,"used":true,"gnssid":0,"svid":30},{"PRN":77,"az":304.0,"ss":45.0,"used":true,"gnssid":2,"svid":7},{"PRN":17,"az":190.0,"ss":46.0,"used":true,"gnssid":0,"svid":17},{"PRN":131,"az":178.0,"ss":48.0,"used":false,"gnssid":1,"svid":12}]}
{"class":"TPV","mode":3,"time":"2037-08-01T03:35:02.500Z","ept":0.005,"lat":33.824362408,"lon":-118.146964945,"alt":-13.150,"epv":0.768,"track":24.9792,"speed":0.002,"climb":0.003,"eps":0.00,"epc":84.71,"ecefx":-2502136.44,"ecefy":-4676854.48,"ecefz":3530271.38,"ecefvx":0.00,"ecefvy":-0.00,"ecefvz":0.00,"ecefpAcc":0.89,"ecefvAcc":0.01,"velN":0.002,"velE":0.001,"velD":-0.003,"geoidSep":-32.127,"eph":0.452,"sep":20.447}
{"class":"SKY","vdop":0.89,"tdop":0.52,"hdop":0.61,"pdop":1.08,"satellites":[{"PRN":138,"az":160.0,"ss":47.0,"used":false,"gnssid":1,"svid":19},{"PRN":73,"az":176.0,"ss":47.0,"used":true,"gnssid":2,"svid":3},{"PRN":8,"az":62.0,"ss":47.0,"used":true,"gnssid":0,"svid":8},{"PRN":23,"az":150.0,"ss":46.0,"used":true,"gnssid":0,"svid":23},{"PRN":7,"az":36.0,"ss":47.0,"used":true,"gnssid":0,"svid":7},{"PRN":78,"az":234.0,"ss":55.0,"used":true,"gnssid":2,"svid":8},{"PRN":100,"az":286.0,"ss":48.0,"used":true,"gnssid":2,"svid":30},{"PRN":27,"az":38.0,"ss":42.0,"used":true,"gnssid":0,"svid":27},{"PRN":5,"az":288.0,"ss":50.0,"used":true,"gnssid":0,"svid":5},{"PRN":9,"az":160.0,"ss":49.0,"used":true,"gnssid":0,"svid":9},{"PRN":13,"az":320.0,"ss":40.0,"used":true,"gnssid":0,"svid":13},{"PRN":81,"az":52.0,"ss":45.0,"used":true,"gnssid":2,"svid":11},{"PRN":135,"az":206.0,"ss":52.0,"used":false,"gnssid":1,"svid":16},{"PRN":72,"az":18.0,"ss":49.0,"used":true,"gnssid":2,"svid":2},{"PRN":28,"az":252.0,"ss":46.0,"used":true,"gnssid":0,"svid":28},{"PRN":11,"az":120.0,"ss":40.0,"used":true,"gnssid":0,"svid":11},{"PRN":30,"az":332.0,"ss":48.0,"used":true,"gnssid":0,"svid":30},{"PRN":77,"az":304.0,"ss":45.0,"used":true,"gnssid":2,"svid":7},{"PRN":17,"az":190.0,"ss":46.0,"used":true,"gnssid":0,"svid":17},{"PRN":131,"az":178.0,"ss":48.0,"used":false,"gnssid":1,"svid":12}]}
{"class":"TPV","mode":3,"time":"2037-08-01T03:35:02.750Z","ept":0.005,"lat":33.824362407,"lon":-118.146964962,"alt":-13.151,"epv":0.768,"track":204.9180,"speed":0.006,"climb":-0.001,"eps":0.00,"epc":84.71,"ecefx":-2502136.44,"ecefy":-4676854.48,"ecefz":3530271.37,"ecefvx":-0.00,"ecefvy":-0.00,"ecefvz":-0.00,"ecefpAcc":0.89,"ecefvAcc":0.01,"velN":-0.005,"velE":-0.003,"velD":0.001,"geoidSep":-32.127,"eph":0.452,"sep":20.447}
{"class":"SKY","vdop":0.89,"tdop":0.52,"hdop":0.61,"pdop":1.08,"satellites":[{"PRN":138,"az":160.0,"ss":47.0,"used":false,"gnssid":1,"svid":19},{"PRN":73,"az":176.0,"ss":47.0,"used":true,"gnssid":2,"svid":3},{"PRN":8,"az":62.0,"ss":47.0,"used":true,"gnssid":0,"svid":8},{"PRN":23,"az":150.0,"ss":46.0,"used":true,"gnssid":0,"svid":23},{"PRN":7,"az":36.0,"ss":47.0,"used":true,"gnssid":0,"svid":7},{"PRN":78,"az":234.0,"ss":55.0,"used":true,"gnssid":2,"svid":8},{"PRN":100,"az":286.0,"ss":48.0,"used":true,"gnssid":2,"svid":30},{"PRN":27,"az":38.0,"ss":42.0,"used":true,"gnssid":0,"svid":27},{"PRN":5,"az":288.0,"ss":50.0,"used":true,"gnssid":0,"svid":5},{"PRN":9,"az":160.0,"ss":49.0,"used":true,"gnssid":0,"svid":9},{"PRN":13,"az":320.0,"ss":40.0,"used":true,"gnssid":0,"svid":13},{"PRN":81,"az":52.0,"ss":45.0,"used":true,"gnssid":2,"svid":11},{"PRN":135,"az":206.0,"ss":52.0,"used":false,"gnssid":1,"svid":16},{"PRN":72,"az":18.0,"ss":49.0,"used":true,"gnssid":2,"svid":2},{"PRN":28,"az":252.0,"ss":46.0,"used":true,"gnssid":0,"svid":28},{"PRN":11,"az":120.0,"ss":40.0,"used":true,"gnssid":0,"svid":11},{"PRN":30,"az":332.0,"ss":48.0,"used":true,"gnssid":0,"svid":30},{"PRN":77,"az":304.0,"ss":45.0,"used":true,"gnssid":2,"svid":7},{"PRN":17,"az":190.0,"ss":46.0,"used":true,"gnssid":0,"svid":17},{"PRN":131,"az":178.0,"ss":48.0,"used":false,"gnssid":1,"svid":12}]}
{"class":"TPV","mode":3,"time":"2037-08-01T03:35:03.000Z","ept":0.005,"lat":33.824362414,"lon":-118.146964973,"alt":-13.150,"epv":0.768,"track":281.1698,"speed":0.009,"climb":0.005,"eps":0.01,"epc":84.71,"ecefx":-2502136.44,"ecefy":-4676854.48,"ecefz":3530271.38,"ecefvx":-0.01,"ecefvy":0.00,"ecefvz":0.00,"ecefpAcc":0.89,"ecefvAcc":0.01,"velN":0.002,"velE":-0.009,"velD":-0.005,"geoidSep":-32.127,"eph":0.452,"sep":20.447}
{"class":"SKY","vdop":0.89,"tdop":0.52,"hdop":0.61,"pdop":1.08,"satellites":[{"PRN":138,"az":160.0,"ss":47.0,"used":false,"gnssid":1,"svid":19},{"PRN":73,"az":176.0,"ss":47.0,"used":true,"gnssid":2,"svid":3},{"PRN":8,"az":62.0,"ss":47.0,"used":true,"gnssid":0,"svid":8},{"PRN":23,"az":150.0,"ss":46.0,"used":true,"gnssid":0,"svid":23},{"PRN":7,"az":36.0,"ss":47.0,"used":true,"gnssid":0,"svid":7},{"PRN":78,"az":234.0,"ss":55.0,"used":true,"gnssid":2,"svid":8},{"PRN":100,"az":286.0,"ss":48.0,"used":true,"gnssid":2,"svid":30},{"PRN":27,"az":38.0,"ss":42.0,"used":true,"gnssid":0,"svid":27},{"PRN":5,"az":288.0,"ss":50.0,"used":true,"gnssid":0,"svid":5},{"PRN":9,"az":160.0,"ss":48.0,"used":true,"gnssid":0,"svid":9},{"PRN":13,"az":320.0,"ss":40.0,"used":true,"gnssid":0,"svid":13},{"PRN":81,"az":52.0,"ss":45.0,"used":true,"gnssid":2,"svid":11},{"PRN":135,"az":206.0,"ss":52.0,"used":false,"gnssid":1,"svid":16},{"PRN":72,"az":18.0,"ss":49.0,"used":true,"gnssid":2,"svid":2},{"PRN":28,"az":252.0,"ss":46.0,"used":true,"gnssid":0,"svid":28},{"PRN":11,"az":120.0,"ss":40.0,"used":true,"gnssid":0,"svid":11},{"PRN":30,"az":332.0,"ss":48.0,"used":true,"gnssid":0,"svid":30},{"PRN":77,"az":304.0,"ss":45.0,"used":true,"gnssid":2,"svid":7},{"PRN":17,"az":190.0,"ss":46.0,"used":true,"gnssid":0,"svid":17},{"PRN":131,"az":178.0,"ss":48.0,"used":false,"gnssid":1,"svid":12}]}
{"class":"TPV","mode":3,"time":"2037-08-01T03:35:03.250Z","ept":0.005,"lat":33.824362418,"lon":-118.146964970,"alt":-13.153,"epv":0.768,"track":64.3733,"speed":0.006,"climb":-0.000,"eps":0.00,"epc":84.71,"ecefx":-2502136.44,"ecefy":-4676854.48,"ecefz":3530271.37,"ecefvx":0.01,"ecefvy":-0.00,"ecefvz":0.00,"ecefpAcc":0.89,"ecefvAcc":0.01,"velN":0.003,"velE":0.005,"velD":0.000,"geoidSep":-32.127,"eph":0.452,"sep":20.447}
{"class":"SKY","vdop":0.89,"tdop":0.52,"hdop":0.61,"pdop":1.08,"satellites":[{"PRN":138,"az":160.0,"ss":47.0,"used":false,"gnssid":1,"svid":19},{"PRN":73,"az":176.0,"ss":47.0,"used":true,"gnssid":2,"svid":3},{"PRN":8,"az":62.0,"ss":47.0,"used":true,"gnssid":0,"svid":8},{"PRN":23,"az":150.0,"ss":46.0,"used":true,"gnssid":0,"svid":23},{"PRN":7,"az":36.0,"ss":47.0,"used":true,"gnssid":0,"svid":7},{"PRN":78,"az":234.0,"ss":55.0,"used":true,"gnssid":2,"svid":8},{"PRN":100,"az":286.0,"ss":48.0,"used":true,"gnssid":2,"svid":30},{"PRN":27,"az":38.0,"ss":42.0,"used":true,"gnssid":0,"svid":27},{"PRN":5,"az":288.0,"ss":50.0,"used":true,"gnssid":0,"svid":5},{"PRN":9,"az":160.0,"ss":49.0,"used":true,"gnssid":0,"svid":9},{"PRN":13,"az":320.0,"ss":40.0,"used":true,"gnssid":0,"svid":13},{"PRN":81,"az":52.0,"ss":45.0,"used":true,"gnssid":2,"svid":11},{"PRN":135,"az":206.0,"ss":52.0,"used":false,"gnssid":1,"svid":16},{"PRN":72,"az":18.0,"ss":49.0,"used":true,"gnssid":2,"svid":2},{"PRN":28,"az":252.0,"ss":46.0,"used":true,"gnssid":0,"svid":28},{"PRN":11,"az":120.0,"ss":41.0,"used":true,"gnssid":0,"svid":11},{"PRN":30,"az":332.0,"ss":48.0,"used":true,"gnssid":0,"svid":30},{"PRN":77,"az":304.0,"ss":45.0,"used":true,"gnssid":2,"svid":7},{"PRN":17,"az":190.0,"ss":46.0,"used":true,"gnssid":0,"svid":17},{"PRN":131,"az":178.0,"ss":48.0,"used":false,"gnssid":1,"svid":12}]}
{"class":"TPV","mode":3,"time":"2037-08-01T03:35:03.500Z","ept":0.005,"lat":33.824362400,"lon":-118.146964956,"alt":-13.150,"epv":0.768,"track":302.5924,"speed":0.009,"climb":-0.006,"eps":0.01,"epc":84.71,"ecefx":-2502136.44,"ecefy":-4676854.48,"ecefz":3530271.37,"ecefvx":-0.00,"ecefvy":0.01,"ecefvz":0.00,"ecefpAcc":0.89,"ecefvAcc":0.01,"velN":0.005,"velE":-0.007,"velD":0.006,"geoidSep":-32.127,"eph":0.452,"sep":20.447}
{"class":"SKY","vdop":0.89,"tdop":0.52,"hdop":0.61,"pdop":1.08,"satellites":[{"PRN":138,"az":160.0,"ss":47.0,"used":false,"gnssid":1,"svid":19},{"PRN":73,"az":176.0,"ss":47.0,"used":true,"gnssid":2,"svid":3},{"PRN":8,"az":62.0,"ss":46.0,"used":true,"gnssid":0,"svid":8},{"PRN":23,"az":150.0,"ss":46.0,"used":true,"gnssid":0,"svid":23},{"PRN":7,"az":36.0,"ss":47.0,"used":true,"gnssid":0,"svid":7},{"PRN":78,"az":234.0,"ss":55.0,"used":true,"gnssid":2,"svid":8},{"PRN":100,"az":286.0,"ss":48.0,"used":true,"gnssid":2,"svid":30},{"PRN":27,"az":38.0,"ss":42.0,"used":true,"gnssid":0,"svid":27},{"PRN":5,"az":288.0,"ss":50.0,"used":true,"gnssid":0,"svid":5},{"PRN":9,"az":160.0,"ss":49.0,"used":true,"gnssid":0,"svid":9},{"PRN":13,"az":320.0,"ss":40.0,"used":true,"gnssid":0,"svid":13},{"PRN":81,"az":52.0,"ss":45.0,"used":true,"gnssid":2,"svid":11},{"PRN":135,"az":206.0,"ss":52.0,"used":false,"gnssid":1,"svid":16},{"PRN":72,"az":18.0,"ss":49.0,"used":true,"gnssid":2,"svid":2},{"PRN":28,"az":252.0,"ss":46.0,"used":true,"gnssid":0,"svid":28},{"PRN":11,"az":120.0,"ss":40.0,"used":true,"gnssid":0,"svid":11},{"PRN":30,"az":332.0,"ss":48.0,"used":true,"gnssid":0,"svid":30},{"PRN":77,"az":304.0,"ss":45.0,"used":true,"gnssid":2,"svid":7},{"PRN":17,"az":190.0,"ss":46.0,"used":true,"gnssid":0,"svid":17},{"PRN":131,"az":178.0,"ss":48.0,"used":false,"gnssid":1,"svid":12}]}
{"class":"TPV","mode":3,"time":"2037-08-01T03:35:03.750Z","ept":0.005,"lat":33.824362393,"lon":-118.146964954,"alt":-13.152,"epv":0.769,"track":228.6357,"speed":0.007,"climb":0.005,"eps":0.01,"epc":84.71,"ecefx":-2502136.44,"ecefy":-4676854.48,"ecefz":3530271.37,"ecefvx":-0.01,"ecefvy":-0.00,"ecefvz":-0.00,"ecefpAcc":0.89,"ecefvAcc":0.01,"velN":-0.005,"velE":-0.005,"velD":-0.005,"geoidSep":-32.127,"eph":0.452,"sep":20.447}
{"class":"SKY","vdop":0.89,"tdop":0.52,"hdop":0.61,"pdop":1.08,"satellites":[{"PRN":138,"az":160.0,"ss":47.0,"used":false,"gnssid":1,"svid":19},{"PRN":73,"az":176.0,"ss":47.0,"used":true,"gnssid":2,"svid":3},{"PRN":8,"az":62.0,"ss":47.0,"used":true,"gnssid":0,"svid":8},{"PRN":23,"az":150.0,"ss":46.0,"used":true,"gnssid":0,"svid":23},{"PRN":7,"az":36.0,"ss":47.0,"used":true,"gnssid":0,"svid":7},{"PRN":78,"az":234.0,"ss":55.0,"used":true,"gnssid":2,"svid":8},{"PRN":100,"az":286.0,"ss":48.0,"used":true,"gnssid":2,"svid":30},{"PRN":27,"az":38.0,"ss":42.0,"used":true,"gnssid":0,"svid":27},{"PRN":5,"az":288.0,"ss":50.0,"used":true,"gnssid":0,"svid":5},{"PRN":9,"az":160.0,"ss":49.0,"used":true,"gnssid":0,"svid":9},{"PRN":13,"az":320.0,"ss":40.0,"used":true,"gnssid":0,"svid":13},{"PRN":81,"az":52.0,"ss":45.0,"used":true,"gnssid":2,"svid":11},{"PRN":135,"az":206.0,"ss":52.0,"used":false,"gnssid":1,"svid":16},{"PRN":72,"az":18.0,"ss":49.0,"used":true,"gnssid":2,"svid":2},{"PRN":28,"az":252.0,"ss":46.0,"used":true,"gnssid":0,"svid":28},{"PRN":11,"az":120.0,"ss":40.0,"used":true,"gnssid":0,"svid":11},{"PRN":30,"az":332.0,"ss":48.0,"used":true,"gnssid":0,"svid":30},{"PRN":77,"az":304.0,"ss":45.0,"used":true,"gnssid":2,"svid":7},{"PRN":17,"az":190.0,"ss":46.0,"used":true,"gnssid":0,"svid":17},{"PRN":131,"az":178.0,"ss":48.0,"used":false,"gnssid":1,"svid":12}]}
{"class":"TPV","mode":3,"time":"2037-08-01T03:35:04.000Z","ept":0.005,"lat":33.824362385,"lon":-118.146964944,"alt":-13.152,"epv":0.769,"track":261.6930,"speed":0.006,"climb":0.012,"eps":0.00,"epc":84.72,"ecefx":-2502136.44,"ecefy":-4676854.48,"ecefz":3530271.37,"ecefvx":-0.01,"ecefvy":-0.01,"ecefvz":0.01,"ecefpAcc":0.89,"ecefvAcc":0.01,"velN":-0.001,"velE":-0.006,"velD":-0.012,"geoidSep":-32.127,"eph":0.452,"sep":20.448}
{"class":"SKY","vdop":0.89,"tdop":0.52,"hdop":0.61,"pdop":1.08,"satellites":[{"PRN":138,"az":160.0,"ss":47.0,"used":false,"gnssid":1,"svid":19},{"PRN":73,"az":176.0,"ss":47.0,"used":true,"gnssid":2,"svid":3},{"PRN":8,"az":62.0,"ss":47.0,"used":true,"gnssid":0,"svid":8},{"PRN":23,"az":150.0,"ss":46.0,"used":true,"gnssid":0,"svid":23},{"PRN":7,"az":36.0,"ss":47.0,"used":true,"gnssid":0,"svid":7},{"PRN":78,"az":234.0,"ss":55.0,"used":true,"gnssid":2,"svid":8},{"PRN":100,"az":286.0,"ss":48.0,"used":true,"gnssid":2,"svid":30},{"PRN":27,"az":38.0,"ss":42.0,"used":true,"gnssid":0,"svid":27},{"PRN":5,"az":288.0,"ss":50.0,"used":true,"gnssid":0,"svid":5},{"PRN":9,"az":160.0,"ss":48.0,"used":true,"gnssid":0,"svid":9},{"PRN":13,"az":320.0,"ss":40.0,"used":true,"gnssid":0,"svid":13},{"PRN":81,"az":52.0,"ss":45.0,"used":true,"gnssid":2,"svid":11},{"PRN":135,"az":206.0,"ss":52.0,"used":false,"gnssid":1,"svid":16},{"PRN":72,"az":18.0,"ss":49.0,"used":true,"gnssid":2,"svid":2},{"PRN":28,"az":252.0,"ss":46.0,"used":true,"gnssid":0,"svid":28},{"PRN":11,"az":120.0,"ss":40.0,"used":true,"gnssid":0,"svid":11},{"PRN":30,"az":332.0,"ss":48.0,"used":true,"gnssid":0,"svid":30},{"PRN":77,"az":304.0,"ss":45.0,"used":true,"gnssid":2,"svid":7},{"PRN":17,"az":190.0,"ss":46.0,"used":true,"gnssid":0,"svid":17},{"PRN":131,"az":178.0,"ss":48.0,"used":false,"gnssid":1,"svid":12}]}
{"class":"TPV","mode":3,"time":"2037-08-01T03:35:04.250Z","ept":0.005,"lat":33.824362378,"lon":-118.146964949,"alt":-13.155,"epv":0.769,"track":120.1242,"speed":0.006,"climb":0.000,"eps":0.01,"epc":84.72,"ecefx":-2502136.44,"ecefy":-4676854.48,"ecefz":3530271.37,"ecefvx":0.00,"ecefvy":-0.00,"ecefvz":-0.00,"ecefpAcc":0.89,"ecefvAcc":0.01,"velN":-0.003,"velE":0.005,"velD":-0.000,"geoidSep":-32.127,"eph":0.452,"sep":20.448}
{"class":"SKY","vdop":0.89,"tdop":0.52,"hdop":0.61,"pdop":1.08,"satellites":[{"PRN":138,"az":160.0,"ss":47.0,"used":false,"gnssid":1,"svid":19},{"PRN":73,"az":176.0,"ss":47.0,"used":true,"gnssid":2,"svid":3},{"PRN":8,"az":62.0,"ss":47.0,"used":true,"gnssid":0,"svid":8},{"PRN":23,"az":150.0,"ss":46.0,"used":true,"gnssid":0,"svid":23},{"PRN":7,"az":36.0,"ss":47.0,"used":true,"gnssid":0,"svid":7},{"PRN":78,"az":234.0,"ss":55.0,"used":true,"gnssid":2,"svid":8},{"PRN":100,"az":286.0,"ss":48.0,"used":true,"gnssid":2,"svid":30},{"PRN":27,"az":38.0,"ss":42.0,"used":true,"gnssid":0,"svid":27},{"PRN":5,"az":288.0,"ss":50.0,"used":true,"gnssid":0,"svid":5},{"PRN":9,"az":160.0,"ss":49.0,"used":true,"gnssid":0,"svid":9},{"PRN":13,"az":320.0,"ss":40.0,"used":true,"gnssid":0,"svid":13},{"PRN":81,"az":52.0,"ss":45.0,"used":true,"gnssid":2,"svid":11},{"PRN":135,"az":206.0,"ss":52.0,"used":false,"gnssid":1,"svid":16},{"PRN":72,"az":18.0,"ss":49.0,"used":true,"gnssid":2,"svid":2},{"PRN":28,"az":252.0,"ss":46.0,"used":true,"gnssid":0,"svid":28},{"PRN":11,"az":120.0,"ss":40.0,"used":true,"gnssid":0,"svid":11},{"PRN":30,"az":332.0,"ss":48.0,"used":true,"gnssid":0,"svid":30},{"PRN":77,"az":304.0,"ss":45.0,"used":true,"gnssid":2,"svid":7},{"PRN":17,"az":190.0,"ss":46.0,"used":true,"gnssid":0,"svid":17},{"PRN":131,"az":178.0,"ss":48.0,"used":false,"gnssid":1,"svid":12}]}
{"class":"TPV","mode":3,"time":"2037-08-01T03:35:04.500Z","ept":0.005,"lat":33.824362373,"lon":-118.146964937,"alt":-13.152,"epv":0.770,"track":268.7549,"speed":0.003,"climb":0.005,"eps":0.01,"epc":84.72,"ecefx":-2502136.44,"ecefy":-4676854.48,"ecefz":3530271.37,"ecefvx":-0.00,"ecefvy":-0.00,"ecefvz":0.00,"ecefpAcc":0.89,"ecefvAcc":0.01,"velN":-0.000,"velE":-0.003,"velD":-0.005,"geoidSep":-32.127,"eph":0.453,"sep":20.448}
{"class":"SKY","vdop":0.89,"tdop":0.52,"hdop":0.61,"pdop":1.08,"satellites":[{"PRN":138,"az":160.0,"ss":47.0,"used":false,"gnssid":1,"svid":19},{"PRN":73,"az":176.0,"ss":47.0,"used":true,"gnssid":2,"svid":3},{"PRN":8,"az":62.0,"ss":47.0,"used":true,"gnssid":0,"svid":8},{"PRN":23,"az":150.0,"ss":46.0,"used":true,"gnssid":0,"svid":23},{"PRN":7,"az":36.0,"ss":47.0,"used":true,"gnssid":0,"svid":7},{"PRN":78,"az":234.0,"ss":55.0,"used":true,"gnssid":2,"svid":8},{"PRN":100,"az":286.0,"ss":48.0,"used":true,"gnssid":2,"svid":30},{"PRN":27,"az":38.0,"ss":42.0,"used":true,"gnssid":0,"svid":27},{"PRN":5,"az":288.0,"ss":50.0,"used":true,"gnssid":0,"svid":5},{"PRN":9,"az":160.0,"ss":49.0,"used":true,"gnssid":0,"svid":9},{"PRN":13,"az":320.0,"ss":40.0,"used":true,"gnssid":0,"svid":13},{"PRN":81,"az":52.0,"ss":45.0,"used":true,"gnssid":2,"svid":11},{"PRN":135,"az":206.0,"ss":52.0,"used":false,"gnssid":1,"svid":16},{"PRN":72,"az":18.0,"ss":49.0,"used":true,"gnssid":2,"svid":2},{"PRN":28,"az":252.0,"ss":46.0,"used":true,"gnssid":0,"svid":28},{"PRN":11,"az":120.0,"ss":40.0,"used":true,"gnssid":0,"svid":11},{"PRN":30,"az":332.0,"ss":48.0,"used":true,"gnssid":0,"svid":30},{"PRN":77,"az":304.0,"ss":45.0,"used":true,"gnssid":2,"svid":7},{"PRN":17,"az":190.0,"ss":45.0,"used":true,"gnssid":0,"svid":17},{"PRN":131,"az":178.0,"ss":48.0,"used":false,"gnssid":1,"svid":12}]}
{"class":"TPV","mode":3,"time":"2037-08-01T03:35:04.750Z","ept":0.005,"lat":33.824362366,"lon":-118.146964912,"alt":-13.152,"epv":0.770,"track":271.8614,"speed":0.002,"climb":-0.011,"eps":0.01,"epc":84.72,"ecefx":-2502136.43,"ecefy":-4676854.48,"ecefz":3530271.37,"ecefvx":0.00,"ecefvy":0.01,"ecefvz":-0.01,"ecefpAcc":0.89,"ecefvAcc":0.01,"velN":0.000,"velE":-0.002,"velD":0.011,"geoidSep":-32.127,"eph":0.453,"sep":20.448}
{"class":"SKY","vdop":0.89,"tdop":0.52,"hdop":0.61,"pdop":1.08,"satellites":[{"PRN":138,"az":160.0,"ss":47.0,"used":false,"gnssid":1,"svid":19},{"PRN":73,"az":176.0,"ss":47.0,"used":true,"gnssid":2,"svid":3},{"PRN":8,"az":62.0,"ss":47.0,"used":true,"gnssid":0,"svid":8},{"PRN":23,"az":150.0,"ss":46.0,"used":true,"gnssid":0,"svid":23},{"PRN":7,"az":36.0,"ss":47.0,"used":true,"gnssid":0,"svid":7},{"PRN":78,"az":234.0,"ss":55.0,"used":true,"gnssid":2,"svid":8},{"PRN":100,"az":286.0,"ss":48.0,"used":true,"gnssid":2,"svid":30},{"PRN":27,"az":38.0,"ss":42.0,"used":true,"gnssid":0,"svid":27},{"PRN":5,"az":288.0,"ss":50.0,"used":true,"gnssid":0,"svid":5},{"PRN":9,"az":160.0,"ss":49.0,"used":true,"gnssid":0,"svid":9},{"PRN":13,"az":320.0,"ss":39.0,"used":true,"gnssid":0,"svid":13},{"PRN":81,"az":52.0,"ss":45.0,"used":true,"gnssid":2,"svid":11},{"PRN":135,"az":206.0,"ss":52.0,"used":false,"gnssid":1,"svid":16},{"PRN":72,"az":18.0,"ss":49.0,"used":true,"gnssid":2,"svid":2},{"PRN":28,"az":252.0,"ss":46.0,"used":true,"gnssid":0,"svid":28},{"PRN":11,"az":120.0,"ss":40.0,"used":true,"gnssid":0,"svid":11},{"PRN":30,"az":332.0,"ss":48.0,"used":true,"gnssid":0,"svid":30},{"PRN":77,"az":304.0,"ss":45.0,"used":true,"gnssid":2,"svid":7},{"PRN":17,"az":190.0,"ss":45.0,"used":true,"gnssid":0,"svid":17},{"PRN":131,"az":178.0,"ss":48.0,"used":false,"gnssid":1,"svid":12}]}
{"class":"TPV","mode":3,"time":"2037-08-01T03:35:05.000Z","ept":0.005,"lat":33.824362366,"lon":-118.146964919,"alt":-13.153,"epv":0.769,"track":183.0000,"speed":0.003,"climb":-0.006,"eps":0.01,"epc":84.72,"ecefx":-2502136.43,"ecefy":-4676854.48,"ecefz":3530271.37,"ecefvx":0.00,"ecefvy":0.00,"ecefvz":-0.01,"ecefpAcc":0.89,"ecefvAcc":0.01,"velN":-0.003,"velE":-0.000,"velD":0.006,"geoidSep":-32.127,"eph":0.452,"sep":20.448}
{"class":"SKY","vdop":0.89,"tdop":0.52,"hdop":0.61,"pdop":1.08,"satellites":[{"PRN":138,"az":160.0,"ss":47.0,"used":false,"gnssid":1,"svid":19},{"PRN":73,"az":176.0,"ss":47.0,"used":true,"gnssid":2,"svid":3},{"PRN":8,"az":62.0,"ss":47.0,"used":true,"gnssid":0,"svid":8},{"PRN":23,"az":150.0,"ss":46.0,"used":true,"gnssid":0,"svid":23},{"PRN":7,"az":36.0,"ss":47.0,"used":true,"gnssid":0,"svid":7},{"PRN":78,"az":234.0,"ss":55.0,"used":true,"gnssid":2,"svid":8},{"PRN":100,"az":286.0,"ss":48.0,"used":true,"gnssid":2,"svid":30},{"PRN":27,"az":38.0,"ss":42.0,"used":true,"gnssid":0,"svid":27},{"PRN":5,"az":288.0,"ss":50.0,"used":true,"gnssid":0,"svid":5},{"PRN":9,"az":160.0,"ss":49.0,"used":true,"gnssid":0,"svid":9},{"PRN":13,"az":320.0,"ss":40.0,"used":true,"gnssid":0,"svid":13},{"PRN":81,"az":52.0,"ss":45.0,"used":true,"gnssid":2,"svid":11},{"PRN":135,"az":206.0,"ss":52.0,"used":false,"gnssid":1,"svid":16},{"PRN":72,"az":18.0,"ss":50.0,"used":true,"gnssid":2,"svid":2},{"PRN":28,"az":252.0,"ss":46.0,"used":true,"gnssid":0,"svid":28},{"PRN":11,"az":120.0,"ss":40.0,"used":true,"gnssid":0,"svid":11},{"PRN":30,"az":332.0,"ss":48.0,"used":true,"gnssid":0,"svid":30},{"PRN":77,"az":304.0,"ss":45.0,"used":true,"gnssid":2,"svid":7},{"PRN":17,"az":190.0,"ss":45.0,"used":true,"gnssid":0,"svid":17},{"PRN":131,"az":178.0,"ss":48.0,"used":false,"gnssid":1,"svid":12}]}
{"class":"TPV","mode":3,"time":"2037-08-01T03:35:05.250Z","ept":0.005,"lat":33.824362365,"lon":-118.146964915,"alt":-13.151,"epv":0.770,"track":47.3081,"speed":0.010,"climb":-0.009,"eps":0.01,"epc":84.72,"ecefx":-2502136.44,"ecefy":-4676854.48,"ecefz":3530271.37,"ecefvx":0.01,"ecefvy":0.01,"ecefvz":0.00,"ecefpAcc":0.89,"ecefvAcc":0.01,"velN":0.007,"velE":0.007,"velD":0.009,"geoidSep":-32.127,"eph":0.453,"sep":20.448}
{"class":"SKY","vdop":0.89,"tdop":0.52,"hdop":0.61,"pdop":1.08,"satellites":[{"PRN":138,"az":160.0,"ss":47.0,"used":false,"gnssid":1,"svid":19},{"PRN":73,"az":176.0,"ss":47.0,"used":true,"gnssid":2,"svid":3},{"PRN":8,"az":62.0,"ss":47.0,"used":true,"gnssid":0,"svid":8},{"PRN":23,"az":150.0,"ss":46.0,"used":true,"gnssid":0,"svid":23},{"PRN":7,"az":36.0,"ss":47.0,"used":true,"gnssid":0,"svid":7},{"PRN":78,"az":234.0,"ss":55.0,"used":true,"gnssid":2,"svid":8},{"PRN":100,"az":286.0,"ss":48.0,"used":true,"gnssid":2,"svid":30},{"PRN":27,"az":38.0,"ss":42.0,"used":true,"gnssid":0,"svid":27},{"PRN":5,"az":288.0,"ss":50.0,"used":true,"gnssid":0,"svid":5},{"PRN":9,"az":160.0,"ss":49.0,"used":true,"gnssid":0,"svid":9},{"PRN":13,"az":320.0,"ss":40.0,"used":true,"gnssid":0,"svid":13},{"PRN":81,"az":52.0,"ss":45.0,"used":true,"gnssid":2,"svid":11},{"PRN":135,"az":206.0,"ss":52.0,"used":false,"gnssid":1,"svid":16},{"PRN":72,"az":18.0,"ss":49.0,"used":true,"gnssid":2,"svid":2},{"PRN":28,"az":252.0,"ss":46.0,"used":true,"gnssid":0,"svid":28},{"PRN":11,"az":120.0,"ss":40.0,"used":true,"gnssid":0,"svid":11},{"PRN":30,"az":332.0,"ss":48.0,"used":true,"gnssid":0,"svid":30},{"PRN":77,"az":304.0,"ss":45.0,"used":true,"gnssid":2,"svid":7},{"PRN":17,"az":190.0,"ss":45.0,"used":true,"gnssid":0,"svid":17},{"PRN":131,"az":178.0,"ss":48.0,"used":false,"gnssid":1,"svid":12}]}
{"class":"TPV","mode":3,"time":"2037-08-01T03:35:05.500Z","ept":0.005,"lat":33.824362376,"lon":-118.146964933,"alt":-13.153,"epv":0.770,"track":262.2943,"speed":0.011,"climb":0.012,"eps":0.01,"epc":84.73,"ecefx":-2502136.44,"ecefy":-4676854.48,"ecefz":3530271.37,"ecefvx":-0.01,"ecefvy":-0.00,"ecefvz":0.01,"ecefpAcc":0.89,"ecefvAcc":0.01,"velN":-0.001,"velE":-0.011,"velD":-0.012,"geoidSep":-32.127,"eph":0.453,"sep":20.448}
{"class":"SKY","vdop":0.89,"tdop":0.52,"hdop":0.61,"pdop":1.08,"satellites":[{"PRN":138,"az":160.0,"ss":47.0,"used":false,"gnssid":1,"svid":19},{"PRN":73,"az":176.0,"ss":47.0,"used":true,"gnssid":2,"svid":3},{"PRN":8,"az":62.0,"ss":47.0,"used":true,"gnssid":0,"svid":8},{"PRN":23,"az":150.0,"ss":46.0,"used":true,"gnssid":0,"svid":23},{"PRN":7,"az":36.0,"ss":47.0,"used":true,"gnssid":0,"svid":7},{"PRN":78,"az":234.0,"ss":55.0,"used":true,"gnssid":2,"svid":8},{"PRN":100,"az":286.0,"ss":48.0,"used":true,"gnssid":2,"svid":30},{"PRN":27,"az":38.0,"ss":42.0,"used":true,"gnssid":0,"svid":27},{"PRN":5,"az":288.0,"ss":50.0,"used":true,"gnssid":0,"svid":5},{"PRN":9,"az":160.0,"ss":49.0,"used":true,"gnssid":0,"svid":9},{"PRN":13,"az":320.0,"ss":40.0,"used":true,"gnssid":0,"svid":13},{"PRN":81,"az":52.0,"ss":45.0,"used":true,"gnssid":2,"svid":11},{"PRN":135,"az":206.0,"ss":52.0,"used":false,"gnssid":1,"svid":16},{"PRN":72,"az":18.0,"ss":49.0,"used":true,"gnssid":2,"svid":2},{"PRN":28,"az":252.0,"ss":46.0,"used":true,"gnssid":0,"svid":28},{"PRN":11,"az":120.0,"ss":40.0,"used":true,"gnssid":0,"svid":11},{"PRN":30,"az":332.0,"ss":48.0,"used":true,"gnssid":0,"svid":30},{"PRN":77,"az":304.0,"ss":45.0,"used":true,"gnssid":2,"svid":7},{"PRN":17,"az":190.0,"ss":45.0,"used":true,"gnssid":0,"svid":17},{"PRN":131,"az":178.0,"ss":47.0,"used":false,"gnssid":1,"svid":12}]}
{"class":"TPV","mode":3,"time":"2037-08-01T03:35:05.750Z","ept":0.005,"lat":33.824362378,"lon":-118.146964898,"alt":-13.154,"epv":0.770,"track":52.9844,"speed":0.004,"climb":0.008,"eps":0.01,"epc":84.73,"ecefx":-2502136.43,"ecefy":-4676854.48,"ecefz":3530271.37,"ecefvx":0.00,"ecefvy":-0.01,"ecefvz":0.01,"ecefpAcc":0.89,"ecefvAcc":0.01,"velN":0.003,"velE":0.003,"velD":-0.008,"geoidSep":-32.127,"eph":0.452,"sep":20.448}
{"class":"SKY","vdop":0.89,"tdop":0.52,"hdop":0.61,"pdop":1.08,"satellites":[{"PRN":138,"az":160.0,"ss":47.0,"used":false,"gnssid":1,"svid":19},{"PRN":73,"az":176.0,"ss":47.0,"used":true,"gnssid":2,"svid":3},{"PRN":8,"az":62.0,"ss":47.0,"used":true,"gnssid":0,"svid":8},{"PRN":23,"az":150.0,"ss":46.0,"used":true,"gnssid":0,"svid":23},{"PRN":7,"az":36.0,"ss":47.0,"used":true,"gnssid":0,"svid":7},{"PRN":78,"az":234.0,"ss":55.0,"used":true,"gnssid":2,"svid":8},{"PRN":100,"az":286.0,"ss":48.0,"used":true,"gnssid":2,"svid":30},{"PRN":27,"az":38.0,"ss":42.0,"used":true,"gnssid":0,"svid":27},{"PRN":5,"az":288.0,"ss":50.0,"used":true,"gnssid":0,"svid":5},{"PRN":9,"az":160.0,"ss":49.0,"used":true,"gnssid":0,"svid":9},{"PRN":13,"az":320.0,"ss":40.0,"used":true,"gnssid":0,"svid":13},{"PRN":81,"az":52.0,"ss":45.0,"used":true,"gnssid":2,"svid":11},{"PRN":135,"az":206.0,"ss":52.0,"used":false,"gnssid":1,"svid":16},{"PRN":72,"az":18.0,"ss":49.0,"used":true,"gnssid":2,"svid":2},{"PRN":28,"az":252.0,"ss":46.0,"used":true,"gnssid":0,"svid":28},{"PRN":11,"az":120.0,"ss":40.0,"used":true,"gnssid":0,"svid":11},{"PRN":30,"az":332.0,"ss":48.0,"used":true,"gnssid":0,"svid":30},{"PRN":77,"az":304.0,"ss":45.0,"used":true,"gnssid":2,"svid":7},{"PRN":17,"az":190.0,"ss":45.0,"used":true,"gnssid":0,"svid":17},{"PRN":131,"az":178.0,"ss":47.0,"used":false,"gnssid":1,"svid":12}]}
{"class":"TPV","mode":3,"time":"2037-08-01T03:35:06.000Z","ept":0.005,"lat":33.824362378,"lon":-118.146964887,"alt":-13.153,"epv":0.770,"track":68.5289,"speed":0.014,"climb":-0.017,"eps":0.01,"epc":84.73,"ecefx":-2502136.43,"ecefy":-4676854.48,"ecefz":3530271.37,"ecefvx":0.02,"ecefvy":0.01,"ecefvz":-0.01,"ecefpAcc":0.89,"ecefvAcc":0.01,"velN":0.005,"velE":0.013,"velD":0.017,"geoidSep":-32.127,"eph":0.453,"sep":20.448}
{"class":"SKY","vdop":0.89,"tdop":0.52,"hdop":0.61,"pdop":1.08,"satellites":[{"PRN":138,"az":160.0,"ss":47.0,"used":false,"gnssid":1,"svid":19},{"PRN":73,"az":176.0,"ss":47.0,"used":true,"gnssid":2,"svid":3},{"PRN":8,"az":62.0,"ss":47.0,"used":true,"gnssid":0,"svid":8},{"PRN":23,"az":150.0,"ss":46.0,"used":true,"gnssid":0,"svid":23},{"PRN":7,"az":36.0,"ss":47.0,"used":true,"gnssid":0,"svid":7},{"PRN":78,"az":234.0,"ss":55.0,"used":true,"gnssid":2,"svid":8},{"PRN":100,"az":286.0,"ss":48.0,"used":true,"gnssid":2,"svid":30},{"PRN":27,"az":38.0,"ss":42.0,"used":true,"gnssid":0,"svid":27},{"PRN":5,"az":288.0,"ss":50.0,"used":true,"gnssid":0,"svid":5},{"PRN":9,"az":160.0,"ss":49.0,"used":true,"gnssid":0,"svid":9},{"PRN":13,"az":320.0,"ss":40.0,"used":true,"gnssid":0,"svid":13},{"PRN":81,"az":52.0,"ss":45.0,"used":true,"gnssid":2,"svid":11},{"PRN":135,"az":206.0,"ss":52.0,"used":false,"gnssid":1,"svid":16},{"PRN":72,"az":18.0,"ss":49.0,"used":true,"gnssid":2,"svid":2},{"PRN":28,"az":252.0,"ss":46.0,"used":true,"gnssid":0,"svid":28},{"PRN":11,"az":120.0,"ss":40.0,"used":true,"gnssid":0,"svid":11},{"PRN":30,"az":332.0,"ss":48.0,"used":true,"gnssid":0,"svid":30},{"PRN":77,"az":304.0,"ss":45.0,"used":true,"gnssid":2,"svid":7},{"PRN":17,"az":190.0,"ss":45.0,"used":true,"gnssid":0,"svid":17},{"PRN":131,"az":178.0,"ss":47.0,"used":false,"gnssid":1,"svid":12}]}
{"class":"TPV","mode":3,"time":"2037-08-01T03:35:06.250Z","ept":0.005,"lat":33.824362377,"lon":-118.146964924,"alt":-13.152,"epv":0.771,"track":222.7918,"speed":0.006,"climb":0.004,"eps":0.01,"epc":84.73,"ecefx":-2502136.44,"ecefy":-4676854.48,"ecefz":3530271.37,"ecefvx":-0.01,"ecefvy":-0.00,"ecefvz":-0.00,"ecefpAcc":0.89,"ecefvAcc":0.01,"velN":-0.005,"velE":-0.004,"velD":-0.004,"geoidSep":-32.127,"eph":0.453,"sep":20.448}
{"class":"SKY","vdop":0.89,"tdop":0.52,"hdop":0.61,"pdop":1.08,"satellites":[{"PRN":138,"az":160.0,"ss":47.0,"used":false,"gnssid":1,"svid":19},{"PRN":73,"az":176.0,"ss":47.0,"used":true,"gnssid":2,"svid":3},{"PRN":8,"az":62.0,"ss":47.0,"used":true,"gnssid":0,"svid":8},{"PRN":23,"az":150.0,"ss":46.0,"used":true,"gnssid":0,"svid":23},{"PRN":7,"az":36.0,"ss":47.0,"used":true,"gnssid":0,"svid":7},{"PRN":78,"az":234.0,"ss":55.0,"used":true,"gnssid":2,"svid":8},{"PRN":100,"az":286.0,"ss":48.0,"used":true,"gnssid":2,"svid":30},{"PRN":27,"az":38.0,"ss":42.0,"used":true,"gnssid":0,"svid":27},{"PRN":5,"az":288.0,"ss":50.0,"used":true,"gnssid":0,"svid":5},{"PRN":9,"az":160.0,"ss":49.0,"used":true,"gnssid":0,"svid":9},{"PRN":13,"az":320.0,"ss":40.0,"used":true,"gnssid":0,"svid":13},{"PRN":81,"az":52.0,"ss":45.0,"used":true,"gnssid":2,"svid":11},{"PRN":135,"az":206.0,"ss":52.0,"used":false,"gnssid":1,"svid":16},{"PRN":72,"az":18.0,"ss":49.0,"used":true,"gnssid":2,"svid":2},{"PRN":28,"az":252.0,"ss":46.0,"used":true,"gnssid":0,"svid":28},{"PRN":11,"az":120.0,"ss":40.0,"used":true,"gnssid":0,"svid":11},{"PRN":30,"az":332.0,"ss":48.0,"used":true,"gnssid":0,"svid":30},{"PRN":77,"az":304.0,"ss":45.0,"used":true,"gnssid":2,"svid":7},{"PRN":17,"az":190.0,"ss":45.0,"used":true,"gnssid":0,"svid":17},{"PRN":131,"az":178.0,"ss":47.0,"used":false,"gnssid":1,"svid":12}]}
{"class":"TPV","mode":3,"time":"2037-08-01T03:35:06.500Z","ept":0.005,"lat":33.824362379,"lon":-118.146964925,"alt":-13.152,"epv":0.771,"track":219.9662,"speed":0.006,"climb":0.013,"eps":0.01,"epc":84.73,"ecefx":-2502136.44,"ecefy":-4676854.48,"ecefz":3530271.37,"ecefvx":-0.01,"ecefvy":-0.01,"ecefvz":0.00,"ecefpAcc":0.89,"ecefvAcc":0.01,"velN":-0.005,"velE":-0.004,"velD":-0.013,"geoidSep":-32.127,"eph":0.453,"sep":20.449}
{"class":"SKY","vdop":0.89,"tdop":0.52,"hdop":0.61,"pdop":1.08,"satellites":[{"PRN":138,"az":160.0,"ss":47.0,"used":false,"gnssid":1,"svid":19},{"PRN":73,"az":176.0,"ss":47.0,"used":true,"gnssid":2,"svid":3},{"PRN":8,"az":62.0,"ss":47.0,"used":true,"gnssid":0,"svid":8},{"PRN":23,"az":150.0,"ss":46.0,"used":true,"gnssid":0,"svid":23},{"PRN":7,"az":36.0,"ss":47.0,"used":true,"gnssid":0,"svid":7},{"PRN":78,"az":234.0,"ss":55.0,"used":true,"gnssid":2,"svid":8},{"PRN":100,"az":286.0,"ss":48.0,"used":true,"gnssid":2,"svid":30},{"PRN":27,"az":38.0,"ss":42.0,"used":true,"gnssid":0,"svid":27},{"PRN":5,"az":288.0,"ss":50.0,"used":true,"gnssid":0,"svid":5},{"PRN":9,"az":160.0,"ss":49.0,"used":true,"gnssid":0,"svid":9},{"PRN":13,"az":320.0,"ss":40.0,"used":true,"gnssid":0,"svid":13},{"PRN":81,"az":52.0,"ss":45.0,"used":true,"gnssid":2,"svid":11},{"PRN":135,"az":206.0,"ss":52.0,"used":false,"gnssid":1,"svid":16},{"PRN":72,"az":18.0,"ss":49.0,"used":true,"gnssid":2,"svid":2},{"PRN":28,"az":252.0,"ss":46.0,"used":true,"gnssid":0,"svid":28},{"PRN":11,"az":120.0,"ss":40.0,"used":true,"gnssid":0,"svid":11},{"PRN":30,"az":332.0,"ss":48.0,"used":true,"gnssid":0,"svid":30},{"PRN":77,"az":304.0,"ss":45.0,"used":true,"gnssid":2,"svid":7},{"PRN":17,"az":190.0,"ss":45.0,"used":true,"gnssid":0,"svid":17},{"PRN":131,"az":178.0,"ss":47.0,"used":false,"gnssid":1,"svid":12}]}
{"class":"TPV","mode":3,"time":"2037-08-01T03:35:06.750Z","ept":0.005,"lat":33.824362386,"lon":-118.146964934,"alt":-13.153,"epv":0.769,"track":321.6895,"speed":0.002,"climb":-0.006,"eps":0.01,"epc":84.73,"ecefx":-2502136.44,"ecefy":-4676854.48,"ecefz":3530271.37,"ecefvx":0.00,"ecefvy":0.01,"ecefvz":-0.00,"ecefpAcc":0.89,"ecefvAcc":0.01,"velN":0.002,"velE":-0.001,"velD":0.006,"geoidSep":-32.127,"eph":0.452,"sep":20.449}
{"class":"SKY","vdop":0.89,"tdop":0.52,"hdop":0.61,"pdop":1.08,"satellites":[{"PRN":138,"az":160.0,"ss":47.0,"used":false,"gnssid":1,"svid":19},{"PRN":73,"az":176.0,"ss":47.0,"used":true,"gnssid":2,"svid":3},{"PRN":8,"az":62.0,"ss":47.0,"used":true,"gnssid":0,"svid":8},{"PRN":23,"az":150.0,"ss":46.0,"used":true,"gnssid":0,"svid":23},{"PRN":7,"az":36.0,"ss":46.0,"used":true,"gnssid":0,"svid":7},{"PRN":78,"az":234.0,"ss":55.0,"used":true,"gnssid":2,"svid":8},{"PRN":100,"az":286.0,"ss":48.0,"used":true,"gnssid":2,"svid":30},{"PRN":27,"az":38.0,"ss":42.0,"used":true,"gnssid":0,"svid":27},{"PRN":5,"az":288.0,"ss":50.0,"used":true,"gnssid":0,"svid":5},{"PRN":9,"az":160.0,"ss":49.0,"used":true,"gnssid":0,"svid":9},{"PRN":13,"az":320.0,"ss":40.0,"used":true,"gnssid":0,"svid":13},{"PRN":81,"az":52.0,"ss":45.0,"used":true,"gnssid":2,"svid":11},{"PRN":135,"az":206.0,"ss":52.0,"used":false,"gnssid":1,"svid":16},{"PRN":72,"az":18.0,"ss":49.0,"used":true,"gnssid":2,"svid":2},{"PRN":28,"az":252.0,"ss":46.0,"used":true,"gnssid":0,"svid":28},{"PRN":11,"az":120.0,"ss":40.0,"used":true,"gnssid":0,"svid":11},{"PRN":30,"az":332.0,"ss":48.0,"used":true,"gnssid":0,"svid":30},{"PRN":77,"az":304.0,"ss":45.0,"used":true,"gnssid":2,"svid":7},{"PRN":17,"az":190.0,"ss":45.0,"used":true,"gnssid":0,"svid":17},{"PRN":131,"az":178.0,"ss":47.0,"used":false,"gnssid":1,"svid":12}]}
{"class":"TPV","mode":3,"time":"2037-08-01T03:35:07.000Z","ept":0.005,"lat":33.824362400,"lon":-118.146964929,"alt":-13.152,"epv":0.770,"track":50.2613,"speed":0.006,"climb":-0.001,"eps":0.01,"epc":84.73,"ecefx":-2502136.43,"ecefy":-4676854.48,"ecefz":3530271.37,"ecefvx":0.01,"ecefvy":0.00,"ecefvz":0.00,"ecefpAcc":0.89,"ecefvAcc":0.01,"velN":0.004,"velE":0.004,"velD":0.001,"geoidSep":-32.127,"eph":0.453,"sep":20.449}
{"class":"SKY","vdop":0.89,"tdop":0.52,"hdop":0.61,"pdop":1.08,"satellites":[{"PRN":138,"az":160.0,"ss":47.0,"used":false,"gnssid":1,"svid":19},{"PRN":73,"az":176.0,"ss":47.0,"used":true,"gnssid":2,"svid":3},{"PRN":8,"az":62.0,"ss":47.0,"used":true,"gnssid":0,"svid":8},{"PRN":23,"az":150.0,"ss":46.0,"used":true,"gnssid":0,"svid":23},{"PRN":7,"az":36.0,"ss":47.0,"used":true,"gnssid":0,"svid":7},{"PRN":78,"az":234.0,"ss":55.0,"used":true,"gnssid":2,"svid":8},{"PRN":100,"az":286.0,"ss":48.0,"used":true,"gnssid":2,"svid":30},{"PRN":27,"az":38.0,"ss":42.0,"used":true,"gnssid":0,"svid":27},{"PRN":5,"az":288.0,"ss":50.0,"used":true,"gnssid":0,"svid":5},{"PRN":9,"az":160.0,"ss":49.0,"used":true,"gnssid":0,"svid":9},{"PRN":13,"az":320.0,"ss":40.0,"used":true,"gnssid":0,"svid":13},{"PRN":81,"az":52.0,"ss":45.0,"used":true,"gnssid":2,"svid":11},{"PRN":135,"az":206.0,"ss":52.0,"used":false,"gnssid":1,"svid":16},{"PRN":72,"az":18.0,"ss":49.0,"used":true,"gnssid":2,"svid":2},{"PRN":28,"az":252.0,"ss":46.0,"used":true,"gnssid":0,"svid":28},{"PRN":11,"az":120.0,"ss":40.0,"used":true,"gnssid":0,"svid":11},{"PRN":30,"az":332.0,"ss":48.0,"used":true,"gnssid":0,"svid":30},{"PRN":77,"az":304.0,"ss":45.0,"used":true,"gnssid":2,"svid":7},{"PRN":17,"az":190.0,"ss":45.0,"used":true,"gnssid":0,"svid":17},{"PRN":131,"az":178.0,"ss":47.0,"used":false,"gnssid":1,"svid":12}]}
{"class":"TPV","mode":3,"time":"2037-08-01T03:35:07.250Z","ept":0.005,"lat":33.824362400,"lon":-118.146964946,"alt":-13.151,"epv":0.771,"track":213.3380,"speed":0.007,"climb":0.014,"eps":0.01,"epc":84.73,"ecefx":-2502136.44,"ecefy":-4676854.48,"ecefz":3530271.37,"ecefvx":-0.01,"ecefvy":-0.01,"ecefvz":0.00,"ecefpAcc":0.89,"ecefvAcc":0.01,"velN":-0.006,"velE":-0.004,"velD":-0.014,"geoidSep":-32.127,"eph":0.453,"sep":20.449}
{"class":"SKY","vdop":0.89,"tdop":0.52,"hdop":0.61,"pdop":1.08,"satellites":[{"PRN":138,"az":160.0,"ss":47.0,"used":false,"gnssid":1,"svid":19},{"PRN":73,"az":176.0,"ss":47.0,"used":true,"gnssid":2,"svid":3},{"PRN":8,"az":62.0,"ss":47.0,"used":true,"gnssid":0,"svid":8},{"PRN":23,"az":150.0,"ss":46.0,"used":true,"gnssid":0,"svid":23},{"PRN":7,"az":36.0,"ss":47.0,"used":true,"gnssid":0,"svid":7},{"PRN":78,"az":234.0,"ss":55.0,"used":true,"gnssid":2,"svid":8},{"PRN":100,"az":286.0,"ss":48.0,"used":true,"gnssid":2,"svid":30},{"PRN":27,"az":38.0,"ss":42.0,"used":true,"gnssid":0,"svid":27},{"PRN":5,"az":288.0,"ss":50.0,"used":true,"gnssid":0,"svid":5},{"PRN":9,"az":160.0,"ss":49.0,"used":true,"gnssid":0,"svid":9},{"PRN":13,"az":320.0,"ss":40.0,"used":true,"gnssid":0,"svid":13},{"PRN":81,"az":52.0,"ss":45.0,"used":true,"gnssid":2,"svid":11},{"PRN":135,"az":206.0,"ss":52.0,"used":false,"gnssid":1,"svid":16},{"PRN":72,"az":18.0,"ss":49.0,"used":true,"gnssid":2,"svid":2},{"PRN":28,"az":252.0,"ss":46.0,"used":true,"gnssid":0,"svid":28},{"PRN":11,"az":120.0,"ss":40.0,"used":true,"gnssid":0,"svid":11},{"PRN":30,"az":332.0,"ss":48.0,"used":true,"gnssid":0,"svid":30},{"PRN":77,"az":304.0,"ss":45.0,"used":true,"gnssid":2,"svid":7},{"PRN":17,"az":190.0,"ss":45.0,"used":true,"gnssid":0,"svid":17},{"PRN":131,"az":178.0,"ss":47.0,"used":false,"gnssid":1,"svid":12}]}
{"class":"TPV","mode":3,"time":"2037-08-01T03:35:07.500Z","ept":0.005,"lat":33.824362398,"lon":-118.146964950,"alt":-13.153,"epv":0.771,"track":331.4661,"speed":0.006,"climb":0.003,"eps":0.01,"epc":84.73,"ecefx":-2502136.44,"ecefy":-4676854.48,"ecefz":3530271.37,"ecefvx":-0.00,"ecefvy":0.00,"ecefvz":0.01,"ecefpAcc":0.89,"ecefvAcc":0.01,"velN":0.005,"velE":-0.003,"velD":-0.003,"geoidSep":-32.127,"eph":0.453,"sep":20.449}
{"class":"SKY","vdop":0.89,"tdop":0.52,"hdop":0.61,"pdop":1.08,"satellites":[{"PRN":138,"az":160.0,"ss":47.0,"used":false,"gnssid":1,"svid":19},{"PRN":73,"az":176.0,"ss":47.0,"used":true,"gnssid":2,"svid":3},{"PRN":8,"az":62.0,"ss":47.0,"used":true,"gnssid":0,"svid":8},{"PRN":23,"az":150.0,"ss":45.0,"used":true,"gnssid":0,"svid":23},{"PRN":7,"az":36.0,"ss":47.0,"used":true,"gnssid":0,"svid":7},{"PRN":78,"az":234.0,"ss":55.0,"used":true,"gnssid":2,"svid":8},{"PRN":100,"az":286.0,"ss":48.0,"used":true,"gnssid":2,"svid":30},{"PRN":27,"az":38.0,"ss":42.0,"used":true,"gnssid":0,"svid":27},{"PRN":5,"az":288.0,"ss":50.0,"used":true,"gnssid":0,"svid":5},{"PRN":9,"az":160.0,"ss":48.0,"used":true,"gnssid":0,"svid":9},{"PRN":13,"az":320.0,"ss":40.0,"used":true,"gnssid":0,"svid":13},{"PRN":81,"az":52.0,"ss":45.0,"used":true,"gnssid":2,"svid":11},{"PRN":135,"az":206.0,"ss":52.0,"used":false,"gnssid":1,"svid":16},{"PRN":72,"az":18.0,"ss":49.0,"used":true,"gnssid":2,"svid":2},{"PRN":28,"az":252.0,"ss":46.0,"used":true,"gnssid":0,"svid":28},{"PRN":11,"az":120.0,"ss":40.0,"used":true,"gnssid":0,"svid":11},{"PRN":30,"az":332.0,"ss":48.0,"used":true,"gnssid":0,"svid":30},{"PRN":77,"az":304.0,"ss":45.0,"used":true,"gnssid":2,"svid":7},{"PRN":17,"az":190.0,"ss":45.0,"used":true,"gnssid":0,"svid":17},{"PRN":131,"az":178.0,"ss":47.0,"used":false,"gnssid":1,"svid":12}]}
{"class":"TPV","mode":3,"time":"2037-08-01T03:35:07.750Z","ept":0.005,"lat":33.824362403,"lon":-118.146964948,"alt":-13.152,"epv":0.770,"track":315.4742,"speed":0.004,"climb":-0.000,"eps":0.01,"epc":84.74,"ecefx":-2502136.44,"ecefy":-4676854.48,"ecefz":3530271.37,"ecefvx":-0.00,"ecefvy":0.00,"ecefvz":0.00,"ecefpAcc":0.89,"ecefvAcc":0.01,"velN":0.003,"velE":-0.003,"velD":0.000,"geoidSep":-32.127,"eph":0.453,"sep":20.449}
