{"class":"TPV","mode":3,"lat":44.068812951,"lon":-121.314308803,"alt":1128.356,"epv":29.028,"track":341.9349,"speed":0.016,"climb":-0.013,"ecefx":-2386069.98,"ecefy":-3922188.79,"ecefz":4414359.29,"ecefvx":0.01,"ecefvy":0.02,"ecefvz":0.00,"ecefpAcc":0.86,"ecefvAcc":0.02}
{"class":"TPV","mode":3,"lat":44.068812846,"lon":-121.314308762,"alt":1128.358,"epv":29.028,"track":320.5678,"speed":0.005,"climb":-0.007,"ecefx":-2386069.98,"ecefy":-3922188.80,"ecefz":4414359.28,"ecefvx":0.00,"ecefvy":0.01,"ecefvz":-0.00,"ecefpAcc":0.86,"ecefvAcc":0.02}
{"class":"TPV","mode":3,"lat":44.068812869,"lon":-121.314308782,"alt":1128.343,"epv":29.027,"track":343.8268,"speed":0.040,"climb":-0.038,"ecefx":-2386069.98,"ecefy":-3922188.79,"ecefz":4414359.27,"ecefvx":0.02,"ecefvy":0.05,"ecefvz":0.00,"ecefpAcc":0.87,"ecefvAcc":0.04}
{"class":"TPV","mode":3,"lat":44.068811083,"lon":-121.314308511,"alt":1128.687,"epv":29.025,"track":198.2330,"speed":0.010,"climb":0.018,"ecefx":-2386070.16,"ecefy":-3922189.13,"ecefz":4414359.37,"ecefvx":-0.01,"ecefvy":-0.02,"ecefvz":0.01,"ecefpAcc":0.82,"ecefvAcc":0.02}
{"class":"TPV","mode":3,"lat":44.068811132,"lon":-121.314308498,"alt":1128.682,"epv":37.163,"track":21.9600,"speed":0.014,"climb":-0.016,"ecefx":-2386070.16,"ecefy":-3922189.13,"ecefz":4414359.37,"ecefvx":0.01,"ecefvy":0.01,"ecefvz":-0.00,"ecefpAcc":0.82,"ecefvAcc":0.02}
{"class":"TPV","mode":3,"lat":44.068811044,"lon":-121.314308483,"alt":1128.695,"epv":37.162,"track":347.7636,"speed":0.009,"climb":0.001,"ecefx":-2386070.16,"ecefy":-3922189.14,"ecefz":4414359.37,"ecefvx":0.00,"ecefvy":0.01,"ecefvz":0.01,"ecefpAcc":0.82,"ecefvAcc":0.02}
{"class":"TPV","mode":3,"lat":44.068811028,"lon":-121.314308531,"alt":1128.697,"epv":37.162,"track":193.3057,"speed":0.004,"climb":-0.001,"ecefx":-2386070.17,"ecefy":-3922189.14,"ecefz":4414359.37,"ecefvx":-0.00,"ecefvy":-0.00,"ecefvz":-0.00,"ecefpAcc":0.82,"ecefvAcc":0.01}
{"class":"TPV","mode":3,"lat":44.068811069,"lon":-121.314308576,"alt":1128.698,"epv":37.162,"track":295.8555,"speed":0.008,"climb":-0.006,"ecefx":-2386070.17,"ecefy":-3922189.14,"ecefz":4414359.38,"ecefvx":-0.00,"ecefvy":0.01,"ecefvz":-0.00,"ecefpAcc":0.82,"ecefvAcc":0.02}
{"class":"TPV","mode":3,"lat":44.068811009,"lon":-121.314308577,"alt":1128.705,"epv":37.161,"track":300.9522,"speed":0.009,"climb":-0.020,"ecefx":-2386070.17,"ecefy":-3922189.15,"ecefz":4414359.38,"ecefvx":0.00,"ecefvy":0.02,"ecefvz":-0.01,"ecefpAcc":0.81,"ecefvAcc":0.02}
{"class":"TPV","mode":3,"lat":44.068811028,"lon":-121.314308541,"alt":1128.705,"epv":37.161,"track":198.4139,"speed":0.007,"climb":0.020,"ecefx":-2386070.17,"ecefy":-3922189.15,"ecefz":4414359.38,"ecefvx":-0.01,"ecefvy":-0.01,"ecefvz":0.01,"ecefpAcc":0.81,"ecefvAcc":0.01}
{"class":"TPV","mode":3,"lat":44.068811032,"lon":-121.314308488,"alt":1128.693,"epv":37.161,"track":298.7296,"speed":0.007,"climb":-0.013,"ecefx":-2386070.16,"ecefy":-3922189.14,"ecefz":4414359.37,"ecefvx":0.00,"ecefvy":0.01,"ecefvz":-0.01,"ecefpAcc":0.81,"ecefvAcc":0.02}
{"class":"TPV","mode":3,"lat":44.068810986,"lon":-121.314308453,"alt":1128.699,"epv":37.160,"track":342.8060,"speed":0.022,"climb":-0.036,"ecefx":-2386070.17,"ecefy":-3922189.15,"ecefz":4414359.37,"ecefvx":0.02,"ecefvy":0.04,"ecefvz":-0.01,"ecefpAcc":0.81,"ecefvAcc":0.01}
{"class":"TPV","mode":3,"lat":44.068810930,"lon":-121.314308450,"alt":1128.705,"epv":37.160,"track":65.2907,"speed":0.009,"climb":-0.001,"ecefx":-2386070.17,"ecefy":-3922189.16,"ecefz":4414359.37,"ecefvx":0.01,"ecefvy":-0.00,"ecefvz":0.00,"ecefpAcc":0.81,"ecefvAcc":0.01}
{"class":"TPV","mode":3,"lat":44.068810882,"lon":-121.314308390,"alt":1128.712,"epv":37.159,"track":82.2921,"speed":0.007,"climb":0.022,"ecefx":-2386070.17,"ecefy":-3922189.17,"ecefz":4414359.37,"ecefvx":-0.00,"ecefvy":-0.02,"ecefvz":0.02,"ecefpAcc":0.80,"ecefvAcc":0.01}
{"class":"TPV","mode":3,"lat":44.068810826,"lon":-121.314308373,"alt":1128.709,"epv":37.159,"track":343.4964,"speed":0.011,"climb":-0.036,"ecefx":-2386070.17,"ecefy":-3922189.17,"ecefz":4414359.36,"ecefvx":0.01,"ecefvy":0.03,"ecefvz":-0.02,"ecefpAcc":0.80,"ecefvAcc":0.02}
{"class":"TPV","mode":3,"lat":44.068810733,"lon":-121.314308315,"alt":1128.712,"epv":37.159,"track":196.3695,"speed":0.004,"climb":0.021,"ecefx":-2386070.17,"ecefy":-3922189.18,"ecefz":4414359.36,"ecefvx":-0.01,"ecefvy":-0.01,"ecefvz":0.01,"ecefpAcc":0.80,"ecefvAcc":0.01}
{"class":"TPV","mode":3,"lat":44.068810789,"lon":-121.314308417,"alt":1128.689,"epv":37.158,"track":26.9052,"speed":0.002,"climb":-0.012,"ecefx":-2386070.17,"ecefy":-3922189.16,"ecefz":4414359.35,"ecefvx":0.01,"ecefvy":0.01,"ecefvz":-0.01,"ecefpAcc":0.80,"ecefvAcc":0.01}
{"class":"TPV","mode":3,"lat":44.068810817,"lon":-121.314308518,"alt":1128.678,"epv":37.158,"track":157.7312,"speed":0.018,"climb":0.024,"ecefx":-2386070.17,"ecefy":-3922189.15,"ecefz":4414359.34,"ecefvx":-0.01,"ecefvy":-0.03,"ecefvz":0.00,"ecefpAcc":0.79,"ecefvAcc":0.02}
{"class":"TPV","mode":3,"lat":44.068810881,"lon":-121.314308571,"alt":1128.667,"epv":37.158,"track":358.7733,"speed":0.024,"climb":0.015,"ecefx":-2386070.17,"ecefy":-3922189.13,"ecefz":4414359.34,"ecefvx":0.00,"ecefvy":0.01,"ecefvz":0.03,"ecefpAcc":0.79,"ecefvAcc":0.02}
{"class":"TPV","mode":3,"lat":44.068810893,"lon":-121.314308642,"alt":1128.664,"epv":37.157,"track":309.5986,"speed":0.017,"climb":-0.036,"ecefx":-2386070.17,"ecefy":-3922189.13,"ecefz":4414359.34,"ecefvx":0.01,"ecefvy":0.04,"ecefvz":-0.02,"ecefpAcc":0.79,"ecefvAcc":0.01}
{"class":"TPV","mode":3,"lat":44.068810814,"lon":-121.314308617,"alt":1128.674,"epv":37.157,"track":256.6812,"speed":0.012,"climb":0.005,"ecefx":-2386070.17,"ecefy":-3922189.14,"ecefz":4414359.34,"ecefvx":-0.01,"ecefvy":0.00,"ecefvz":0.00,"ecefpAcc":0.79,"ecefvAcc":0.01}
{"class":"TPV","mode":3,"lat":44.068810867,"lon":-121.314308637,"alt":1128.677,"epv":37.156,"track":342.8664,"speed":0.004,"climb":-0.010,"ecefx":-2386070.17,"ecefy":-3922189.14,"ecefz":4414359.34,"ecefvx":0.00,"ecefvy":0.01,"ecefvz":-0.00,"ecefpAcc":0.79,"ecefvAcc":0.01}
{"class":"TPV","mode":3,"lat":44.068810889,"lon":-121.314308731,"alt":1128.691,"epv":37.156,"track":334.9310,"speed":0.026,"climb":-0.003,"ecefx":-2386070.18,"ecefy":-3922189.14,"ecefz":4414359.36,"ecefvx":0.00,"ecefvy":0.02,"ecefvz":0.02,"ecefpAcc":0.80,"ecefvAcc":0.01}
{"class":"TPV","mode":3,"lat":44.068810766,"lon":-121.314308612,"alt":1128.712,"epv":37.156,"track":58.7806,"speed":0.007,"climb":0.020,"ecefx":-2386070.19,"ecefy":-3922189.17,"ecefz":4414359.36,"ecefvx":-0.00,"ecefvy":-0.01,"ecefvz":0.02,"ecefpAcc":0.80,"ecefvAcc":0.01}
{"class":"TPV","mode":3,"lat":44.068810822,"lon":-121.314308674,"alt":1128.707,"epv":37.155,"track":356.8786,"speed":0.009,"climb":0.005,"ecefx":-2386070.19,"ecefy":-3922189.16,"ecefz":4414359.36,"ecefvx":0.00,"ecefvy":0.00,"ecefvz":0.01,"ecefpAcc":0.81,"ecefvAcc":0.01}
{"class":"TPV","mode":3,"lat":44.068810801,"lon":-121.314308592,"alt":1128.720,"epv":37.155,"track":108.0050,"speed":0.005,"climb":-0.019,"ecefx":-2386070.19,"ecefy":-3922189.17,"ecefz":4414359.37,"ecefvx":0.01,"ecefvy":0.01,"ecefvz":-0.01,"ecefpAcc":0.81,"ecefvAcc":0.02}
{"class":"TPV","mode":3,"lat":44.068810869,"lon":-121.314308577,"alt":1128.727,"epv":37.154,"track":273.4839,"speed":0.010,"climb":0.013,"ecefx":-2386070.19,"ecefy":-3922189.17,"ecefz":4414359.38,"ecefvx":-0.01,"ecefvy":-0.00,"ecefvz":0.01,"ecefpAcc":0.82,"ecefvAcc":0.01}
{"class":"TPV","mode":3,"lat":44.068810861,"lon":-121.314308511,"alt":1128.731,"epv":37.154,"track":147.0503,"speed":0.008,"climb":0.017,"ecefx":-2386070.19,"ecefy":-3922189.17,"ecefz":4414359.38,"ecefvx":-0.00,"ecefvy":-0.02,"ecefvz":0.01,"ecefpAcc":0.82,"ecefvAcc":0.01}
{"class":"TPV","mode":3,"lat":44.068810785,"lon":-121.314308428,"alt":1128.734,"epv":37.153,"track":172.9611,"speed":0.015,"climb":0.002,"ecefx":-2386070.18,"ecefy":-3922189.19,"ecefz":4414359.38,"ecefvx":-0.00,"ecefvy":-0.01,"ecefvz":-0.01,"ecefpAcc":0.81,"ecefvAcc":0.01}
{"class":"TPV","mode":3,"lat":44.068810799,"lon":-121.314308427,"alt":1128.724,"epv":37.153,"track":308.7210,"speed":0.006,"climb":-0.002,"ecefx":-2386070.18,"ecefy":-3922189.18,"ecefz":4414359.37,"ecefvx":-0.00,"ecefvy":0.01,"ecefvz":0.00,"ecefpAcc":0.81,"ecefvAcc":0.01}
{"class":"TPV","mode":3,"lat":44.068810720,"lon":-121.314308423,"alt":1128.720,"epv":37.153,"track":335.7604,"speed":0.007,"climb":-0.012,"ecefx":-2386070.18,"ecefy":-3922189.18,"ecefz":4414359.36,"ecefvx":0.00,"ecefvy":0.01,"ecefvz":-0.00,"ecefpAcc":0.81,"ecefvAcc":0.01}
{"class":"TPV","mode":3,"lat":44.068810553,"lon":-121.314308341,"alt":1128.742,"epv":37.152,"track":136.4932,"speed":0.004,"climb":-0.001,"ecefx":-2386070.19,"ecefy":-3922189.21,"ecefz":4414359.36,"ecefvx":0.00,"ecefvy":-0.00,"ecefvz":-0.00,"ecefpAcc":0.80,"ecefvAcc":0.01}
{"class":"TPV","mode":3,"lat":44.068810397,"lon":-121.314308263,"alt":1128.756,"epv":37.152,"track":25.3005,"speed":0.006,"climb":-0.010,"ecefx":-2386070.20,"ecefy":-3922189.23,"ecefz":4414359.36,"ecefvx":0.01,"ecefvy":0.01,"ecefvz":-0.00,"ecefpAcc":0.80,"ecefvAcc":0.02}
{"class":"TPV","mode":3,"lat":44.068810285,"lon":-121.314308165,"alt":1128.778,"epv":37.151,"track":136.5895,"speed":0.003,"climb":-0.003,"ecefx":-2386070.20,"ecefy":-3922189.26,"ecefz":4414359.37,"ecefvx":0.00,"ecefvy":-0.00,"ecefvz":-0.00,"ecefpAcc":0.81,"ecefvAcc":0.04}
{"class":"TPV","mode":3,"lat":44.068810204,"lon":-121.314308127,"alt":1128.781,"epv":37.151,"track":332.5626,"speed":0.008,"climb":-0.016,"ecefx":-2386070.20,"ecefy":-3922189.27,"ecefz":4414359.36,"ecefvx":0.01,"ecefvy":0.02,"ecefvz":-0.01,"ecefpAcc":0.81,"ecefvAcc":0.01}
{"class":"TPV","mode":3,"lat":44.068810260,"lon":-121.314308090,"alt":1128.767,"epv":37.150,"track":327.7975,"speed":0.004,"climb":0.005,"ecefx":-2386070.19,"ecefy":-3922189.25,"ecefz":4414359.36,"ecefvx":-0.00,"ecefvy":-0.00,"ecefvz":0.01,"ecefpAcc":0.82,"ecefvAcc":0.02}
{"class":"TPV","mode":3,"lat":44.068810156,"lon":-121.314308034,"alt":1128.782,"epv":37.150,"track":160.7291,"speed":0.014,"climb":0.019,"ecefx":-2386070.20,"ecefy":-3922189.27,"ecefz":4414359.36,"ecefvx":-0.01,"ecefvy":-0.02,"ecefvz":0.00,"ecefpAcc":0.81,"ecefvAcc":0.02}
{"class":"TPV","mode":3,"lat":44.068810058,"lon":-121.314308006,"alt":1128.800,"epv":37.149,"track":353.9135,"speed":0.009,"climb":0.022,"ecefx":-2386070.21,"ecefy":-3922189.29,"ecefz":4414359.37,"ecefvx":-0.01,"ecefvy":-0.01,"ecefvz":0.02,"ecefpAcc":0.82,"ecefvAcc":0.02}
{"class":"TPV","mode":3,"lat":44.068809990,"lon":-121.314308003,"alt":1128.818,"epv":37.149,"track":152.6418,"speed":0.013,"climb":-0.005,"ecefx":-2386070.22,"ecefy":-3922189.31,"ecefz":4414359.37,"ecefvx":0.00,"ecefvy":-0.01,"ecefvz":-0.01,"ecefpAcc":0.82,"ecefvAcc":0.01}
{"class":"TPV","mode":3,"lat":44.068809822,"lon":-121.314307906,"alt":1128.845,"epv":37.149,"track":312.6672,"speed":0.007,"climb":-0.011,"ecefx":-2386070.23,"ecefy":-3922189.34,"ecefz":4414359.38,"ecefvx":0.00,"ecefvy":0.01,"ecefvz":-0.00,"ecefpAcc":0.82,"ecefvAcc":0.02}
{"class":"TPV","mode":3,"lat":44.068809835,"lon":-121.314307966,"alt":1128.834,"epv":37.148,"track":256.2942,"speed":0.012,"climb":-0.023,"ecefx":-2386070.23,"ecefy":-3922189.33,"ecefz":4414359.37,"ecefvx":-0.00,"ecefvy":0.02,"ecefvz":-0.02,"ecefpAcc":0.82,"ecefvAcc":0.02}
{"class":"TPV","mode":3,"lat":44.068809892,"lon":-121.314308026,"alt":1128.825,"epv":37.148,"track":52.8913,"speed":0.003,"climb":-0.002,"ecefx":-2386070.23,"ecefy":-3922189.32,"ecefz":4414359.37,"ecefvx":0.00,"ecefvy":0.00,"ecefvz":-0.00,"ecefpAcc":0.82,"ecefvAcc":0.01}
{"class":"TPV","mode":3,"lat":44.068809905,"lon":-121.314308130,"alt":1128.817,"epv":37.147,"track":304.9016,"speed":0.007,"climb":0.011,"ecefx":-2386070.23,"ecefy":-3922189.31,"ecefz":4414359.37,"ecefvx":-0.01,"ecefvy":-0.00,"ecefvz":0.01,"ecefpAcc":0.82,"ecefvAcc":0.01}
{"class":"TPV","mode":3,"lat":44.068809889,"lon":-121.314308247,"alt":1128.812,"epv":37.147,"track":282.1527,"speed":0.011,"climb":-0.004,"ecefx":-2386070.24,"ecefy":-3922189.30,"ecefz":4414359.36,"ecefvx":-0.01,"ecefvy":0.01,"ecefvz":-0.00,"ecefpAcc":0.81,"ecefvAcc":0.01}
{"class":"TPV","mode":3,"lat":44.068809903,"lon":-121.314308287,"alt":1128.821,"epv":37.146,"track":312.5344,"speed":0.006,"climb":-0.004,"ecefx":-2386070.24,"ecefy":-3922189.30,"ecefz":4414359.37,"ecefvx":-0.00,"ecefvy":0.01,"ecefvz":-0.00,"ecefpAcc":0.81,"ecefvAcc":0.01}
{"class":"TPV","mode":3,"lat":44.068809902,"lon":-121.314308295,"alt":1128.828,"epv":37.146,"track":172.8372,"speed":0.009,"climb":-0.008,"ecefx":-2386070.25,"ecefy":-3922189.31,"ecefz":4414359.37,"ecefvx":0.00,"ecefvy":-0.00,"ecefvz":-0.01,"ecefpAcc":0.81,"ecefvAcc":0.01}
{"class":"TPV","mode":3,"lat":44.068809802,"lon":-121.314308178,"alt":1128.860,"epv":37.145,"track":131.1211,"speed":0.007,"climb":0.016,"ecefx":-2386070.25,"ecefy":-3922189.34,"ecefz":4414359.39,"ecefvx":-0.00,"ecefvy":-0.02,"ecefvz":0.01,"ecefpAcc":0.80,"ecefvAcc":0.01}
{"class":"TPV","mode":3,"lat":44.068809891,"lon":-121.314308253,"alt":1128.860,"epv":37.145,"track":31.3425,"speed":0.011,"climb":0.001,"ecefx":-2386070.26,"ecefy":-3922189.33,"ecefz":4414359.39,"ecefvx":0.01,"ecefvy":0.00,"ecefvz":0.01,"ecefpAcc":0.79,"ecefvAcc":0.02}
{"class":"TPV","mode":3,"lat":44.068809845,"lon":-121.314308212,"alt":1128.877,"epv":37.144,"track":281.8517,"speed":0.013,"climb":0.011,"ecefx":-2386070.26,"ecefy":-3922189.34,"ecefz":4414359.40,"ecefvx":-0.01,"ecefvy":0.00,"ecefvz":0.01,"ecefpAcc":0.79,"ecefvAcc":0.01}
{"class":"TPV","mode":3,"lat":44.068809836,"lon":-121.314308149,"alt":1128.888,"epv":37.144,"track":336.8859,"speed":0.009,"climb":0.008,"ecefx":-2386070.26,"ecefy":-3922189.35,"ecefz":4414359.41,"ecefvx":-0.00,"ecefvy":0.00,"ecefvz":0.01,"ecefpAcc":0.79,"ecefvAcc":0.02}
{"class":"TPV","mode":3,"lat":44.068809801,"lon":-121.314308054,"alt":1128.892,"epv":37.143,"track":11.5260,"speed":0.008,"climb":-0.016,"ecefx":-2386070.26,"ecefy":-3922189.36,"ecefz":4414359.41,"ecefvx":0.01,"ecefvy":0.01,"ecefvz":-0.01,"ecefpAcc":0.78,"ecefvAcc":0.02}
{"class":"TPV","mode":3,"lat":44.068809785,"lon":-121.314308027,"alt":1128.894,"epv":37.143,"track":313.2583,"speed":0.013,"climb":-0.027,"ecefx":-2386070.26,"ecefy":-3922189.37,"ecefz":4414359.41,"ecefvx":0.01,"ecefvy":0.03,"ecefvz":-0.01,"ecefpAcc":0.78,"ecefvAcc":0.02}
{"class":"TPV","mode":3,"lat":44.068809868,"lon":-121.314308064,"alt":1128.884,"epv":37.142,"track":246.1982,"speed":0.007,"climb":-0.008,"ecefx":-2386070.25,"ecefy":-3922189.35,"ecefz":4414359.41,"ecefvx":-0.00,"ecefvy":0.01,"ecefvz":-0.01,"ecefpAcc":0.78,"ecefvAcc":0.02}
{"class":"TPV","mode":3,"lat":44.068809883,"lon":-121.314308015,"alt":1128.882,"epv":37.142,"track":8.6915,"speed":0.018,"climb":-0.012,"ecefx":-2386070.25,"ecefy":-3922189.35,"ecefz":4414359.41,"ecefvx":0.01,"ecefvy":0.02,"ecefvz":0.00,"ecefpAcc":0.78,"ecefvAcc":0.02}
{"class":"TPV","mode":3,"lat":44.068809895,"lon":-121.314307892,"alt":1128.878,"epv":37.141,"track":102.2409,"speed":0.015,"climb":0.011,"ecefx":-2386070.24,"ecefy":-3922189.36,"ecefz":4414359.41,"ecefvx":0.01,"ecefvy":-0.02,"ecefvz":0.01,"ecefpAcc":0.78,"ecefvAcc":0.01}
{"class":"TPV","mode":3,"lat":44.068809837,"lon":-121.314307891,"alt":1128.874,"epv":37.141,"track":336.7426,"speed":0.015,"climb":-0.026,"ecefx":-2386070.24,"ecefy":-3922189.36,"ecefz":4414359.40,"ecefvx":0.01,"ecefvy":0.03,"ecefvz":-0.01,"ecefpAcc":0.77,"ecefvAcc":0.03}
{"class":"TPV","mode":3,"lat":44.068809892,"lon":-121.314307971,"alt":1128.860,"epv":37.140,"track":328.7668,"speed":0.015,"climb":0.012,"ecefx":-2386070.24,"ecefy":-3922189.34,"ecefz":4414359.39,"ecefvx":-0.01,"ecefvy":0.00,"ecefvz":0.02,"ecefpAcc":0.77,"ecefvAcc":0.02}
{"class":"TPV","mode":3,"lat":44.068809868,"lon":-121.314307982,"alt":1128.850,"epv":37.140,"track":195.6270,"speed":0.009,"climb":0.020,"ecefx":-2386070.23,"ecefy":-3922189.34,"ecefz":4414359.39,"ecefvx":-0.01,"ecefvy":-0.02,"ecefvz":0.01,"ecefpAcc":0.77,"ecefvAcc":0.01}
{"class":"TPV","mode":3,"lat":44.068809897,"lon":-121.314308037,"alt":1128.857,"epv":37.139,"track":186.3388,"speed":0.009,"climb":0.024,"ecefx":-2386070.24,"ecefy":-3922189.34,"ecefz":4414359.39,"ecefvx":-0.01,"ecefvy":-0.02,"ecefvz":0.01,"ecefpAcc":0.83,"ecefvAcc":0.01}
{"class":"TPV","mode":3,"lat":44.068809941,"lon":-121.314308094,"alt":1128.861,"epv":39.666,"track":318.3210,"speed":0.010,"climb":0.000,"ecefx":-2386070.24,"ecefy":-3922189.33,"ecefz":4414359.40,"ecefvx":-0.00,"ecefvy":0.01,"ecefvz":0.01,"ecefpAcc":0.84,"ecefvAcc":0.02}
{"class":"TPV","mode":3,"lat":44.068809992,"lon":-121.314308173,"alt":1128.865,"epv":39.668,"track":279.0609,"speed":0.010,"climb":-0.013,"ecefx":-2386070.25,"ecefy":-3922189.33,"ecefz":4414359.41,"ecefvx":-0.00,"ecefvy":0.01,"ecefvz":-0.01,"ecefpAcc":0.84,"ecefvAcc":0.01}
{"class":"TPV","mode":3,"lat":44.068809985,"lon":-121.314308204,"alt":1128.876,"epv":39.669,"track":325.7542,"speed":0.012,"climb":0.010,"ecefx":-2386070.25,"ecefy":-3922189.33,"ecefz":4414359.41,"ecefvx":-0.01,"ecefvy":0.00,"ecefvz":0.01,"ecefpAcc":0.84,"ecefvAcc":0.02}
{"class":"TPV","mode":3,"lat":44.068810003,"lon":-121.314308309,"alt":1128.852,"epv":39.670,"track":341.6415,"speed":0.014,"climb":-0.016,"ecefx":-2386070.25,"ecefy":-3922189.31,"ecefz":4414359.40,"ecefvx":0.01,"ecefvy":0.02,"ecefvz":-0.00,"ecefpAcc":0.79,"ecefvAcc":0.01}
{"class":"TPV","mode":3,"lat":44.068810058,"lon":-121.314308406,"alt":1128.839,"epv":37.136,"track":275.2538,"speed":0.013,"climb":-0.033,"ecefx":-2386070.25,"ecefy":-3922189.30,"ecefz":4414359.39,"ecefvx":0.00,"ecefvy":0.03,"ecefvz":-0.02,"ecefpAcc":0.79,"ecefvAcc":0.02}
{"class":"TPV","mode":3,"lat":44.068810107,"lon":-121.314308397,"alt":1128.835,"epv":37.136,"track":94.5965,"speed":0.010,"climb":-0.002,"ecefx":-2386070.25,"ecefy":-3922189.29,"ecefz":4414359.39,"ecefvx":0.01,"ecefvy":-0.00,"ecefvz":-0.00,"ecefpAcc":0.79,"ecefvAcc":0.02}
{"class":"TPV","mode":3,"lat":44.068810202,"lon":-121.314308372,"alt":1128.831,"epv":37.135,"track":332.8209,"speed":0.018,"climb":-0.009,"ecefx":-2386070.24,"ecefy":-3922189.29,"ecefz":4414359.40,"ecefvx":0.00,"ecefvy":0.02,"ecefvz":0.01,"ecefpAcc":0.78,"ecefvAcc":0.02}
{"class":"TPV","mode":3,"lat":44.068810174,"lon":-121.314308313,"alt":1128.827,"epv":37.135,"track":29.2573,"speed":0.010,"climb":0.024,"ecefx":-2386070.24,"ecefy":-3922189.29,"ecefz":4414359.39,"ecefvx":-0.00,"ecefvy":-0.01,"ecefvz":0.02,"ecefpAcc":0.78,"ecefvAcc":0.02}
{"class":"TPV","mode":3,"lat":44.068810132,"lon":-121.314308257,"alt":1128.843,"epv":37.134,"track":196.1726,"speed":0.006,"climb":0.004,"ecefx":-2386070.24,"ecefy":-3922189.30,"ecefz":4414359.40,"ecefvx":-0.00,"ecefvy":-0.00,"ecefvz":-0.00,"ecefpAcc":0.78,"ecefvAcc":0.01}
{"class":"TPV","mode":3,"lat":44.068810120,"lon":-121.314308180,"alt":1128.846,"epv":37.134,"track":332.5228,"speed":0.022,"climb":-0.020,"ecefx":-2386070.24,"ecefy":-3922189.31,"ecefz":4414359.40,"ecefvx":0.01,"ecefvy":0.03,"ecefvz":0.00,"ecefpAcc":0.78,"ecefvAcc":0.02}
{"class":"TPV","mode":3,"lat":44.068810095,"lon":-121.314308140,"alt":1128.855,"epv":37.133,"track":13.3228,"speed":0.010,"climb":-0.010,"ecefx":-2386070.24,"ecefy":-3922189.32,"ecefz":4414359.41,"ecefvx":0.01,"ecefvy":0.01,"ecefvz":0.00,"ecefpAcc":0.78,"ecefvAcc":0.01}
{"class":"TPV","mode":3,"lat":44.068810111,"lon":-121.314308156,"alt":1128.852,"epv":37.133,"track":66.3164,"speed":0.004,"climb":0.012,"ecefx":-2386070.24,"ecefy":-3922189.31,"ecefz":4414359.41,"ecefvx":-0.00,"ecefvy":-0.01,"ecefvz":0.01,"ecefpAcc":0.78,"ecefvAcc":0.01}
{"class":"TPV","mode":3,"lat":44.068810071,"lon":-121.314308176,"alt":1128.857,"epv":37.132,"track":99.8408,"speed":0.011,"climb":-0.002,"ecefx":-2386070.24,"ecefy":-3922189.32,"ecefz":4414359.41,"ecefvx":0.01,"ecefvy":-0.01,"ecefvz":-0.00,"ecefpAcc":0.78,"ecefvAcc":0.02}
{"class":"TPV","mode":3,"lat":44.068810045,"lon":-121.314308220,"alt":1128.848,"epv":37.131,"track":184.4912,"speed":0.008,"climb":0.015,"ecefx":-2386070.24,"ecefy":-3922189.31,"ecefz":4414359.40,"ecefvx":-0.01,"ecefvy":-0.01,"ecefvz":0.00,"ecefpAcc":0.78,"ecefvAcc":0.02}
{"class":"TPV","mode":3,"lat":44.068810090,"lon":-121.314308227,"alt":1128.832,"epv":37.131,"track":331.2111,"speed":0.008,"climb":0.005,"ecefx":-2386070.24,"ecefy":-3922189.30,"ecefz":4414359.39,"ecefvx":-0.00,"ecefvy":0.00,"ecefvz":0.01,"ecefpAcc":0.78,"ecefvAcc":0.02}
{"class":"TPV","mode":3,"lat":44.068809932,"lon":-121.314308255,"alt":1128.866,"epv":37.130,"track":14.4196,"speed":0.001,"climb":-0.010,"ecefx":-2386070.26,"ecefy":-3922189.33,"ecefz":4414359.40,"ecefvx":0.00,"ecefvy":0.01,"ecefvz":-0.01,"ecefpAcc":0.75,"ecefvAcc":0.01}
{"class":"TPV","mode":3,"lat":44.068809832,"lon":-121.314308223,"alt":1128.888,"epv":28.925,"track":285.6527,"speed":0.015,"climb":-0.008,"ecefx":-2386070.27,"ecefy":-3922189.35,"ecefz":4414359.41,"ecefvx":-0.01,"ecefvy":0.01,"ecefvz":-0.00,"ecefpAcc":0.75,"ecefvAcc":0.02}
{"class":"TPV","mode":3,"lat":44.068809750,"lon":-121.314308172,"alt":1128.918,"epv":28.924,"track":141.3471,"speed":0.013,"climb":0.012,"ecefx":-2386070.28,"ecefy":-3922189.38,"ecefz":4414359.42,"ecefvx":-0.00,"ecefvy":-0.02,"ecefvz":0.00,"ecefpAcc":0.75,"ecefvAcc":0.02}
{"class":"TPV","mode":3,"lat":44.068809565,"lon":-121.314308095,"alt":1128.973,"epv":28.922,"track":329.8961,"speed":0.016,"climb":0.010,"ecefx":-2386070.30,"ecefy":-3922189.43,"ecefz":4414359.45,"ecefvx":-0.01,"ecefvy":0.01,"ecefvz":0.02,"ecefpAcc":0.76,"ecefvAcc":0.01}
{"class":"TPV","mode":3,"lat":44.068809263,"lon":-121.314308014,"alt":1129.035,"epv":28.921,"track":110.9441,"speed":0.012,"climb":0.017,"ecefx":-2386070.33,"ecefy":-3922189.49,"ecefz":4414359.47,"ecefvx":0.00,"ecefvy":-0.02,"ecefvz":0.01,"ecefpAcc":0.77,"ecefvAcc":0.02}
{"class":"TPV","mode":3,"lat":44.068809194,"lon":-121.314308038,"alt":1129.059,"epv":28.919,"track":313.7641,"speed":0.010,"climb":-0.018,"ecefx":-2386070.34,"ecefy":-3922189.51,"ecefz":4414359.48,"ecefvx":0.00,"ecefvy":0.02,"ecefvz":-0.01,"ecefpAcc":0.77,"ecefvAcc":0.02}
{"class":"TPV","mode":3,"lat":44.068809379,"lon":-121.314308113,"alt":1129.035,"epv":28.918,"track":351.9632,"speed":0.000,"climb":0.002,"ecefx":-2386070.33,"ecefy":-3922189.48,"ecefz":4414359.47,"ecefvx":-0.00,"ecefvy":-0.00,"ecefvz":0.00,"ecefpAcc":0.77,"ecefvAcc":0.01}
{"class":"TPV","mode":3,"lat":44.068809491,"lon":-121.314308126,"alt":1129.018,"epv":28.916,"track":28.9382,"speed":0.005,"climb":-0.004,"ecefx":-2386070.32,"ecefy":-3922189.46,"ecefz":4414359.47,"ecefvx":0.01,"ecefvy":0.00,"ecefvz":0.00,"ecefpAcc":0.75,"ecefvAcc":0.01}
{"class":"TPV","mode":3,"lat":44.068809585,"lon":-121.314308199,"alt":1128.999,"epv":28.915,"track":215.4048,"speed":0.011,"climb":0.005,"ecefx":-2386070.32,"ecefy":-3922189.44,"ecefz":4414359.47,"ecefvx":-0.01,"ecefvy":-0.00,"ecefvz":-0.00,"ecefpAcc":0.74,"ecefvAcc":0.01}
{"class":"TPV","mode":3,"lat":44.068809623,"lon":-121.314308187,"alt":1128.977,"epv":28.913,"track":159.7105,"speed":0.021,"climb":-0.006,"ecefx":-2386070.31,"ecefy":-3922189.42,"ecefz":4414359.45,"ecefvx":0.00,"ecefvy":-0.01,"ecefvz":-0.02,"ecefpAcc":0.73,"ecefvAcc":0.02}
{"class":"TPV","mode":3,"lat":44.068809716,"lon":-121.314308276,"alt":1128.961,"epv":28.912,"track":304.3390,"speed":0.022,"climb":-0.005,"ecefx":-2386070.30,"ecefy":-3922189.40,"ecefz":4414359.45,"ecefvx":-0.01,"ecefvy":0.02,"ecefvz":0.01,"ecefpAcc":0.73,"ecefvAcc":0.02}
{"class":"TPV","mode":3,"lat":44.068809708,"lon":-121.314308268,"alt":1128.955,"epv":28.911,"track":230.3082,"speed":0.003,"climb":-0.019,"ecefx":-2386070.30,"ecefy":-3922189.40,"ecefz":4414359.45,"ecefvx":0.00,"ecefvy":0.01,"ecefvz":-0.01,"ecefpAcc":0.72,"ecefvAcc":0.02}
{"class":"TPV","mode":3,"lat":44.068809794,"lon":-121.314308324,"alt":1128.941,"epv":28.909,"track":135.3338,"speed":0.007,"climb":0.002,"ecefx":-2386070.29,"ecefy":-3922189.38,"ecefz":4414359.44,"ecefvx":0.00,"ecefvy":-0.01,"ecefvz":-0.00,"ecefpAcc":0.72,"ecefvAcc":0.01}
{"class":"TPV","mode":3,"lat":44.068809838,"lon":-121.314308401,"alt":1128.926,"epv":28.908,"track":298.2725,"speed":0.021,"climb":-0.031,"ecefx":-2386070.29,"ecefy":-3922189.37,"ecefz":4414359.44,"ecefvx":-0.00,"ecefvy":0.03,"ecefvz":-0.01,"ecefpAcc":0.72,"ecefvAcc":0.01}
{"class":"TPV","mode":3,"lat":44.068809943,"lon":-121.314308491,"alt":1128.902,"epv":28.906,"track":292.0398,"speed":0.012,"climb":-0.021,"ecefx":-2386070.29,"ecefy":-3922189.34,"ecefz":4414359.43,"ecefvx":-0.00,"ecefvy":0.02,"ecefvz":-0.01,"ecefpAcc":0.73,"ecefvAcc":0.02}
{"class":"TPV","mode":3,"lat":44.068810008,"lon":-121.314308551,"alt":1128.895,"epv":28.905,"track":110.7929,"speed":0.014,"climb":0.007,"ecefx":-2386070.28,"ecefy":-3922189.33,"ecefz":4414359.43,"ecefvx":0.01,"ecefvy":-0.01,"ecefvz":0.00,"ecefpAcc":0.73,"ecefvAcc":0.02}
{"class":"TPV","mode":3,"lat":44.068810028,"lon":-121.314308630,"alt":1128.881,"epv":28.903,"track":308.1064,"speed":0.011,"climb":0.002,"ecefx":-2386070.28,"ecefy":-3922189.32,"ecefz":4414359.42,"ecefvx":-0.01,"ecefvy":0.01,"ecefvz":0.01,"ecefpAcc":0.73,"ecefvAcc":0.01}
{"class":"TPV","mode":3,"lat":44.068810010,"lon":-121.314308590,"alt":1128.880,"epv":28.902,"track":125.0472,"speed":0.011,"climb":0.012,"ecefx":-2386070.28,"ecefy":-3922189.32,"ecefz":4414359.42,"ecefvx":0.00,"ecefvy":-0.02,"ecefvz":0.00,"ecefpAcc":0.73,"ecefvAcc":0.02}
{"class":"TPV","mode":3,"lat":44.068810046,"lon":-121.314308718,"alt":1128.869,"epv":28.900,"track":154.4317,"speed":0.009,"climb":-0.005,"ecefx":-2386070.28,"ecefy":-3922189.30,"ecefz":4414359.41,"ecefvx":0.00,"ecefvy":-0.00,"ecefvz":-0.01,"ecefpAcc":0.73,"ecefvAcc":0.01}
{"class":"TPV","mode":3,"lat":44.068810076,"lon":-121.314308798,"alt":1128.863,"epv":28.899,"track":8.0167,"speed":0.005,"climb":0.003,"ecefx":-2386070.29,"ecefy":-3922189.30,"ecefz":4414359.41,"ecefvx":0.00,"ecefvy":0.00,"ecefvz":0.01,"ecefpAcc":0.74,"ecefvAcc":0.02}
{"class":"TPV","mode":3,"lat":44.068809992,"lon":-121.314308775,"alt":1128.870,"epv":28.897,"track":242.6740,"speed":0.007,"climb":-0.007,"ecefx":-2386070.29,"ecefy":-3922189.31,"ecefz":4414359.41,"ecefvx":-0.00,"ecefvy":0.01,"ecefvz":-0.01,"ecefpAcc":0.74,"ecefvAcc":0.01}
{"class":"TPV","mode":3,"lat":44.068809955,"lon":-121.314308782,"alt":1128.881,"epv":28.896,"track":203.6100,"speed":0.007,"climb":0.012,"ecefx":-2386070.30,"ecefy":-3922189.32,"ecefz":4414359.41,"ecefvx":-0.01,"ecefvy":-0.01,"ecefvz":0.00,"ecefpAcc":0.74,"ecefvAcc":0.02}
{"class":"TPV","mode":3,"lat":44.068809997,"lon":-121.314308788,"alt":1128.885,"epv":28.894,"track":71.4858,"speed":0.016,"climb":-0.005,"ecefx":-2386070.30,"ecefy":-3922189.32,"ecefz":4414359.42,"ecefvx":0.02,"ecefvy":-0.00,"ecefvz":0.00,"ecefpAcc":0.74,"ecefvAcc":0.02}
{"class":"TPV","mode":3,"lat":44.068810025,"lon":-121.314308783,"alt":1128.893,"epv":28.893,"track":189.8774,"speed":0.011,"climb":0.016,"ecefx":-2386070.30,"ecefy":-3922189.32,"ecefz":4414359.43,"ecefvx":-0.01,"ecefvy":-0.02,"ecefvz":0.00,"ecefpAcc":0.74,"ecefvAcc":0.01}
{"class":"TPV","mode":3,"lat":44.068809966,"lon":-121.314308751,"alt":1128.886,"epv":28.891,"track":309.1282,"speed":0.004,"climb":0.007,"ecefx":-2386070.30,"ecefy":-3922189.32,"ecefz":4414359.42,"ecefvx":-0.00,"ecefvy":-0.00,"ecefvz":0.01,"ecefpAcc":0.74,"ecefvAcc":0.01}
{"class":"TPV","mode":3,"lat":44.068809946,"lon":-121.314308731,"alt":1128.889,"epv":28.890,"track":174.4190,"speed":0.014,"climb":-0.021,"ecefx":-2386070.30,"ecefy":-3922189.32,"ecefz":4414359.42,"ecefvx":0.00,"ecefvy":0.00,"ecefvz":-0.02,"ecefpAcc":0.76,"ecefvAcc":0.02}
{"class":"TPV","mode":3,"lat":44.068809996,"lon":-121.314308816,"alt":1128.866,"epv":28.888,"track":94.0771,"speed":0.013,"climb":0.022,"ecefx":-2386070.29,"ecefy":-3922189.30,"ecefz":4414359.41,"ecefvx":0.00,"ecefvy":-0.02,"ecefvz":0.01,"ecefpAcc":0.76,"ecefvAcc":0.01}
{"class":"TPV","mode":3,"lat":44.068810139,"lon":-121.314308966,"alt":1128.835,"epv":28.887,"track":46.8465,"speed":0.009,"climb":0.000,"ecefx":-2386070.28,"ecefy":-3922189.27,"ecefz":4414359.40,"ecefvx":0.01,"ecefvy":-0.00,"ecefvz":0.00,"ecefpAcc":0.76,"ecefvAcc":0.02}
{"class":"TPV","mode":3,"lat":44.068810262,"lon":-121.314309116,"alt":1128.802,"epv":28.885,"track":359.7394,"speed":0.003,"climb":0.004,"ecefx":-2386070.28,"ecefy":-3922189.23,"ecefz":4414359.38,"ecefvx":-0.00,"ecefvy":-0.00,"ecefvz":0.00,"ecefpAcc":0.76,"ecefvAcc":0.02}
{"class":"TPV","mode":3,"lat":44.068810524,"lon":-121.314308856,"alt":1128.886,"epv":28.883,"track":278.9518,"speed":0.015,"climb":-0.032,"ecefx":-2386070.28,"ecefy":-3922189.28,"ecefz":4414359.46,"ecefvx":-0.00,"ecefvy":0.03,"ecefvz":-0.02,"ecefpAcc":0.80,"ecefvAcc":0.01}
{"class":"TPV","mode":3,"lat":44.068810548,"lon":-121.314308794,"alt":1128.886,"epv":31.260,"track":249.8079,"speed":0.010,"climb":-0.014,"ecefx":-2386070.28,"ecefy":-3922189.28,"ecefz":4414359.46,"ecefvx":-0.00,"ecefvy":0.01,"ecefvz":-0.01,"ecefpAcc":0.79,"ecefvAcc":0.01}
{"class":"TPV","mode":3,"lat":44.068810527,"lon":-121.314308668,"alt":1128.900,"epv":31.260,"track":323.6945,"speed":0.012,"climb":-0.012,"ecefx":-2386070.27,"ecefy":-3922189.29,"ecefz":4414359.47,"ecefvx":0.00,"ecefvy":0.02,"ecefvz":-0.00,"ecefpAcc":0.82,"ecefvAcc":0.02}
{"class":"TPV","mode":3,"lat":44.068810608,"lon":-121.314308766,"alt":1128.886,"epv":31.259,"track":313.8441,"speed":0.015,"climb":-0.022,"ecefx":-2386070.27,"ecefy":-3922189.28,"ecefz":4414359.47,"ecefvx":0.00,"ecefvy":0.03,"ecefvz":-0.01,"ecefpAcc":0.82,"ecefvAcc":0.01}
{"class":"TPV","mode":3,"lat":44.068810717,"lon":-121.314308851,"alt":1128.877,"epv":31.259,"track":82.9494,"speed":0.003,"climb":0.006,"ecefx":-2386070.27,"ecefy":-3922189.26,"ecefz":4414359.47,"ecefvx":0.00,"ecefvy":-0.00,"ecefvz":0.00,"ecefpAcc":0.81,"ecefvAcc":0.02}
{"class":"TPV","mode":3,"lat":44.068810838,"lon":-121.314308996,"alt":1128.851,"epv":31.258,"track":339.7816,"speed":0.010,"climb":0.010,"ecefx":-2386070.26,"ecefy":-3922189.23,"ecefz":4414359.46,"ecefvx":-0.00,"ecefvy":0.00,"ecefvz":0.01,"ecefpAcc":0.82,"ecefvAcc":0.01}
{"class":"TPV","mode":3,"lat":44.068810884,"lon":-121.314309082,"alt":1128.838,"epv":31.258,"track":232.7896,"speed":0.008,"climb":-0.011,"ecefx":-2386070.26,"ecefy":-3922189.22,"ecefz":4414359.46,"ecefvx":-0.00,"ecefvy":0.01,"ecefvz":-0.01,"ecefpAcc":0.81,"ecefvAcc":0.01}
{"class":"TPV","mode":3,"lat":44.068810956,"lon":-121.314309137,"alt":1128.826,"epv":31.257,"track":66.2048,"speed":0.003,"climb":-0.014,"ecefx":-2386070.26,"ecefy":-3922189.20,"ecefz":4414359.46,"ecefvx":0.01,"ecefvy":0.01,"ecefvz":-0.01,"ecefpAcc":0.82,"ecefvAcc":0.01}
{"class":"TPV","mode":3,"lat":44.068811122,"lon":-121.314309251,"alt":1128.804,"epv":31.257,"track":303.5115,"speed":0.009,"climb":0.018,"ecefx":-2386070.25,"ecefy":-3922189.17,"ecefz":4414359.45,"ecefvx":-0.01,"ecefvy":-0.00,"ecefvz":0.02,"ecefpAcc":0.79,"ecefvAcc":0.01}
{"class":"TPV","mode":3,"lat":44.068811245,"lon":-121.314309256,"alt":1128.799,"epv":31.257,"track":206.4540,"speed":0.003,"climb":-0.013,"ecefx":-2386070.25,"ecefy":-3922189.16,"ecefz":4414359.46,"ecefvx":0.00,"ecefvy":0.01,"ecefvz":-0.01,"ecefpAcc":0.78,"ecefvAcc":0.01}
{"class":"TPV","mode":3,"lat":44.068811264,"lon":-121.314309232,"alt":1128.816,"epv":31.256,"track":158.7472,"speed":0.008,"climb":-0.016,"ecefx":-2386070.25,"ecefy":-3922189.17,"ecefz":4414359.47,"ecefvx":0.01,"ecefvy":0.00,"ecefvz":-0.02,"ecefpAcc":0.78,"ecefvAcc":0.02}
{"class":"TPV","mode":3,"lat":44.068811290,"lon":-121.314309251,"alt":1128.825,"epv":31.256,"track":306.5972,"speed":0.015,"climb":-0.009,"ecefx":-2386070.25,"ecefy":-3922189.17,"ecefz":4414359.48,"ecefvx":-0.00,"ecefvy":0.02,"ecefvz":-0.00,"ecefpAcc":0.78,"ecefvAcc":0.00}
{"class":"TPV","mode":3,"lat":44.068811179,"lon":-121.314309658,"alt":1128.706,"epv":31.255,"track":348.6101,"speed":0.026,"climb":-0.029,"ecefx":-2386070.24,"ecefy":-3922189.09,"ecefz":4414359.39,"ecefvx":0.02,"ecefvy":0.04,"ecefvz":-0.00,"ecefpAcc":0.74,"ecefvAcc":0.01}
{"class":"TPV","mode":3,"lat":44.068811175,"lon":-121.314309623,"alt":1128.716,"epv":28.864,"track":331.2916,"speed":0.008,"climb":0.017,"ecefx":-2386070.24,"ecefy":-3922189.10,"ecefz":4414359.40,"ecefvx":-0.01,"ecefvy":-0.00,"ecefvz":0.02,"ecefpAcc":0.74,"ecefvAcc":0.02}
{"class":"TPV","mode":3,"lat":44.068811150,"lon":-121.314309627,"alt":1128.733,"epv":28.862,"track":355.7153,"speed":0.018,"climb":-0.019,"ecefx":-2386070.25,"ecefy":-3922189.11,"ecefz":4414359.41,"ecefvx":0.01,"ecefvy":0.02,"ecefvz":0.00,"ecefpAcc":0.74,"ecefvAcc":0.02}
{"class":"TPV","mode":3,"lat":44.068811112,"lon":-121.314309572,"alt":1128.744,"epv":28.860,"track":259.0911,"speed":0.007,"climb":0.005,"ecefx":-2386070.25,"ecefy":-3922189.12,"ecefz":4414359.41,"ecefvx":-0.01,"ecefvy":-0.00,"ecefvz":0.00,"ecefpAcc":0.75,"ecefvAcc":0.02}
