{"class":"TPV","mode":3,"time":"2037-12-29T22:02:17.000Z","ept":0.005,"lat":44.068812094,"lon":-121.313997737,"altHAE":2000000.012,"altMSL":2000022.167,"magvar":14.4,"climb":-3389.549,"ecefx":-3132489.00,"ecefy":-5149205.00,"ecefz":5804632.00,"ecefvx":9400.00,"ecefvy":10001.00,"ecefvz":9000.00,"ecefpAcc":50.00,"ecefvAcc":30.00,"velE":2832.922,"velD":3389.549,"geoidSep":-22.154}
{"class":"SKY"}
{"class":"TPV","mode":3,"time":"2037-12-29T22:02:18.000Z","ept":0.005,"lat":44.068812094,"lon":-121.313997737,"altHAE":2000000.012,"altMSL":2000022.167,"magvar":14.4,"speed":0.000,"climb":-3389.549,"ecefx":-3132489.00,"ecefy":-5149205.00,"ecefz":5804632.00,"ecefvx":9400.00,"ecefvy":10001.00,"ecefvz":9000.00,"ecefpAcc":50.00,"ecefvAcc":30.00,"velE":2832.922,"velD":3389.549,"geoidSep":-22.154}
{"class":"SKY","satellites":[{"PRN":1,"az":0.0,"ss":0.0,"used":true,"gnssid":0,"svid":1},{"PRN":2,"az":100.0,"ss":20.0,"used":true,"gnssid":0,"svid":2},{"PRN":3,"az":180.0,"ss":30.0,"used":true,"gnssid":0,"svid":3},{"PRN":4,"az":150.0,"ss":40.0,"used":true,"gnssid":0,"svid":4},{"PRN":5,"az":0.0,"ss":90.0,"used":false,"gnssid":0,"svid":5},{"PRN":6,"ss":255.0,"used":true,"gnssid":0,"svid":6}]}
{"class":"TPV","mode":3,"time":"2037-12-29T22:02:19.000Z","ept":0.005,"lat":44.068812094,"lon":-121.313997737,"altHAE":2000000.012,"altMSL":2000022.167,"magvar":14.4,"speed":0.000,"climb":-3389.549,"ecefx":-3132489.00,"ecefy":-5149205.00,"ecefz":5804632.00,"ecefvx":9400.00,"ecefvy":10001.00,"ecefvz":9000.00,"ecefpAcc":50.00,"ecefvAcc":30.00,"velE":2832.922,"velD":3389.549,"geoidSep":-22.154}
{"class":"SKY","satellites":[{"PRN":1,"az":0.0,"ss":0.0,"used":true,"gnssid":0,"svid":1},{"PRN":2,"az":100.0,"ss":20.0,"used":true,"gnssid":0,"svid":2},{"PRN":3,"az":180.0,"ss":30.0,"used":true,"gnssid":0,"svid":3},{"PRN":4,"az":150.0,"ss":40.0,"used":true,"gnssid":0,"svid":4},{"PRN":5,"az":0.0,"ss":90.0,"used":false,"gnssid":0,"svid":5},{"PRN":6,"ss":255.0,"used":true,"gnssid":0,"svid":6}]}
{"class":"TPV","mode":3,"time":"2037-12-29T22:02:20.000Z","ept":0.005,"lat":44.068812094,"lon":-121.313997737,"altHAE":2000000.012,"altMSL":2000022.167,"magvar":14.4,"speed":0.000,"climb":-3389.549,"ecefx":-3132489.00,"ecefy":-5149205.00,"ecefz":5804632.00,"ecefvx":9400.00,"ecefvy":10001.00,"ecefvz":9000.00,"ecefpAcc":50.00,"ecefvAcc":30.00,"velE":2832.922,"velD":3389.549,"geoidSep":-22.154}
{"class":"SKY","satellites":[{"PRN":1,"az":0.0,"ss":0.0,"used":true,"gnssid":0,"svid":1},{"PRN":2,"az":100.0,"ss":20.0,"used":true,"gnssid":0,"svid":2},{"PRN":3,"az":180.0,"ss":30.0,"used":true,"gnssid":0,"svid":3},{"PRN":4,"az":150.0,"ss":40.0,"used":true,"gnssid":0,"svid":4},{"PRN":5,"az":0.0,"ss":90.0,"used":false,"gnssid":0,"svid":5},{"PRN":6,"ss":255.0,"used":true,"gnssid":0,"svid":6}]}
{"class":"TPV","mode":3,"time":"2037-12-29T22:02:21.000Z","ept":0.005,"lat":44.068812094,"lon":-121.313997737,"altHAE":2000000.012,"altMSL":2000022.167,"magvar":14.4,"speed":0.000,"climb":-3389.549,"ecefx":-3132489.00,"ecefy":-5149205.00,"ecefz":5804632.00,"ecefvx":9400.00,"ecefvy":10001.00,"ecefvz":9000.00,"ecefpAcc":50.00,"ecefvAcc":30.00,"velE":2832.922,"velD":3389.549,"geoidSep":-22.154}
{"class":"SKY","satellites":[{"PRN":1,"az":0.0,"ss":0.0,"used":true,"gnssid":0,"svid":1},{"PRN":2,"az":100.0,"ss":20.0,"used":true,"gnssid":0,"svid":2},{"PRN":3,"az":180.0,"ss":30.0,"used":true,"gnssid":0,"svid":3},{"PRN":4,"az":150.0,"ss":40.0,"used":true,"gnssid":0,"svid":4},{"PRN":5,"az":0.0,"ss":90.0,"used":false,"gnssid":0,"svid":5},{"PRN":6,"ss":255.0,"used":true,"gnssid":0,"svid":6}]}
{"class":"TPV","mode":3,"time":"2037-12-29T22:02:22.000Z","ept":0.005,"lat":44.068812094,"lon":-121.313997737,"altHAE":2000000.012,"altMSL":2000022.167,"magvar":14.4,"speed":0.000,"climb":-3389.549,"ecefx":-3132489.00,"ecefy":-5149205.00,"ecefz":5804632.00,"ecefvx":9400.00,"ecefvy":10001.00,"ecefvz":9000.00,"ecefpAcc":50.00,"ecefvAcc":30.00,"velE":2832.922,"velD":3389.549,"geoidSep":-22.154}
{"class":"SKY","satellites":[{"PRN":1,"az":0.0,"ss":0.0,"used":true,"gnssid":0,"svid":1},{"PRN":2,"az":100.0,"ss":20.0,"used":true,"gnssid":0,"svid":2},{"PRN":3,"az":180.0,"ss":30.0,"used":true,"gnssid":0,"svid":3},{"PRN":4,"az":150.0,"ss":40.0,"used":true,"gnssid":0,"svid":4},{"PRN":5,"az":0.0,"ss":90.0,"used":false,"gnssid":0,"svid":5},{"PRN":6,"ss":255.0,"used":true,"gnssid":0,"svid":6}]}
{"class":"TPV","mode":3,"time":"2037-12-29T22:02:23.000Z","ept":0.005,"lat":44.068812094,"lon":-121.313997737,"altHAE":2000000.012,"altMSL":2000022.167,"magvar":14.4,"speed":0.000,"climb":-3389.549,"ecefx":-3132489.00,"ecefy":-5149205.00,"ecefz":5804632.00,"ecefvx":9400.00,"ecefvy":10001.00,"ecefvz":9000.00,"ecefpAcc":50.00,"ecefvAcc":30.00,"velE":2832.922,"velD":3389.549,"geoidSep":-22.154}
{"class":"SKY","satellites":[{"PRN":1,"az":0.0,"ss":0.0,"used":true,"gnssid":0,"svid":1},{"PRN":2,"az":100.0,"ss":20.0,"used":true,"gnssid":0,"svid":2},{"PRN":3,"az":180.0,"ss":30.0,"used":true,"gnssid":0,"svid":3},{"PRN":4,"az":150.0,"ss":40.0,"used":true,"gnssid":0,"svid":4},{"PRN":5,"az":0.0,"ss":90.0,"used":false,"gnssid":0,"svid":5},{"PRN":6,"ss":255.0,"used":true,"gnssid":0,"svid":6}]}
{"class":"TPV","mode":3,"time":"2037-12-29T22:02:24.000Z","ept":0.005,"lat":44.068812094,"lon":-121.313997737,"altHAE":2000000.012,"altMSL":2000022.167,"magvar":14.4,"speed":0.000,"climb":-3389.549,"ecefx":-3132489.00,"ecefy":-5149205.00,"ecefz":5804632.00,"ecefvx":9400.00,"ecefvy":10001.00,"ecefvz":9000.00,"ecefpAcc":50.00,"ecefvAcc":30.00,"velE":2832.922,"velD":3389.549,"geoidSep":-22.154}
{"class":"SKY","satellites":[{"PRN":1,"az":0.0,"ss":0.0,"used":true,"gnssid":0,"svid":1},{"PRN":2,"az":100.0,"ss":20.0,"used":true,"gnssid":0,"svid":2},{"PRN":3,"az":180.0,"ss":30.0,"used":true,"gnssid":0,"svid":3},{"PRN":4,"az":150.0,"ss":40.0,"used":true,"gnssid":0,"svid":4},{"PRN":5,"az":0.0,"ss":90.0,"used":false,"gnssid":0,"svid":5},{"PRN":6,"ss":255.0,"used":true,"gnssid":0,"svid":6}]}
{"class":"TPV","mode":3,"time":"2037-12-29T22:02:25.000Z","ept":0.005,"lat":44.068812094,"lon":-121.313997737,"altHAE":2000000.012,"altMSL":2000022.167,"magvar":14.4,"speed":0.000,"climb":-3389.549,"ecefx":-3132489.00,"ecefy":-5149205.00,"ecefz":5804632.00,"ecefvx":9400.00,"ecefvy":10001.00,"ecefvz":9000.00,"ecefpAcc":50.00,"ecefvAcc":30.00,"velE":2832.922,"velD":3389.549,"geoidSep":-22.154}
{"class":"SKY","satellites":[{"PRN":1,"az":0.0,"ss":0.0,"used":true,"gnssid":0,"svid":1},{"PRN":2,"az":100.0,"ss":20.0,"used":true,"gnssid":0,"svid":2},{"PRN":3,"az":180.0,"ss":30.0,"used":true,"gnssid":0,"svid":3},{"PRN":4,"az":150.0,"ss":40.0,"used":true,"gnssid":0,"svid":4},{"PRN":5,"az":0.0,"ss":90.0,"used":false,"gnssid":0,"svid":5},{"PRN":6,"ss":255.0,"used":true,"gnssid":0,"svid":6}]}
{"class":"TPV","mode":3,"time":"2037-12-29T22:02:26.000Z","ept":0.005,"lat":44.068812094,"lon":-121.313997737,"altHAE":2000000.012,"altMSL":2000022.167,"magvar":14.4,"speed":0.000,"climb":-3389.549,"ecefx":-3132489.00,"ecefy":-5149205.00,"ecefz":5804632.00,"ecefvx":9400.00,"ecefvy":10001.00,"ecefvz":9000.00,"ecefpAcc":50.00,"ecefvAcc":30.00,"velE":2832.922,"velD":3389.549,"geoidSep":-22.154}
{"class":"SKY","satellites":[{"PRN":1,"az":0.0,"ss":0.0,"used":true,"gnssid":0,"svid":1},{"PRN":2,"az":100.0,"ss":20.0,"used":true,"gnssid":0,"svid":2},{"PRN":3,"az":180.0,"ss":30.0,"used":true,"gnssid":0,"svid":3},{"PRN":4,"az":150.0,"ss":40.0,"used":true,"gnssid":0,"svid":4},{"PRN":5,"az":0.0,"ss":90.0,"used":false,"gnssid":0,"svid":5},{"PRN":6,"ss":255.0,"used":true,"gnssid":0,"svid":6}]}
{"class":"TPV","mode":3,"time":"2037-12-29T22:02:27.000Z","ept":0.005,"lat":44.068812094,"lon":-121.313997737,"altHAE":2000000.012,"altMSL":2000022.167,"magvar":14.4,"speed":0.000,"climb":-3389.549,"ecefx":-3132489.00,"ecefy":-5149205.00,"ecefz":5804632.00,"ecefvx":9400.00,"ecefvy":10001.00,"ecefvz":9000.00,"ecefpAcc":50.00,"ecefvAcc":30.00,"velE":2832.922,"velD":3389.549,"geoidSep":-22.154}
{"class":"SKY","satellites":[{"PRN":1,"az":0.0,"ss":0.0,"used":true,"gnssid":0,"svid":1},{"PRN":2,"az":100.0,"ss":20.0,"used":true,"gnssid":0,"svid":2},{"PRN":3,"az":180.0,"ss":30.0,"used":true,"gnssid":0,"svid":3},{"PRN":4,"az":150.0,"ss":40.0,"used":true,"gnssid":0,"svid":4},{"PRN":5,"az":0.0,"ss":90.0,"used":false,"gnssid":0,"svid":5},{"PRN":6,"ss":255.0,"used":true,"gnssid":0,"svid":6}]}
