{"class":"TPV","mode":3,"lat":44.068809013,"lon":-121.314096779,"alt":1103.587,"epv":1.281,"track":25.0225,"speed":0.008,"climb":-0.002,"eps":0.01,"ecefx":-2386053.90,"ecefy":-3922195.04,"ecefz":4414355.75,"ecefvx":0.01,"ecefvy":0.00,"ecefvz":0.00,"ecefpAcc":1.44,"ecefvAcc":0.01,"velN":0.007,"velE":0.003,"velD":0.002,"geoidSep":-22.155,"eph":0.659,"sep":26.190}
{"class":"SKY","vdop":1.19,"tdop":0.80,"hdop":0.70,"pdop":1.38,"satellites":[{"PRN":131,"az":174.0,"ss":45.0,"used":true,"gnssid":1,"svid":12},{"PRN":135,"az":196.0,"ss":46.0,"used":true,"gnssid":1,"svid":16},{"PRN":79,"az":206.0,"ss":41.0,"used":true,"gnssid":2,"svid":9},{"PRN":11,"az":66.0,"ss":47.0,"used":true,"gnssid":0,"svid":11},{"PRN":7,"az":126.0,"ss":47.0,"used":true,"gnssid":0,"svid":7},{"PRN":18,"az":56.0,"ss":34.0,"used":true,"gnssid":0,"svid":18},{"PRN":75,"az":254.0,"ss":43.0,"used":true,"gnssid":2,"svid":5},{"PRN":13,"az":262.0,"ss":47.0,"used":true,"gnssid":0,"svid":13},{"PRN":19,"az":196.0,"ss":46.0,"used":true,"gnssid":0,"svid":19},{"PRN":15,"az":298.0,"ss":43.0,"used":true,"gnssid":0,"svid":15},{"PRN":30,"az":122.0,"ss":48.0,"used":true,"gnssid":0,"svid":30},{"PRN":1,"az":80.0,"ss":42.0,"used":true,"gnssid":0,"svid":1},{"PRN":28,"az":38.0,"ss":46.0,"used":true,"gnssid":0,"svid":28},{"PRN":138,"az":160.0,"ss":46.0,"used":true,"gnssid":1,"svid":19},{"PRN":133,"az":192.0,"ss":45.0,"used":false,"gnssid":1,"svid":14},{"PRN":94,"az":326.0,"ss":44.0,"used":true,"gnssid":2,"svid":24},{"PRN":17,"az":186.0,"ss":47.0,"used":true,"gnssid":0,"svid":17},{"PRN":82,"az":140.0,"ss":47.0,"used":true,"gnssid":2,"svid":12}]}
{"class":"TPV","mode":3,"lat":44.068809026,"lon":-121.314096799,"alt":1103.593,"epv":1.278,"track":309.0270,"speed":0.001,"climb":-0.002,"eps":0.01,"ecefx":-2386053.90,"ecefy":-3922195.04,"ecefz":4414355.76,"ecefvx":0.00,"ecefvy":0.00,"ecefvz":-0.00,"ecefpAcc":1.44,"ecefvAcc":0.02,"velN":0.001,"velE":-0.001,"velD":0.002,"geoidSep":-22.155,"eph":0.658,"sep":26.190}
{"class":"SKY","vdop":1.19,"tdop":0.80,"hdop":0.70,"pdop":1.38,"satellites":[{"PRN":131,"az":174.0,"ss":45.0,"used":true,"gnssid":1,"svid":12},{"PRN":135,"az":196.0,"ss":47.0,"used":true,"gnssid":1,"svid":16},{"PRN":79,"az":206.0,"ss":41.0,"used":true,"gnssid":2,"svid":9},{"PRN":11,"az":66.0,"ss":47.0,"used":true,"gnssid":0,"svid":11},{"PRN":7,"az":126.0,"ss":47.0,"used":true,"gnssid":0,"svid":7},{"PRN":18,"az":56.0,"ss":34.0,"used":true,"gnssid":0,"svid":18},{"PRN":75,"az":254.0,"ss":42.0,"used":true,"gnssid":2,"svid":5},{"PRN":13,"az":262.0,"ss":47.0,"used":true,"gnssid":0,"svid":13},{"PRN":19,"az":196.0,"ss":46.0,"used":true,"gnssid":0,"svid":19},{"PRN":15,"az":298.0,"ss":43.0,"used":true,"gnssid":0,"svid":15},{"PRN":30,"az":122.0,"ss":48.0,"used":true,"gnssid":0,"svid":30},{"PRN":1,"az":80.0,"ss":42.0,"used":true,"gnssid":0,"svid":1},{"PRN":28,"az":38.0,"ss":46.0,"used":true,"gnssid":0,"svid":28},{"PRN":138,"az":160.0,"ss":46.0,"used":true,"gnssid":1,"svid":19},{"PRN":133,"az":192.0,"ss":45.0,"used":false,"gnssid":1,"svid":14},{"PRN":94,"az":326.0,"ss":44.0,"used":true,"gnssid":2,"svid":24},{"PRN":17,"az":186.0,"ss":47.0,"used":true,"gnssid":0,"svid":17},{"PRN":82,"az":140.0,"ss":47.0,"used":true,"gnssid":2,"svid":12}]}
{"class":"TPV","mode":3,"lat":44.068809023,"lon":-121.314096795,"alt":1103.592,"epv":1.278,"track":83.8207,"speed":0.008,"climb":-0.005,"eps":0.01,"ecefx":-2386053.90,"ecefy":-3922195.04,"ecefz":4414355.76,"ecefvx":0.01,"ecefvy":-0.00,"ecefvz":-0.00,"ecefpAcc":1.44,"ecefvAcc":0.02,"velN":0.001,"velE":0.008,"velD":0.005,"geoidSep":-22.155,"eph":0.658,"sep":26.189}
{"class":"SKY","vdop":1.19,"tdop":0.80,"hdop":0.70,"pdop":1.38,"satellites":[{"PRN":131,"az":174.0,"ss":45.0,"used":true,"gnssid":1,"svid":12},{"PRN":135,"az":196.0,"ss":47.0,"used":true,"gnssid":1,"svid":16},{"PRN":79,"az":206.0,"ss":41.0,"used":true,"gnssid":2,"svid":9},{"PRN":11,"az":66.0,"ss":47.0,"used":true,"gnssid":0,"svid":11},{"PRN":7,"az":126.0,"ss":47.0,"used":true,"gnssid":0,"svid":7},{"PRN":18,"az":56.0,"ss":34.0,"used":true,"gnssid":0,"svid":18},{"PRN":75,"az":254.0,"ss":43.0,"used":true,"gnssid":2,"svid":5},{"PRN":13,"az":262.0,"ss":47.0,"used":true,"gnssid":0,"svid":13},{"PRN":19,"az":196.0,"ss":46.0,"used":true,"gnssid":0,"svid":19},{"PRN":15,"az":298.0,"ss":43.0,"used":true,"gnssid":0,"svid":15},{"PRN":30,"az":122.0,"ss":48.0,"used":true,"gnssid":0,"svid":30},{"PRN":1,"az":80.0,"ss":42.0,"used":true,"gnssid":0,"svid":1},{"PRN":28,"az":38.0,"ss":46.0,"used":true,"gnssid":0,"svid":28},{"PRN":138,"az":160.0,"ss":47.0,"used":true,"gnssid":1,"svid":19},{"PRN":133,"az":192.0,"ss":45.0,"used":false,"gnssid":1,"svid":14},{"PRN":94,"az":326.0,"ss":44.0,"used":true,"gnssid":2,"svid":24},{"PRN":17,"az":186.0,"ss":47.0,"used":true,"gnssid":0,"svid":17},{"PRN":82,"az":140.0,"ss":47.0,"used":true,"gnssid":2,"svid":12}]}
{"class":"TPV","mode":3,"lat":44.068809032,"lon":-121.314096770,"alt":1103.599,"epv":1.276,"track":54.2451,"speed":0.008,"climb":0.002,"eps":0.01,"ecefx":-2386053.90,"ecefy":-3922195.05,"ecefz":4414355.76,"ecefvx":0.01,"ecefvy":-0.00,"ecefvz":0.00,"ecefpAcc":1.43,"ecefvAcc":0.02,"velN":0.005,"velE":0.006,"velD":-0.002,"geoidSep":-22.155,"eph":0.656,"sep":26.188}
{"class":"SKY","vdop":1.19,"tdop":0.80,"hdop":0.70,"pdop":1.38,"satellites":[{"PRN":131,"az":174.0,"ss":45.0,"used":true,"gnssid":1,"svid":12},{"PRN":135,"az":196.0,"ss":46.0,"used":true,"gnssid":1,"svid":16},{"PRN":79,"az":206.0,"ss":41.0,"used":true,"gnssid":2,"svid":9},{"PRN":11,"az":66.0,"ss":47.0,"used":true,"gnssid":0,"svid":11},{"PRN":7,"az":126.0,"ss":47.0,"used":true,"gnssid":0,"svid":7},{"PRN":18,"az":56.0,"ss":34.0,"used":true,"gnssid":0,"svid":18},{"PRN":75,"az":254.0,"ss":42.0,"used":true,"gnssid":2,"svid":5},{"PRN":13,"az":262.0,"ss":47.0,"used":true,"gnssid":0,"svid":13},{"PRN":19,"az":196.0,"ss":46.0,"used":true,"gnssid":0,"svid":19},{"PRN":15,"az":298.0,"ss":43.0,"used":true,"gnssid":0,"svid":15},{"PRN":30,"az":122.0,"ss":48.0,"used":true,"gnssid":0,"svid":30},{"PRN":1,"az":80.0,"ss":42.0,"used":true,"gnssid":0,"svid":1},{"PRN":28,"az":38.0,"ss":46.0,"used":true,"gnssid":0,"svid":28},{"PRN":138,"az":160.0,"ss":46.0,"used":true,"gnssid":1,"svid":19},{"PRN":133,"az":192.0,"ss":45.0,"used":false,"gnssid":1,"svid":14},{"PRN":94,"az":326.0,"ss":44.0,"used":true,"gnssid":2,"svid":24},{"PRN":17,"az":186.0,"ss":47.0,"used":true,"gnssid":0,"svid":17},{"PRN":82,"az":140.0,"ss":47.0,"used":true,"gnssid":2,"svid":12}]}
{"class":"TPV","mode":3,"lat":44.068809010,"lon":-121.314096763,"alt":1103.604,"epv":1.275,"track":1.3779,"speed":0.004,"climb":0.009,"eps":0.01,"ecefx":-2386053.90,"ecefy":-3922195.05,"ecefz":4414355.76,"ecefvx":-0.00,"ecefvy":-0.00,"ecefvz":0.01,"ecefpAcc":1.43,"ecefvAcc":0.01,"velN":0.004,"velE":0.000,"velD":-0.009,"geoidSep":-22.155,"eph":0.656,"sep":26.187}
{"class":"SKY","vdop":1.19,"tdop":0.80,"hdop":0.70,"pdop":1.38,"satellites":[{"PRN":131,"az":174.0,"ss":45.0,"used":true,"gnssid":1,"svid":12},{"PRN":135,"az":196.0,"ss":46.0,"used":true,"gnssid":1,"svid":16},{"PRN":79,"az":206.0,"ss":41.0,"used":true,"gnssid":2,"svid":9},{"PRN":11,"az":66.0,"ss":47.0,"used":true,"gnssid":0,"svid":11},{"PRN":7,"az":126.0,"ss":47.0,"used":true,"gnssid":0,"svid":7},{"PRN":18,"az":56.0,"ss":34.0,"used":true,"gnssid":0,"svid":18},{"PRN":75,"az":254.0,"ss":43.0,"used":true,"gnssid":2,"svid":5},{"PRN":13,"az":262.0,"ss":47.0,"used":true,"gnssid":0,"svid":13},{"PRN":19,"az":196.0,"ss":46.0,"used":true,"gnssid":0,"svid":19},{"PRN":15,"az":298.0,"ss":44.0,"used":true,"gnssid":0,"svid":15},{"PRN":30,"az":122.0,"ss":48.0,"used":true,"gnssid":0,"svid":30},{"PRN":1,"az":80.0,"ss":42.0,"used":true,"gnssid":0,"svid":1},{"PRN":28,"az":38.0,"ss":46.0,"used":true,"gnssid":0,"svid":28},{"PRN":138,"az":160.0,"ss":46.0,"used":true,"gnssid":1,"svid":19},{"PRN":133,"az":192.0,"ss":45.0,"used":false,"gnssid":1,"svid":14},{"PRN":94,"az":326.0,"ss":44.0,"used":true,"gnssid":2,"svid":24},{"PRN":17,"az":186.0,"ss":47.0,"used":true,"gnssid":0,"svid":17},{"PRN":82,"az":140.0,"ss":47.0,"used":true,"gnssid":2,"svid":12}]}
{"class":"TPV","mode":3,"lat":44.068809034,"lon":-121.314096725,"alt":1103.611,"epv":1.274,"track":84.8268,"speed":0.007,"climb":0.013,"eps":0.01,"ecefx":-2386053.90,"ecefy":-3922195.06,"ecefz":4414355.77,"ecefvx":0.00,"ecefvy":-0.01,"ecefvz":0.01,"ecefpAcc":1.43,"ecefvAcc":0.01,"velN":0.001,"velE":0.007,"velD":-0.013,"geoidSep":-22.155,"eph":0.655,"sep":26.186}
{"class":"SKY","vdop":1.19,"tdop":0.80,"hdop":0.70,"pdop":1.38,"satellites":[{"PRN":131,"az":174.0,"ss":45.0,"used":true,"gnssid":1,"svid":12},{"PRN":135,"az":196.0,"ss":47.0,"used":true,"gnssid":1,"svid":16},{"PRN":79,"az":206.0,"ss":41.0,"used":true,"gnssid":2,"svid":9},{"PRN":11,"az":66.0,"ss":47.0,"used":true,"gnssid":0,"svid":11},{"PRN":7,"az":126.0,"ss":47.0,"used":true,"gnssid":0,"svid":7},{"PRN":18,"az":56.0,"ss":34.0,"used":true,"gnssid":0,"svid":18},{"PRN":75,"az":254.0,"ss":43.0,"used":true,"gnssid":2,"svid":5},{"PRN":13,"az":262.0,"ss":47.0,"used":true,"gnssid":0,"svid":13},{"PRN":19,"az":196.0,"ss":46.0,"used":true,"gnssid":0,"svid":19},{"PRN":15,"az":298.0,"ss":44.0,"used":true,"gnssid":0,"svid":15},{"PRN":30,"az":122.0,"ss":48.0,"used":true,"gnssid":0,"svid":30},{"PRN":1,"az":80.0,"ss":43.0,"used":true,"gnssid":0,"svid":1},{"PRN":28,"az":38.0,"ss":46.0,"used":true,"gnssid":0,"svid":28},{"PRN":138,"az":160.0,"ss":46.0,"used":true,"gnssid":1,"svid":19},{"PRN":133,"az":192.0,"ss":45.0,"used":false,"gnssid":1,"svid":14},{"PRN":94,"az":326.0,"ss":44.0,"used":true,"gnssid":2,"svid":24},{"PRN":17,"az":186.0,"ss":47.0,"used":true,"gnssid":0,"svid":17},{"PRN":82,"az":140.0,"ss":47.0,"used":true,"gnssid":2,"svid":12}]}
{"class":"TPV","mode":3,"lat":44.068809038,"lon":-121.314096717,"alt":1103.609,"epv":27.325,"track":43.6643,"speed":0.009,"climb":0.000,"ecefx":-2386053.90,"ecefy":-3922195.06,"ecefz":4414355.77,"ecefvx":0.01,"ecefvy":0.00,"ecefvz":0.00,"ecefpAcc":1.43,"ecefvAcc":0.03,"velN":0.006,"velE":0.006,"velD":-0.000,"geoidSep":-22.155,"eph":13.271,"sep":26.185}
{"class":"SKY","vdop":1.19,"tdop":0.80,"hdop":0.70,"pdop":1.38,"satellites":[{"PRN":131,"az":174.0,"ss":45.0,"used":true,"gnssid":1,"svid":12},{"PRN":135,"az":196.0,"ss":46.0,"used":true,"gnssid":1,"svid":16},{"PRN":79,"az":206.0,"ss":41.0,"used":true,"gnssid":2,"svid":9},{"PRN":11,"az":66.0,"ss":47.0,"used":true,"gnssid":0,"svid":11},{"PRN":7,"az":126.0,"ss":47.0,"used":true,"gnssid":0,"svid":7},{"PRN":18,"az":56.0,"ss":34.0,"used":true,"gnssid":0,"svid":18},{"PRN":75,"az":254.0,"ss":42.0,"used":true,"gnssid":2,"svid":5},{"PRN":13,"az":262.0,"ss":47.0,"used":true,"gnssid":0,"svid":13},{"PRN":19,"az":196.0,"ss":46.0,"used":true,"gnssid":0,"svid":19},{"PRN":15,"az":298.0,"ss":44.0,"used":true,"gnssid":0,"svid":15},{"PRN":30,"az":122.0,"ss":48.0,"used":true,"gnssid":0,"svid":30},{"PRN":1,"az":80.0,"ss":42.0,"used":true,"gnssid":0,"svid":1},{"PRN":28,"az":38.0,"ss":46.0,"used":true,"gnssid":0,"svid":28},{"PRN":138,"az":160.0,"ss":47.0,"used":true,"gnssid":1,"svid":19},{"PRN":133,"az":192.0,"ss":45.0,"used":false,"gnssid":1,"svid":14},{"PRN":94,"az":326.0,"ss":44.0,"used":true,"gnssid":2,"svid":24},{"PRN":17,"az":186.0,"ss":47.0,"used":true,"gnssid":0,"svid":17},{"PRN":82,"az":140.0,"ss":47.0,"used":true,"gnssid":2,"svid":12}]}
{"class":"TPV","mode":3,"lat":44.068809031,"lon":-121.314096692,"alt":1103.612,"epv":1.273,"track":144.3912,"speed":0.015,"climb":0.003,"eps":0.01,"ecefx":-2386053.90,"ecefy":-3922195.06,"ecefz":4414355.77,"ecefvx":0.00,"ecefvy":-0.01,"ecefvz":-0.01,"ecefpAcc":1.43,"ecefvAcc":0.02,"velN":-0.012,"velE":0.009,"velD":-0.003,"geoidSep":-22.155,"eph":0.655,"sep":26.184}
{"class":"SKY","vdop":1.19,"tdop":0.80,"hdop":0.70,"pdop":1.38,"satellites":[{"PRN":131,"az":174.0,"ss":45.0,"used":true,"gnssid":1,"svid":12},{"PRN":135,"az":196.0,"ss":46.0,"used":true,"gnssid":1,"svid":16},{"PRN":79,"az":206.0,"ss":41.0,"used":true,"gnssid":2,"svid":9},{"PRN":11,"az":66.0,"ss":47.0,"used":true,"gnssid":0,"svid":11},{"PRN":7,"az":126.0,"ss":47.0,"used":true,"gnssid":0,"svid":7},{"PRN":18,"az":56.0,"ss":34.0,"used":true,"gnssid":0,"svid":18},{"PRN":75,"az":254.0,"ss":42.0,"used":true,"gnssid":2,"svid":5},{"PRN":13,"az":262.0,"ss":47.0,"used":true,"gnssid":0,"svid":13},{"PRN":19,"az":196.0,"ss":46.0,"used":true,"gnssid":0,"svid":19},{"PRN":15,"az":298.0,"ss":44.0,"used":true,"gnssid":0,"svid":15},{"PRN":30,"az":122.0,"ss":48.0,"used":true,"gnssid":0,"svid":30},{"PRN":1,"az":80.0,"ss":42.0,"used":true,"gnssid":0,"svid":1},{"PRN":28,"az":38.0,"ss":46.0,"used":true,"gnssid":0,"svid":28},{"PRN":138,"az":160.0,"ss":46.0,"used":true,"gnssid":1,"svid":19},{"PRN":133,"az":192.0,"ss":45.0,"used":false,"gnssid":1,"svid":14},{"PRN":94,"az":326.0,"ss":44.0,"used":true,"gnssid":2,"svid":24},{"PRN":17,"az":186.0,"ss":47.0,"used":true,"gnssid":0,"svid":17},{"PRN":82,"az":140.0,"ss":47.0,"used":true,"gnssid":2,"svid":12}]}
{"class":"TPV","mode":3,"lat":44.068809047,"lon":-121.314096684,"alt":1103.611,"epv":1.271,"track":90.5884,"speed":0.007,"climb":0.002,"eps":0.01,"ecefx":-2386053.90,"ecefy":-3922195.06,"ecefz":4414355.77,"ecefvx":0.01,"ecefvy":-0.01,"ecefvz":0.00,"ecefpAcc":1.43,"ecefvAcc":0.02,"velN":-0.000,"velE":0.007,"velD":-0.002,"geoidSep":-22.155,"eph":0.654,"sep":26.184}
{"class":"SKY","vdop":1.19,"tdop":0.80,"hdop":0.70,"pdop":1.38,"satellites":[{"PRN":131,"az":174.0,"ss":45.0,"used":true,"gnssid":1,"svid":12},{"PRN":135,"az":196.0,"ss":46.0,"used":true,"gnssid":1,"svid":16},{"PRN":79,"az":206.0,"ss":41.0,"used":true,"gnssid":2,"svid":9},{"PRN":11,"az":66.0,"ss":47.0,"used":true,"gnssid":0,"svid":11},{"PRN":7,"az":126.0,"ss":47.0,"used":true,"gnssid":0,"svid":7},{"PRN":18,"az":56.0,"ss":34.0,"used":true,"gnssid":0,"svid":18},{"PRN":75,"az":254.0,"ss":42.0,"used":true,"gnssid":2,"svid":5},{"PRN":13,"az":262.0,"ss":47.0,"used":true,"gnssid":0,"svid":13},{"PRN":19,"az":196.0,"ss":46.0,"used":true,"gnssid":0,"svid":19},{"PRN":15,"az":298.0,"ss":44.0,"used":true,"gnssid":0,"svid":15},{"PRN":30,"az":122.0,"ss":48.0,"used":true,"gnssid":0,"svid":30},{"PRN":1,"az":80.0,"ss":42.0,"used":true,"gnssid":0,"svid":1},{"PRN":28,"az":38.0,"ss":46.0,"used":true,"gnssid":0,"svid":28},{"PRN":138,"az":160.0,"ss":46.0,"used":true,"gnssid":1,"svid":19},{"PRN":133,"az":192.0,"ss":45.0,"used":false,"gnssid":1,"svid":14},{"PRN":94,"az":326.0,"ss":44.0,"used":true,"gnssid":2,"svid":24},{"PRN":17,"az":186.0,"ss":47.0,"used":true,"gnssid":0,"svid":17},{"PRN":82,"az":140.0,"ss":47.0,"used":true,"gnssid":2,"svid":12}]}
{"class":"TPV","mode":3,"lat":44.068809047,"lon":-121.314096680,"alt":1103.614,"epv":1.270,"track":109.7432,"speed":0.009,"climb":-0.003,"eps":0.01,"ecefx":-2386053.90,"ecefy":-3922195.06,"ecefz":4414355.78,"ecefvx":0.01,"ecefvy":-0.00,"ecefvz":-0.00,"ecefpAcc":1.43,"ecefvAcc":0.03,"velN":-0.003,"velE":0.008,"velD":0.003,"geoidSep":-22.155,"eph":0.654,"sep":26.184}
{"class":"SKY","vdop":1.19,"tdop":0.80,"hdop":0.70,"pdop":1.38,"satellites":[{"PRN":131,"az":174.0,"ss":45.0,"used":true,"gnssid":1,"svid":12},{"PRN":135,"az":196.0,"ss":46.0,"used":true,"gnssid":1,"svid":16},{"PRN":79,"az":206.0,"ss":41.0,"used":true,"gnssid":2,"svid":9},{"PRN":11,"az":66.0,"ss":47.0,"used":true,"gnssid":0,"svid":11},{"PRN":7,"az":126.0,"ss":47.0,"used":true,"gnssid":0,"svid":7},{"PRN":18,"az":56.0,"ss":34.0,"used":true,"gnssid":0,"svid":18},{"PRN":75,"az":254.0,"ss":43.0,"used":true,"gnssid":2,"svid":5},{"PRN":13,"az":262.0,"ss":47.0,"used":true,"gnssid":0,"svid":13},{"PRN":19,"az":196.0,"ss":46.0,"used":true,"gnssid":0,"svid":19},{"PRN":15,"az":298.0,"ss":44.0,"used":true,"gnssid":0,"svid":15},{"PRN":30,"az":122.0,"ss":48.0,"used":true,"gnssid":0,"svid":30},{"PRN":1,"az":80.0,"ss":43.0,"used":true,"gnssid":0,"svid":1},{"PRN":28,"az":38.0,"ss":46.0,"used":true,"gnssid":0,"svid":28},{"PRN":138,"az":160.0,"ss":46.0,"used":true,"gnssid":1,"svid":19},{"PRN":133,"az":192.0,"ss":45.0,"used":false,"gnssid":1,"svid":14},{"PRN":94,"az":326.0,"ss":44.0,"used":true,"gnssid":2,"svid":24},{"PRN":17,"az":186.0,"ss":47.0,"used":true,"gnssid":0,"svid":17},{"PRN":82,"az":140.0,"ss":47.0,"used":true,"gnssid":2,"svid":12}]}
{"class":"TPV","mode":3,"lat":44.068809051,"lon":-121.314096675,"alt":1103.613,"epv":1.269,"track":347.8175,"speed":0.005,"climb":-0.002,"eps":0.01,"ecefx":-2386053.90,"ecefy":-3922195.06,"ecefz":4414355.77,"ecefvx":0.00,"ecefvy":0.00,"ecefvz":0.00,"ecefpAcc":1.43,"ecefvAcc":0.02,"velN":0.005,"velE":-0.001,"velD":0.002,"geoidSep":-22.155,"eph":0.653,"sep":26.183}
{"class":"TPV","mode":3,"lat":44.068809062,"lon":-121.314096655,"alt":1103.615,"epv":1.266,"track":0.0257,"speed":0.009,"climb":-0.012,"eps":0.01,"ecefx":-2386053.90,"ecefy":-3922195.06,"ecefz":4414355.78,"ecefvx":0.01,"ecefvy":0.01,"ecefvz":-0.00,"ecefpAcc":1.42,"ecefvAcc":0.02,"velN":0.009,"velE":0.000,"velD":0.012,"geoidSep":-22.155,"eph":0.651,"sep":26.183}
{"class":"SKY","vdop":1.19,"tdop":0.80,"hdop":0.70,"pdop":1.38,"satellites":[{"PRN":131,"az":174.0,"ss":45.0,"used":true,"gnssid":1,"svid":12},{"PRN":135,"az":196.0,"ss":46.0,"used":true,"gnssid":1,"svid":16},{"PRN":79,"az":206.0,"ss":41.0,"used":true,"gnssid":2,"svid":9},{"PRN":11,"az":66.0,"ss":47.0,"used":true,"gnssid":0,"svid":11},{"PRN":7,"az":126.0,"ss":47.0,"used":true,"gnssid":0,"svid":7},{"PRN":18,"az":56.0,"ss":34.0,"used":true,"gnssid":0,"svid":18},{"PRN":75,"az":254.0,"ss":42.0,"used":true,"gnssid":2,"svid":5},{"PRN":13,"az":262.0,"ss":47.0,"used":true,"gnssid":0,"svid":13},{"PRN":19,"az":196.0,"ss":46.0,"used":true,"gnssid":0,"svid":19},{"PRN":15,"az":298.0,"ss":44.0,"used":true,"gnssid":0,"svid":15},{"PRN":30,"az":122.0,"ss":48.0,"used":true,"gnssid":0,"svid":30},{"PRN":1,"az":80.0,"ss":43.0,"used":true,"gnssid":0,"svid":1},{"PRN":28,"az":38.0,"ss":46.0,"used":true,"gnssid":0,"svid":28},{"PRN":138,"az":160.0,"ss":46.0,"used":true,"gnssid":1,"svid":19},{"PRN":133,"az":192.0,"ss":45.0,"used":false,"gnssid":1,"svid":14},{"PRN":94,"az":326.0,"ss":44.0,"used":true,"gnssid":2,"svid":24},{"PRN":17,"az":186.0,"ss":47.0,"used":true,"gnssid":0,"svid":17},{"PRN":82,"az":140.0,"ss":47.0,"used":true,"gnssid":2,"svid":12}]}
{"class":"TPV","mode":3,"lat":44.068809084,"lon":-121.314096645,"alt":1103.613,"epv":1.262,"track":20.8831,"speed":0.010,"climb":-0.001,"eps":0.01,"ecefx":-2386053.89,"ecefy":-3922195.06,"ecefz":4414355.78,"ecefvx":0.01,"ecefvy":0.00,"ecefvz":0.01,"ecefpAcc":1.42,"ecefvAcc":0.03,"velN":0.009,"velE":0.004,"velD":0.001,"geoidSep":-22.155,"eph":0.649,"sep":26.182}
{"class":"TPV","mode":3,"lat":44.068809096,"lon":-121.314096615,"alt":1103.619,"epv":1.259,"track":44.5163,"speed":0.015,"climb":0.002,"eps":0.01,"ecefx":-2386053.89,"ecefy":-3922195.06,"ecefz":4414355.78,"ecefvx":0.01,"ecefvy":-0.00,"ecefvz":0.01,"ecefpAcc":1.42,"ecefvAcc":0.03,"velN":0.011,"velE":0.011,"velD":-0.002,"geoidSep":-22.155,"eph":0.648,"sep":26.182}
{"class":"SKY","vdop":1.19,"tdop":0.80,"hdop":0.70,"pdop":1.38,"satellites":[{"PRN":131,"az":174.0,"ss":45.0,"used":true,"gnssid":1,"svid":12},{"PRN":135,"az":196.0,"ss":46.0,"used":true,"gnssid":1,"svid":16},{"PRN":79,"az":206.0,"ss":41.0,"used":true,"gnssid":2,"svid":9},{"PRN":11,"az":66.0,"ss":47.0,"used":true,"gnssid":0,"svid":11},{"PRN":7,"az":126.0,"ss":47.0,"used":true,"gnssid":0,"svid":7},{"PRN":18,"az":56.0,"ss":34.0,"used":true,"gnssid":0,"svid":18},{"PRN":75,"az":254.0,"ss":43.0,"used":true,"gnssid":2,"svid":5},{"PRN":13,"az":262.0,"ss":47.0,"used":true,"gnssid":0,"svid":13},{"PRN":19,"az":196.0,"ss":47.0,"used":true,"gnssid":0,"svid":19},{"PRN":15,"az":298.0,"ss":44.0,"used":true,"gnssid":0,"svid":15},{"PRN":30,"az":122.0,"ss":48.0,"used":true,"gnssid":0,"svid":30},{"PRN":1,"az":80.0,"ss":43.0,"used":true,"gnssid":0,"svid":1},{"PRN":28,"az":38.0,"ss":46.0,"used":true,"gnssid":0,"svid":28},{"PRN":138,"az":160.0,"ss":46.0,"used":true,"gnssid":1,"svid":19},{"PRN":133,"az":192.0,"ss":45.0,"used":false,"gnssid":1,"svid":14},{"PRN":94,"az":326.0,"ss":44.0,"used":true,"gnssid":2,"svid":24},{"PRN":17,"az":186.0,"ss":47.0,"used":true,"gnssid":0,"svid":17},{"PRN":82,"az":140.0,"ss":47.0,"used":true,"gnssid":2,"svid":12}]}
{"class":"TPV","mode":3,"lat":44.068809124,"lon":-121.314096630,"alt":1103.621,"epv":1.256,"track":347.8254,"speed":0.003,"climb":0.006,"eps":0.01,"ecefx":-2386053.90,"ecefy":-3922195.06,"ecefz":4414355.79,"ecefvx":-0.00,"ecefvy":-0.00,"ecefvz":0.01,"ecefpAcc":1.41,"ecefvAcc":0.02,"velN":0.003,"velE":-0.001,"velD":-0.006,"geoidSep":-22.155,"eph":0.646,"sep":26.181}
{"class":"TPV","mode":3,"lat":44.068809143,"lon":-121.314096624,"alt":1103.623,"epv":1.251,"track":10.5222,"speed":0.006,"climb":-0.000,"eps":0.01,"ecefx":-2386053.89,"ecefy":-3922195.06,"ecefz":4414355.79,"ecefvx":0.00,"ecefvy":0.00,"ecefvz":0.00,"ecefpAcc":1.41,"ecefvAcc":0.02,"velN":0.006,"velE":0.001,"velD":0.000,"geoidSep":-22.155,"eph":0.644,"sep":26.181}
{"class":"SKY","vdop":1.19,"tdop":0.80,"hdop":0.70,"pdop":1.38,"satellites":[{"PRN":131,"az":174.0,"ss":45.0,"used":true,"gnssid":1,"svid":12},{"PRN":135,"az":196.0,"ss":46.0,"used":true,"gnssid":1,"svid":16},{"PRN":79,"az":206.0,"ss":41.0,"used":true,"gnssid":2,"svid":9},{"PRN":11,"az":66.0,"ss":47.0,"used":true,"gnssid":0,"svid":11},{"PRN":7,"az":126.0,"ss":47.0,"used":true,"gnssid":0,"svid":7},{"PRN":18,"az":56.0,"ss":34.0,"used":true,"gnssid":0,"svid":18},{"PRN":75,"az":254.0,"ss":42.0,"used":true,"gnssid":2,"svid":5},{"PRN":13,"az":262.0,"ss":47.0,"used":true,"gnssid":0,"svid":13},{"PRN":19,"az":196.0,"ss":47.0,"used":true,"gnssid":0,"svid":19},{"PRN":15,"az":298.0,"ss":44.0,"used":true,"gnssid":0,"svid":15},{"PRN":30,"az":122.0,"ss":48.0,"used":true,"gnssid":0,"svid":30},{"PRN":1,"az":80.0,"ss":43.0,"used":true,"gnssid":0,"svid":1},{"PRN":28,"az":38.0,"ss":46.0,"used":true,"gnssid":0,"svid":28},{"PRN":138,"az":160.0,"ss":46.0,"used":true,"gnssid":1,"svid":19},{"PRN":133,"az":192.0,"ss":45.0,"used":false,"gnssid":1,"svid":14},{"PRN":94,"az":326.0,"ss":44.0,"used":true,"gnssid":2,"svid":24},{"PRN":17,"az":186.0,"ss":47.0,"used":true,"gnssid":0,"svid":17},{"PRN":82,"az":140.0,"ss":47.0,"used":true,"gnssid":2,"svid":12}]}
{"class":"TPV","mode":3,"lat":44.068809166,"lon":-121.314096609,"alt":1103.624,"epv":1.247,"track":5.7631,"speed":0.016,"climb":-0.007,"eps":0.01,"ecefx":-2386053.89,"ecefy":-3922195.06,"ecefz":4414355.79,"ecefvx":0.01,"ecefvy":0.01,"ecefvz":0.01,"ecefpAcc":1.40,"ecefvAcc":0.02,"velN":0.016,"velE":0.002,"velD":0.007,"geoidSep":-22.155,"eph":0.642,"sep":26.180}
{"class":"TPV","mode":3,"lat":44.068809188,"lon":-121.314096622,"alt":1103.623,"epv":1.245,"track":357.2622,"speed":0.003,"climb":-0.003,"eps":0.01,"ecefx":-2386053.89,"ecefy":-3922195.06,"ecefz":4414355.79,"ecefvx":0.00,"ecefvy":0.00,"ecefvz":-0.00,"ecefpAcc":1.40,"ecefvAcc":0.02,"velN":0.003,"velE":-0.000,"velD":0.003,"geoidSep":-22.155,"eph":0.640,"sep":26.180}
{"class":"SKY","vdop":1.19,"tdop":0.80,"hdop":0.70,"pdop":1.38,"satellites":[{"PRN":131,"az":174.0,"ss":45.0,"used":true,"gnssid":1,"svid":12},{"PRN":135,"az":196.0,"ss":46.0,"used":true,"gnssid":1,"svid":16},{"PRN":79,"az":206.0,"ss":41.0,"used":true,"gnssid":2,"svid":9},{"PRN":11,"az":66.0,"ss":47.0,"used":true,"gnssid":0,"svid":11},{"PRN":7,"az":126.0,"ss":47.0,"used":true,"gnssid":0,"svid":7},{"PRN":18,"az":56.0,"ss":34.0,"used":true,"gnssid":0,"svid":18},{"PRN":75,"az":254.0,"ss":42.0,"used":true,"gnssid":2,"svid":5},{"PRN":13,"az":262.0,"ss":47.0,"used":true,"gnssid":0,"svid":13},{"PRN":19,"az":196.0,"ss":46.0,"used":true,"gnssid":0,"svid":19},{"PRN":15,"az":298.0,"ss":44.0,"used":true,"gnssid":0,"svid":15},{"PRN":30,"az":122.0,"ss":48.0,"used":true,"gnssid":0,"svid":30},{"PRN":1,"az":80.0,"ss":43.0,"used":true,"gnssid":0,"svid":1},{"PRN":28,"az":38.0,"ss":46.0,"used":true,"gnssid":0,"svid":28},{"PRN":138,"az":160.0,"ss":46.0,"used":true,"gnssid":1,"svid":19},{"PRN":133,"az":192.0,"ss":45.0,"used":false,"gnssid":1,"svid":14},{"PRN":94,"az":326.0,"ss":44.0,"used":true,"gnssid":2,"svid":24},{"PRN":17,"az":186.0,"ss":47.0,"used":true,"gnssid":0,"svid":17},{"PRN":82,"az":140.0,"ss":47.0,"used":true,"gnssid":2,"svid":12}]}
{"class":"TPV","mode":3,"lat":44.068809203,"lon":-121.314096629,"alt":1103.618,"epv":1.240,"track":24.5535,"speed":0.009,"climb":-0.004,"eps":0.01,"ecefx":-2386053.89,"ecefy":-3922195.06,"ecefz":4414355.79,"ecefvx":0.01,"ecefvy":0.01,"ecefvz":0.00,"ecefpAcc":1.40,"ecefvAcc":0.02,"velN":0.008,"velE":0.004,"velD":0.004,"geoidSep":-22.155,"eph":0.638,"sep":26.179}
{"class":"SKY","vdop":1.19,"tdop":0.80,"hdop":0.70,"pdop":1.38,"satellites":[{"PRN":131,"az":174.0,"ss":45.0,"used":false,"gnssid":1,"svid":12},{"PRN":135,"az":196.0,"ss":46.0,"used":false,"gnssid":1,"svid":16},{"PRN":79,"az":206.0,"ss":41.0,"used":false,"gnssid":2,"svid":9},{"PRN":11,"az":66.0,"ss":47.0,"used":false,"gnssid":0,"svid":11},{"PRN":7,"az":126.0,"ss":47.0,"used":false,"gnssid":0,"svid":7},{"PRN":18,"az":56.0,"ss":35.0,"used":false,"gnssid":0,"svid":18},{"PRN":75,"az":254.0,"ss":42.0,"used":false,"gnssid":2,"svid":5},{"PRN":13,"az":262.0,"ss":47.0,"used":false,"gnssid":0,"svid":13},{"PRN":19,"az":196.0,"ss":46.0,"used":false,"gnssid":0,"svid":19},{"PRN":15,"az":298.0,"ss":44.0,"used":false,"gnssid":0,"svid":15},{"PRN":30,"az":122.0,"ss":48.0,"used":false,"gnssid":0,"svid":30},{"PRN":1,"az":80.0,"ss":43.0,"used":false,"gnssid":0,"svid":1},{"PRN":28,"az":38.0,"ss":46.0,"used":false,"gnssid":0,"svid":28},{"PRN":138,"az":160.0,"ss":46.0,"used":false,"gnssid":1,"svid":19},{"PRN":133,"az":192.0,"ss":45.0,"used":false,"gnssid":1,"svid":14},{"PRN":94,"az":326.0,"ss":44.0,"used":false,"gnssid":2,"svid":24},{"PRN":17,"az":186.0,"ss":47.0,"used":false,"gnssid":0,"svid":17},{"PRN":82,"az":140.0,"ss":47.0,"used":false,"gnssid":2,"svid":12}]}
{"class":"TPV","mode":3,"lat":44.068809202,"lon":-121.314096636,"alt":1103.620,"epv":1.239,"track":329.3512,"speed":0.002,"climb":0.001,"eps":0.01,"ecefx":-2386053.89,"ecefy":-3922195.06,"ecefz":4414355.79,"ecefvx":-0.00,"ecefvy":0.00,"ecefvz":0.00,"ecefpAcc":1.39,"ecefvAcc":0.01,"velN":0.002,"velE":-0.001,"velD":-0.001,"geoidSep":-22.155,"eph":0.638,"sep":26.179}
{"class":"SKY","vdop":1.19,"tdop":0.80,"hdop":0.70,"pdop":1.38,"satellites":[{"PRN":131,"az":174.0,"ss":45.0,"used":true,"gnssid":1,"svid":12},{"PRN":135,"az":196.0,"ss":46.0,"used":true,"gnssid":1,"svid":16},{"PRN":79,"az":206.0,"ss":41.0,"used":true,"gnssid":2,"svid":9},{"PRN":11,"az":66.0,"ss":47.0,"used":true,"gnssid":0,"svid":11},{"PRN":7,"az":126.0,"ss":47.0,"used":true,"gnssid":0,"svid":7},{"PRN":18,"az":56.0,"ss":34.0,"used":true,"gnssid":0,"svid":18},{"PRN":75,"az":254.0,"ss":43.0,"used":true,"gnssid":2,"svid":5},{"PRN":13,"az":262.0,"ss":47.0,"used":true,"gnssid":0,"svid":13},{"PRN":19,"az":196.0,"ss":47.0,"used":true,"gnssid":0,"svid":19},{"PRN":15,"az":298.0,"ss":44.0,"used":true,"gnssid":0,"svid":15},{"PRN":30,"az":122.0,"ss":48.0,"used":true,"gnssid":0,"svid":30},{"PRN":1,"az":80.0,"ss":43.0,"used":true,"gnssid":0,"svid":1},{"PRN":28,"az":38.0,"ss":46.0,"used":true,"gnssid":0,"svid":28},{"PRN":138,"az":160.0,"ss":46.0,"used":true,"gnssid":1,"svid":19},{"PRN":133,"az":192.0,"ss":45.0,"used":false,"gnssid":1,"svid":14},{"PRN":94,"az":326.0,"ss":44.0,"used":true,"gnssid":2,"svid":24},{"PRN":17,"az":186.0,"ss":47.0,"used":true,"gnssid":0,"svid":17},{"PRN":82,"az":140.0,"ss":47.0,"used":true,"gnssid":2,"svid":12}]}
{"class":"TPV","mode":3,"lat":44.068809217,"lon":-121.314096648,"alt":1103.620,"epv":1.236,"track":345.3285,"speed":0.000,"climb":-0.004,"eps":0.01,"ecefx":-2386053.89,"ecefy":-3922195.05,"ecefz":4414355.79,"ecefvx":0.00,"ecefvy":0.00,"ecefvz":-0.00,"ecefpAcc":1.39,"ecefvAcc":0.01,"velN":0.000,"velE":-0.000,"velD":0.004,"geoidSep":-22.155,"eph":0.636,"sep":26.179}
{"class":"SKY","vdop":1.19,"tdop":0.80,"hdop":0.70,"pdop":1.38,"satellites":[{"PRN":131,"az":174.0,"ss":45.0,"used":true,"gnssid":1,"svid":12},{"PRN":135,"az":196.0,"ss":46.0,"used":true,"gnssid":1,"svid":16},{"PRN":79,"az":206.0,"ss":41.0,"used":true,"gnssid":2,"svid":9},{"PRN":11,"az":66.0,"ss":47.0,"used":true,"gnssid":0,"svid":11},{"PRN":7,"az":126.0,"ss":47.0,"used":true,"gnssid":0,"svid":7},{"PRN":18,"az":56.0,"ss":35.0,"used":true,"gnssid":0,"svid":18},{"PRN":75,"az":254.0,"ss":42.0,"used":true,"gnssid":2,"svid":5},{"PRN":13,"az":262.0,"ss":47.0,"used":true,"gnssid":0,"svid":13},{"PRN":19,"az":196.0,"ss":46.0,"used":true,"gnssid":0,"svid":19},{"PRN":15,"az":298.0,"ss":44.0,"used":true,"gnssid":0,"svid":15},{"PRN":30,"az":122.0,"ss":48.0,"used":true,"gnssid":0,"svid":30},{"PRN":1,"az":80.0,"ss":43.0,"used":true,"gnssid":0,"svid":1},{"PRN":28,"az":38.0,"ss":46.0,"used":true,"gnssid":0,"svid":28},{"PRN":138,"az":160.0,"ss":46.0,"used":true,"gnssid":1,"svid":19},{"PRN":133,"az":192.0,"ss":45.0,"used":false,"gnssid":1,"svid":14},{"PRN":94,"az":326.0,"ss":44.0,"used":true,"gnssid":2,"svid":24},{"PRN":17,"az":186.0,"ss":47.0,"used":true,"gnssid":0,"svid":17},{"PRN":82,"az":140.0,"ss":47.0,"used":true,"gnssid":2,"svid":12}]}
{"class":"TPV","mode":3,"lat":44.068809237,"lon":-121.314096662,"alt":1103.623,"epv":1.231,"track":20.0759,"speed":0.008,"climb":0.012,"eps":0.01,"ecefx":-2386053.89,"ecefy":-3922195.05,"ecefz":4414355.80,"ecefvx":0.00,"ecefvy":-0.00,"ecefvz":0.01,"ecefpAcc":1.38,"ecefvAcc":0.02,"velN":0.008,"velE":0.003,"velD":-0.012,"geoidSep":-22.155,"eph":0.633,"sep":26.178}
{"class":"SKY","vdop":1.19,"tdop":0.80,"hdop":0.70,"pdop":1.38,"satellites":[{"PRN":131,"az":174.0,"ss":45.0,"used":true,"gnssid":1,"svid":12},{"PRN":135,"az":196.0,"ss":46.0,"used":true,"gnssid":1,"svid":16},{"PRN":79,"az":206.0,"ss":41.0,"used":true,"gnssid":2,"svid":9},{"PRN":11,"az":66.0,"ss":47.0,"used":true,"gnssid":0,"svid":11},{"PRN":7,"az":126.0,"ss":47.0,"used":true,"gnssid":0,"svid":7},{"PRN":18,"az":56.0,"ss":35.0,"used":true,"gnssid":0,"svid":18},{"PRN":75,"az":254.0,"ss":42.0,"used":true,"gnssid":2,"svid":5},{"PRN":13,"az":262.0,"ss":47.0,"used":true,"gnssid":0,"svid":13},{"PRN":19,"az":196.0,"ss":47.0,"used":true,"gnssid":0,"svid":19},{"PRN":15,"az":298.0,"ss":44.0,"used":true,"gnssid":0,"svid":15},{"PRN":30,"az":122.0,"ss":48.0,"used":true,"gnssid":0,"svid":30},{"PRN":1,"az":80.0,"ss":42.0,"used":true,"gnssid":0,"svid":1},{"PRN":28,"az":38.0,"ss":46.0,"used":true,"gnssid":0,"svid":28},{"PRN":138,"az":160.0,"ss":46.0,"used":true,"gnssid":1,"svid":19},{"PRN":133,"az":192.0,"ss":45.0,"used":false,"gnssid":1,"svid":14},{"PRN":94,"az":326.0,"ss":44.0,"used":true,"gnssid":2,"svid":24},{"PRN":17,"az":186.0,"ss":47.0,"used":true,"gnssid":0,"svid":17},{"PRN":82,"az":140.0,"ss":47.0,"used":true,"gnssid":2,"svid":12}]}
{"class":"TPV","mode":3,"lat":44.068809257,"lon":-121.314096701,"alt":1103.615,"epv":1.226,"track":320.0172,"speed":0.013,"climb":0.007,"eps":0.01,"ecefx":-2386053.89,"ecefy":-3922195.05,"ecefz":4414355.79,"ecefvx":-0.01,"ecefvy":0.01,"ecefvz":0.01,"ecefpAcc":1.38,"ecefvAcc":0.03,"velN":0.010,"velE":-0.008,"velD":-0.007,"geoidSep":-22.155,"eph":0.631,"sep":26.177}
{"class":"SKY","vdop":1.19,"tdop":0.80,"hdop":0.70,"pdop":1.38,"satellites":[{"PRN":131,"az":174.0,"ss":45.0,"used":true,"gnssid":1,"svid":12},{"PRN":135,"az":196.0,"ss":46.0,"used":true,"gnssid":1,"svid":16},{"PRN":79,"az":206.0,"ss":41.0,"used":true,"gnssid":2,"svid":9},{"PRN":11,"az":66.0,"ss":47.0,"used":true,"gnssid":0,"svid":11},{"PRN":7,"az":126.0,"ss":47.0,"used":true,"gnssid":0,"svid":7},{"PRN":18,"az":56.0,"ss":35.0,"used":true,"gnssid":0,"svid":18},{"PRN":75,"az":254.0,"ss":42.0,"used":true,"gnssid":2,"svid":5},{"PRN":13,"az":262.0,"ss":47.0,"used":true,"gnssid":0,"svid":13},{"PRN":19,"az":196.0,"ss":47.0,"used":true,"gnssid":0,"svid":19},{"PRN":15,"az":298.0,"ss":44.0,"used":true,"gnssid":0,"svid":15},{"PRN":30,"az":122.0,"ss":48.0,"used":true,"gnssid":0,"svid":30},{"PRN":1,"az":80.0,"ss":43.0,"used":true,"gnssid":0,"svid":1},{"PRN":28,"az":38.0,"ss":46.0,"used":true,"gnssid":0,"svid":28},{"PRN":138,"az":160.0,"ss":46.0,"used":true,"gnssid":1,"svid":19},{"PRN":133,"az":192.0,"ss":45.0,"used":false,"gnssid":1,"svid":14},{"PRN":94,"az":326.0,"ss":44.0,"used":true,"gnssid":2,"svid":24},{"PRN":17,"az":186.0,"ss":47.0,"used":true,"gnssid":0,"svid":17},{"PRN":82,"az":140.0,"ss":47.0,"used":true,"gnssid":2,"svid":12}]}
{"class":"TPV","mode":3,"lat":44.068809265,"lon":-121.314096739,"alt":1103.611,"epv":1.224,"track":303.7154,"speed":0.016,"climb":-0.005,"eps":0.01,"ecefx":-2386053.89,"ecefy":-3922195.04,"ecefz":4414355.79,"ecefvx":-0.01,"ecefvy":0.02,"ecefvz":0.00,"ecefpAcc":1.38,"ecefvAcc":0.02,"velN":0.009,"velE":-0.014,"velD":0.005,"geoidSep":-22.155,"eph":0.630,"sep":26.176}
{"class":"SKY","vdop":1.19,"tdop":0.80,"hdop":0.70,"pdop":1.38,"satellites":[{"PRN":131,"az":174.0,"ss":45.0,"used":true,"gnssid":1,"svid":12},{"PRN":135,"az":196.0,"ss":46.0,"used":true,"gnssid":1,"svid":16},{"PRN":79,"az":206.0,"ss":41.0,"used":true,"gnssid":2,"svid":9},{"PRN":11,"az":66.0,"ss":47.0,"used":true,"gnssid":0,"svid":11},{"PRN":7,"az":126.0,"ss":47.0,"used":true,"gnssid":0,"svid":7},{"PRN":18,"az":56.0,"ss":35.0,"used":true,"gnssid":0,"svid":18},{"PRN":75,"az":254.0,"ss":42.0,"used":true,"gnssid":2,"svid":5},{"PRN":13,"az":262.0,"ss":47.0,"used":true,"gnssid":0,"svid":13},{"PRN":19,"az":196.0,"ss":47.0,"used":true,"gnssid":0,"svid":19},{"PRN":15,"az":298.0,"ss":44.0,"used":true,"gnssid":0,"svid":15},{"PRN":30,"az":122.0,"ss":48.0,"used":true,"gnssid":0,"svid":30},{"PRN":1,"az":80.0,"ss":43.0,"used":true,"gnssid":0,"svid":1},{"PRN":28,"az":38.0,"ss":46.0,"used":true,"gnssid":0,"svid":28},{"PRN":138,"az":160.0,"ss":46.0,"used":true,"gnssid":1,"svid":19},{"PRN":133,"az":192.0,"ss":45.0,"used":false,"gnssid":1,"svid":14},{"PRN":94,"az":326.0,"ss":44.0,"used":true,"gnssid":2,"svid":24},{"PRN":17,"az":186.0,"ss":47.0,"used":true,"gnssid":0,"svid":17},{"PRN":82,"az":140.0,"ss":47.0,"used":true,"gnssid":2,"svid":12}]}
{"class":"TPV","mode":3,"lat":44.068809263,"lon":-121.314096756,"alt":1103.609,"epv":1.222,"track":231.6439,"speed":0.010,"climb":-0.022,"eps":0.01,"ecefx":-2386053.89,"ecefy":-3922195.04,"ecefz":4414355.79,"ecefvx":-0.00,"ecefvy":0.01,"ecefvz":-0.02,"ecefpAcc":1.37,"ecefvAcc":0.03,"velN":-0.006,"velE":-0.008,"velD":0.022,"geoidSep":-22.155,"eph":0.629,"sep":26.176}
{"class":"SKY","vdop":1.19,"tdop":0.80,"hdop":0.70,"pdop":1.38,"satellites":[{"PRN":131,"az":174.0,"ss":45.0,"used":true,"gnssid":1,"svid":12},{"PRN":135,"az":196.0,"ss":46.0,"used":true,"gnssid":1,"svid":16},{"PRN":79,"az":206.0,"ss":40.0,"used":true,"gnssid":2,"svid":9},{"PRN":11,"az":66.0,"ss":47.0,"used":true,"gnssid":0,"svid":11},{"PRN":7,"az":126.0,"ss":47.0,"used":true,"gnssid":0,"svid":7},{"PRN":18,"az":56.0,"ss":35.0,"used":true,"gnssid":0,"svid":18},{"PRN":75,"az":254.0,"ss":42.0,"used":true,"gnssid":2,"svid":5},{"PRN":13,"az":262.0,"ss":47.0,"used":true,"gnssid":0,"svid":13},{"PRN":19,"az":196.0,"ss":47.0,"used":true,"gnssid":0,"svid":19},{"PRN":15,"az":298.0,"ss":44.0,"used":true,"gnssid":0,"svid":15},{"PRN":30,"az":122.0,"ss":48.0,"used":true,"gnssid":0,"svid":30},{"PRN":1,"az":80.0,"ss":43.0,"used":true,"gnssid":0,"svid":1},{"PRN":28,"az":38.0,"ss":46.0,"used":true,"gnssid":0,"svid":28},{"PRN":138,"az":160.0,"ss":46.0,"used":true,"gnssid":1,"svid":19},{"PRN":133,"az":192.0,"ss":45.0,"used":false,"gnssid":1,"svid":14},{"PRN":94,"az":326.0,"ss":44.0,"used":true,"gnssid":2,"svid":24},{"PRN":17,"az":186.0,"ss":47.0,"used":true,"gnssid":0,"svid":17},{"PRN":82,"az":140.0,"ss":47.0,"used":true,"gnssid":2,"svid":12}]}
{"class":"TPV","mode":3,"lat":44.068809261,"lon":-121.314096823,"alt":1103.605,"epv":1.224,"track":222.0091,"speed":0.011,"climb":0.012,"eps":0.01,"ecefx":-2386053.90,"ecefy":-3922195.04,"ecefz":4414355.79,"ecefvx":-0.01,"ecefvy":-0.01,"ecefvz":0.00,"ecefpAcc":1.38,"ecefvAcc":0.02,"velN":-0.008,"velE":-0.007,"velD":-0.012,"geoidSep":-22.155,"eph":0.630,"sep":26.175}
{"class":"SKY","vdop":1.19,"tdop":0.80,"hdop":0.70,"pdop":1.38,"satellites":[{"PRN":131,"az":174.0,"ss":45.0,"used":true,"gnssid":1,"svid":12},{"PRN":135,"az":196.0,"ss":46.0,"used":true,"gnssid":1,"svid":16},{"PRN":79,"az":206.0,"ss":41.0,"used":true,"gnssid":2,"svid":9},{"PRN":11,"az":66.0,"ss":47.0,"used":true,"gnssid":0,"svid":11},{"PRN":7,"az":126.0,"ss":47.0,"used":true,"gnssid":0,"svid":7},{"PRN":18,"az":56.0,"ss":35.0,"used":true,"gnssid":0,"svid":18},{"PRN":75,"az":254.0,"ss":42.0,"used":true,"gnssid":2,"svid":5},{"PRN":13,"az":262.0,"ss":47.0,"used":true,"gnssid":0,"svid":13},{"PRN":19,"az":196.0,"ss":47.0,"used":true,"gnssid":0,"svid":19},{"PRN":15,"az":298.0,"ss":44.0,"used":true,"gnssid":0,"svid":15},{"PRN":30,"az":122.0,"ss":48.0,"used":true,"gnssid":0,"svid":30},{"PRN":1,"az":80.0,"ss":43.0,"used":true,"gnssid":0,"svid":1},{"PRN":28,"az":38.0,"ss":46.0,"used":true,"gnssid":0,"svid":28},{"PRN":138,"az":160.0,"ss":46.0,"used":true,"gnssid":1,"svid":19},{"PRN":133,"az":192.0,"ss":45.0,"used":false,"gnssid":1,"svid":14},{"PRN":94,"az":326.0,"ss":44.0,"used":true,"gnssid":2,"svid":24},{"PRN":17,"az":186.0,"ss":47.0,"used":true,"gnssid":0,"svid":17},{"PRN":82,"az":140.0,"ss":47.0,"used":true,"gnssid":2,"svid":12}]}
{"class":"TPV","mode":3,"lat":44.068809268,"lon":-121.314096874,"alt":1103.600,"epv":1.225,"track":232.0213,"speed":0.009,"climb":0.011,"eps":0.02,"ecefx":-2386053.90,"ecefy":-3922195.03,"ecefz":4414355.78,"ecefvx":-0.01,"ecefvy":-0.01,"ecefvz":0.00,"ecefpAcc":1.38,"ecefvAcc":0.04,"velN":-0.006,"velE":-0.007,"velD":-0.011,"geoidSep":-22.155,"eph":0.631,"sep":26.174}
{"class":"SKY","vdop":1.19,"tdop":0.80,"hdop":0.70,"pdop":1.38,"satellites":[{"PRN":131,"az":174.0,"ss":45.0,"used":true,"gnssid":1,"svid":12},{"PRN":135,"az":196.0,"ss":46.0,"used":true,"gnssid":1,"svid":16},{"PRN":79,"az":206.0,"ss":40.0,"used":true,"gnssid":2,"svid":9},{"PRN":11,"az":66.0,"ss":47.0,"used":true,"gnssid":0,"svid":11},{"PRN":7,"az":126.0,"ss":47.0,"used":true,"gnssid":0,"svid":7},{"PRN":18,"az":56.0,"ss":35.0,"used":true,"gnssid":0,"svid":18},{"PRN":75,"az":254.0,"ss":42.0,"used":true,"gnssid":2,"svid":5},{"PRN":13,"az":262.0,"ss":47.0,"used":true,"gnssid":0,"svid":13},{"PRN":19,"az":196.0,"ss":47.0,"used":true,"gnssid":0,"svid":19},{"PRN":15,"az":298.0,"ss":44.0,"used":true,"gnssid":0,"svid":15},{"PRN":30,"az":122.0,"ss":48.0,"used":true,"gnssid":0,"svid":30},{"PRN":1,"az":80.0,"ss":43.0,"used":true,"gnssid":0,"svid":1},{"PRN":28,"az":38.0,"ss":46.0,"used":true,"gnssid":0,"svid":28},{"PRN":138,"az":160.0,"ss":46.0,"used":true,"gnssid":1,"svid":19},{"PRN":133,"az":192.0,"ss":45.0,"used":false,"gnssid":1,"svid":14},{"PRN":94,"az":326.0,"ss":44.0,"used":true,"gnssid":2,"svid":24},{"PRN":17,"az":186.0,"ss":47.0,"used":true,"gnssid":0,"svid":17},{"PRN":82,"az":140.0,"ss":47.0,"used":true,"gnssid":2,"svid":12}]}
{"class":"TPV","mode":3,"lat":44.068809230,"lon":-121.314096936,"alt":1103.596,"epv":1.224,"track":183.4138,"speed":0.005,"climb":-0.010,"eps":0.01,"ecefx":-2386053.90,"ecefy":-3922195.03,"ecefz":4414355.78,"ecefvx":0.00,"ecefvy":0.00,"ecefvz":-0.01,"ecefpAcc":1.38,"ecefvAcc":0.03,"velN":-0.005,"velE":-0.000,"velD":0.010,"geoidSep":-22.155,"eph":0.630,"sep":26.173}
{"class":"SKY","vdop":1.19,"tdop":0.80,"hdop":0.70,"pdop":1.38,"satellites":[{"PRN":131,"az":174.0,"ss":45.0,"used":true,"gnssid":1,"svid":12},{"PRN":135,"az":196.0,"ss":46.0,"used":true,"gnssid":1,"svid":16},{"PRN":79,"az":206.0,"ss":40.0,"used":true,"gnssid":2,"svid":9},{"PRN":11,"az":66.0,"ss":47.0,"used":true,"gnssid":0,"svid":11},{"PRN":7,"az":126.0,"ss":47.0,"used":true,"gnssid":0,"svid":7},{"PRN":18,"az":56.0,"ss":35.0,"used":true,"gnssid":0,"svid":18},{"PRN":75,"az":254.0,"ss":42.0,"used":true,"gnssid":2,"svid":5},{"PRN":13,"az":262.0,"ss":47.0,"used":true,"gnssid":0,"svid":13},{"PRN":19,"az":196.0,"ss":47.0,"used":true,"gnssid":0,"svid":19},{"PRN":15,"az":298.0,"ss":44.0,"used":true,"gnssid":0,"svid":15},{"PRN":30,"az":122.0,"ss":48.0,"used":true,"gnssid":0,"svid":30},{"PRN":1,"az":80.0,"ss":43.0,"used":true,"gnssid":0,"svid":1},{"PRN":28,"az":38.0,"ss":46.0,"used":true,"gnssid":0,"svid":28},{"PRN":138,"az":160.0,"ss":46.0,"used":true,"gnssid":1,"svid":19},{"PRN":133,"az":192.0,"ss":45.0,"used":false,"gnssid":1,"svid":14},{"PRN":94,"az":326.0,"ss":44.0,"used":true,"gnssid":2,"svid":24},{"PRN":17,"az":186.0,"ss":47.0,"used":true,"gnssid":0,"svid":17},{"PRN":82,"az":140.0,"ss":48.0,"used":true,"gnssid":2,"svid":12}]}
{"class":"TPV","mode":3,"lat":44.068809223,"lon":-121.314096970,"alt":1103.591,"epv":1.225,"track":217.9745,"speed":0.006,"climb":-0.001,"eps":0.01,"ecefx":-2386053.90,"ecefy":-3922195.02,"ecefz":4414355.77,"ecefvx":-0.00,"ecefvy":-0.00,"ecefvz":-0.00,"ecefpAcc":1.38,"ecefvAcc":0.02,"velN":-0.004,"velE":-0.003,"velD":0.001,"geoidSep":-22.155,"eph":0.630,"sep":26.172}
{"class":"SKY","vdop":1.19,"tdop":0.80,"hdop":0.70,"pdop":1.38,"satellites":[{"PRN":131,"az":174.0,"ss":45.0,"used":true,"gnssid":1,"svid":12},{"PRN":135,"az":196.0,"ss":46.0,"used":true,"gnssid":1,"svid":16},{"PRN":79,"az":206.0,"ss":41.0,"used":true,"gnssid":2,"svid":9},{"PRN":11,"az":66.0,"ss":47.0,"used":true,"gnssid":0,"svid":11},{"PRN":7,"az":126.0,"ss":47.0,"used":true,"gnssid":0,"svid":7},{"PRN":18,"az":56.0,"ss":35.0,"used":true,"gnssid":0,"svid":18},{"PRN":75,"az":254.0,"ss":42.0,"used":true,"gnssid":2,"svid":5},{"PRN":13,"az":262.0,"ss":47.0,"used":true,"gnssid":0,"svid":13},{"PRN":19,"az":196.0,"ss":47.0,"used":true,"gnssid":0,"svid":19},{"PRN":15,"az":298.0,"ss":44.0,"used":true,"gnssid":0,"svid":15},{"PRN":30,"az":122.0,"ss":48.0,"used":true,"gnssid":0,"svid":30},{"PRN":1,"az":80.0,"ss":43.0,"used":true,"gnssid":0,"svid":1},{"PRN":28,"az":38.0,"ss":46.0,"used":true,"gnssid":0,"svid":28},{"PRN":138,"az":160.0,"ss":46.0,"used":true,"gnssid":1,"svid":19},{"PRN":133,"az":192.0,"ss":45.0,"used":false,"gnssid":1,"svid":14},{"PRN":94,"az":326.0,"ss":44.0,"used":true,"gnssid":2,"svid":24},{"PRN":17,"az":186.0,"ss":47.0,"used":true,"gnssid":0,"svid":17},{"PRN":82,"az":140.0,"ss":47.0,"used":true,"gnssid":2,"svid":12}]}
{"class":"TPV","mode":3,"epv":1.225,"eps":0.01,"ecefy":-3922195.03,"ecefz":4414355.77,"ecefvx":-0.02,"ecefvy":-0.02,"ecefvz":0.01,"ecefpAcc":1.38,"ecefvAcc":0.01,"eph":0.630,"sep":26.172}
{"class":"SKY","vdop":1.19,"tdop":0.80,"hdop":0.70,"pdop":1.38,"satellites":[{"PRN":131,"az":174.0,"ss":45.0,"used":true,"gnssid":1,"svid":12},{"PRN":135,"az":196.0,"ss":46.0,"used":true,"gnssid":1,"svid":16},{"PRN":79,"az":206.0,"ss":40.0,"used":true,"gnssid":2,"svid":9},{"PRN":11,"az":66.0,"ss":47.0,"used":true,"gnssid":0,"svid":11},{"PRN":7,"az":126.0,"ss":47.0,"used":true,"gnssid":0,"svid":7},{"PRN":18,"az":56.0,"ss":35.0,"used":true,"gnssid":0,"svid":18},{"PRN":75,"az":254.0,"ss":42.0,"used":true,"gnssid":2,"svid":5},{"PRN":13,"az":262.0,"ss":47.0,"used":true,"gnssid":0,"svid":13},{"PRN":19,"az":196.0,"ss":47.0,"used":true,"gnssid":0,"svid":19},{"PRN":15,"az":298.0,"ss":44.0,"used":true,"gnssid":0,"svid":15},{"PRN":30,"az":122.0,"ss":48.0,"used":true,"gnssid":0,"svid":30},{"PRN":1,"az":80.0,"ss":43.0,"used":true,"gnssid":0,"svid":1},{"PRN":28,"az":38.0,"ss":46.0,"used":true,"gnssid":0,"svid":28},{"PRN":138,"az":160.0,"ss":46.0,"used":true,"gnssid":1,"svid":19},{"PRN":133,"az":192.0,"ss":45.0,"used":false,"gnssid":1,"svid":14},{"PRN":94,"az":326.0,"ss":44.0,"used":true,"gnssid":2,"svid":24},{"PRN":17,"az":186.0,"ss":47.0,"used":true,"gnssid":0,"svid":17},{"PRN":82,"az":140.0,"ss":47.0,"used":true,"gnssid":2,"svid":12}]}
{"class":"TPV","mode":3,"lat":44.068809186,"lon":-121.314097004,"alt":1103.587,"epv":1.227,"track":255.0720,"speed":0.012,"climb":0.009,"eps":0.01,"ecefx":-2386053.91,"ecefy":-3922195.02,"ecefz":4414355.77,"ecefvx":-0.01,"ecefvy":-0.00,"ecefvz":0.00,"ecefpAcc":1.38,"ecefvAcc":0.01,"velN":-0.003,"velE":-0.012,"velD":-0.009,"geoidSep":-22.155,"eph":0.631,"sep":26.171}
{"class":"SKY","vdop":1.19,"tdop":0.80,"hdop":0.70,"pdop":1.38,"satellites":[{"PRN":131,"az":174.0,"ss":45.0,"used":true,"gnssid":1,"svid":12},{"PRN":135,"az":196.0,"ss":46.0,"used":true,"gnssid":1,"svid":16},{"PRN":79,"az":206.0,"ss":40.0,"used":true,"gnssid":2,"svid":9},{"PRN":11,"az":66.0,"ss":47.0,"used":true,"gnssid":0,"svid":11},{"PRN":7,"az":126.0,"ss":47.0,"used":true,"gnssid":0,"svid":7},{"PRN":18,"az":56.0,"ss":35.0,"used":true,"gnssid":0,"svid":18},{"PRN":75,"az":254.0,"ss":42.0,"used":true,"gnssid":2,"svid":5},{"PRN":13,"az":262.0,"ss":47.0,"used":true,"gnssid":0,"svid":13},{"PRN":19,"az":196.0,"ss":47.0,"used":true,"gnssid":0,"svid":19},{"PRN":15,"az":298.0,"ss":44.0,"used":true,"gnssid":0,"svid":15},{"PRN":30,"az":122.0,"ss":48.0,"used":true,"gnssid":0,"svid":30},{"PRN":1,"az":80.0,"ss":43.0,"used":true,"gnssid":0,"svid":1},{"PRN":28,"az":38.0,"ss":46.0,"used":true,"gnssid":0,"svid":28},{"PRN":138,"az":160.0,"ss":46.0,"used":true,"gnssid":1,"svid":19},{"PRN":133,"az":192.0,"ss":45.0,"used":false,"gnssid":1,"svid":14},{"PRN":94,"az":326.0,"ss":44.0,"used":true,"gnssid":2,"svid":24},{"PRN":17,"az":186.0,"ss":47.0,"used":true,"gnssid":0,"svid":17},{"PRN":82,"az":140.0,"ss":48.0,"used":true,"gnssid":2,"svid":12}]}
{"class":"TPV","mode":3,"epv":1.227,"eps":0.00,"ecefy":-3922195.02,"ecefz":4414355.77,"ecefvx":-0.00,"ecefvy":-0.01,"ecefvz":-0.00,"ecefpAcc":1.38,"ecefvAcc":0.01,"eph":0.631,"sep":26.171}
{"class":"SKY","vdop":1.19,"tdop":0.80,"hdop":0.70,"pdop":1.38,"satellites":[{"PRN":131,"az":174.0,"ss":45.0,"used":true,"gnssid":1,"svid":12},{"PRN":135,"az":196.0,"ss":46.0,"used":true,"gnssid":1,"svid":16},{"PRN":79,"az":206.0,"ss":40.0,"used":true,"gnssid":2,"svid":9},{"PRN":11,"az":66.0,"ss":47.0,"used":true,"gnssid":0,"svid":11},{"PRN":7,"az":126.0,"ss":47.0,"used":true,"gnssid":0,"svid":7},{"PRN":18,"az":56.0,"ss":35.0,"used":true,"gnssid":0,"svid":18},{"PRN":75,"az":254.0,"ss":42.0,"used":true,"gnssid":2,"svid":5},{"PRN":13,"az":262.0,"ss":47.0,"used":true,"gnssid":0,"svid":13},{"PRN":19,"az":196.0,"ss":47.0,"used":true,"gnssid":0,"svid":19},{"PRN":15,"az":298.0,"ss":44.0,"used":true,"gnssid":0,"svid":15},{"PRN":30,"az":122.0,"ss":48.0,"used":true,"gnssid":0,"svid":30},{"PRN":1,"az":80.0,"ss":43.0,"used":true,"gnssid":0,"svid":1},{"PRN":28,"az":38.0,"ss":46.0,"used":true,"gnssid":0,"svid":28},{"PRN":138,"az":160.0,"ss":46.0,"used":true,"gnssid":1,"svid":19},{"PRN":133,"az":192.0,"ss":45.0,"used":false,"gnssid":1,"svid":14},{"PRN":94,"az":326.0,"ss":44.0,"used":true,"gnssid":2,"svid":24},{"PRN":17,"az":186.0,"ss":47.0,"used":true,"gnssid":0,"svid":17},{"PRN":82,"az":140.0,"ss":48.0,"used":true,"gnssid":2,"svid":12}]}
{"class":"TPV","mode":3,"lat":44.068809145,"lon":-121.314097010,"alt":1103.584,"epv":1.230,"track":195.5423,"speed":0.015,"climb":0.009,"eps":0.01,"ecefx":-2386053.91,"ecefy":-3922195.02,"ecefz":4414355.76,"ecefvx":-0.01,"ecefvy":-0.01,"ecefvz":-0.00,"ecefpAcc":1.38,"ecefvAcc":0.02,"velN":-0.015,"velE":-0.004,"velD":-0.009,"geoidSep":-22.155,"eph":0.632,"sep":26.170}
{"class":"SKY","vdop":1.19,"tdop":0.80,"hdop":0.70,"pdop":1.38,"satellites":[{"PRN":131,"az":174.0,"ss":45.0,"used":true,"gnssid":1,"svid":12},{"PRN":135,"az":196.0,"ss":46.0,"used":true,"gnssid":1,"svid":16},{"PRN":79,"az":206.0,"ss":41.0,"used":true,"gnssid":2,"svid":9},{"PRN":11,"az":66.0,"ss":47.0,"used":true,"gnssid":0,"svid":11},{"PRN":7,"az":126.0,"ss":47.0,"used":true,"gnssid":0,"svid":7},{"PRN":18,"az":56.0,"ss":36.0,"used":true,"gnssid":0,"svid":18},{"PRN":75,"az":254.0,"ss":42.0,"used":true,"gnssid":2,"svid":5},{"PRN":13,"az":262.0,"ss":47.0,"used":true,"gnssid":0,"svid":13},{"PRN":19,"az":196.0,"ss":47.0,"used":true,"gnssid":0,"svid":19},{"PRN":15,"az":298.0,"ss":44.0,"used":true,"gnssid":0,"svid":15},{"PRN":30,"az":122.0,"ss":48.0,"used":true,"gnssid":0,"svid":30},{"PRN":1,"az":80.0,"ss":43.0,"used":true,"gnssid":0,"svid":1},{"PRN":28,"az":38.0,"ss":46.0,"used":true,"gnssid":0,"svid":28},{"PRN":138,"az":160.0,"ss":46.0,"used":true,"gnssid":1,"svid":19},{"PRN":133,"az":192.0,"ss":45.0,"used":false,"gnssid":1,"svid":14},{"PRN":94,"az":326.0,"ss":44.0,"used":true,"gnssid":2,"svid":24},{"PRN":17,"az":186.0,"ss":47.0,"used":true,"gnssid":0,"svid":17},{"PRN":82,"az":140.0,"ss":48.0,"used":true,"gnssid":2,"svid":12}]}
{"class":"TPV","mode":3,"epv":1.231,"eps":0.01,"ecefx":-2386053.91,"ecefz":4414355.76,"ecefvx":-0.01,"ecefvy":-0.01,"ecefvz":-0.00,"ecefpAcc":1.38,"ecefvAcc":0.02,"eph":0.633,"sep":26.170}
{"class":"SKY","vdop":1.19,"tdop":0.80,"hdop":0.70,"pdop":1.38,"satellites":[{"PRN":131,"az":174.0,"ss":45.0,"used":true,"gnssid":1,"svid":12},{"PRN":135,"az":196.0,"ss":46.0,"used":true,"gnssid":1,"svid":16},{"PRN":79,"az":206.0,"ss":40.0,"used":true,"gnssid":2,"svid":9},{"PRN":11,"az":66.0,"ss":47.0,"used":true,"gnssid":0,"svid":11},{"PRN":7,"az":126.0,"ss":47.0,"used":true,"gnssid":0,"svid":7},{"PRN":18,"az":56.0,"ss":36.0,"used":true,"gnssid":0,"svid":18},{"PRN":75,"az":254.0,"ss":42.0,"used":true,"gnssid":2,"svid":5},{"PRN":13,"az":262.0,"ss":47.0,"used":true,"gnssid":0,"svid":13},{"PRN":19,"az":196.0,"ss":47.0,"used":true,"gnssid":0,"svid":19},{"PRN":15,"az":298.0,"ss":44.0,"used":true,"gnssid":0,"svid":15},{"PRN":30,"az":122.0,"ss":48.0,"used":true,"gnssid":0,"svid":30},{"PRN":1,"az":80.0,"ss":43.0,"used":true,"gnssid":0,"svid":1},{"PRN":28,"az":38.0,"ss":46.0,"used":true,"gnssid":0,"svid":28},{"PRN":138,"az":160.0,"ss":46.0,"used":true,"gnssid":1,"svid":19},{"PRN":133,"az":192.0,"ss":45.0,"used":false,"gnssid":1,"svid":14},{"PRN":94,"az":326.0,"ss":44.0,"used":true,"gnssid":2,"svid":24},{"PRN":17,"az":186.0,"ss":47.0,"used":true,"gnssid":0,"svid":17},{"PRN":82,"az":140.0,"ss":48.0,"used":true,"gnssid":2,"svid":12}]}
{"class":"TPV","mode":3,"lat":44.068809123,"lon":-121.314097044,"alt":1103.579,"epv":1.234,"track":220.0046,"speed":0.010,"climb":-0.004,"eps":0.01,"ecefx":-2386053.91,"ecefy":-3922195.02,"ecefz":4414355.76,"ecefvx":-0.01,"ecefvy":0.00,"ecefvz":-0.01,"ecefpAcc":1.39,"ecefvAcc":0.02,"velN":-0.007,"velE":-0.006,"velD":0.004,"geoidSep":-22.155,"eph":0.634,"sep":26.169}
{"class":"SKY","vdop":1.19,"tdop":0.80,"hdop":0.70,"pdop":1.38,"satellites":[{"PRN":131,"az":174.0,"ss":45.0,"used":true,"gnssid":1,"svid":12},{"PRN":135,"az":196.0,"ss":46.0,"used":true,"gnssid":1,"svid":16},{"PRN":79,"az":206.0,"ss":40.0,"used":true,"gnssid":2,"svid":9},{"PRN":11,"az":66.0,"ss":47.0,"used":true,"gnssid":0,"svid":11},{"PRN":7,"az":126.0,"ss":47.0,"used":true,"gnssid":0,"svid":7},{"PRN":18,"az":56.0,"ss":35.0,"used":true,"gnssid":0,"svid":18},{"PRN":75,"az":254.0,"ss":42.0,"used":true,"gnssid":2,"svid":5},{"PRN":13,"az":262.0,"ss":47.0,"used":true,"gnssid":0,"svid":13},{"PRN":19,"az":196.0,"ss":47.0,"used":true,"gnssid":0,"svid":19},{"PRN":15,"az":298.0,"ss":44.0,"used":true,"gnssid":0,"svid":15},{"PRN":30,"az":122.0,"ss":48.0,"used":true,"gnssid":0,"svid":30},{"PRN":1,"az":80.0,"ss":43.0,"used":true,"gnssid":0,"svid":1},{"PRN":28,"az":38.0,"ss":46.0,"used":true,"gnssid":0,"svid":28},{"PRN":138,"az":160.0,"ss":46.0,"used":true,"gnssid":1,"svid":19},{"PRN":133,"az":192.0,"ss":45.0,"used":false,"gnssid":1,"svid":14},{"PRN":94,"az":326.0,"ss":44.0,"used":true,"gnssid":2,"svid":24},{"PRN":17,"az":186.0,"ss":47.0,"used":true,"gnssid":0,"svid":17},{"PRN":82,"az":140.0,"ss":48.0,"used":true,"gnssid":2,"svid":12}]}
{"class":"TPV","mode":3,"lat":44.068809118,"lon":-121.314097059,"alt":1103.574,"epv":1.235,"track":217.0212,"speed":0.009,"climb":0.014,"eps":0.01,"ecefx":-2386053.91,"ecefy":-3922195.02,"ecefz":4414355.75,"ecefvx":-0.01,"ecefvy":-0.01,"ecefvz":0.00,"ecefpAcc":1.39,"ecefvAcc":0.02,"velN":-0.007,"velE":-0.005,"velD":-0.014,"geoidSep":-22.155,"eph":0.635,"sep":26.169}
{"class":"SKY","vdop":1.19,"tdop":0.80,"hdop":0.70,"pdop":1.38,"satellites":[{"PRN":131,"az":174.0,"ss":45.0,"used":true,"gnssid":1,"svid":12},{"PRN":135,"az":196.0,"ss":46.0,"used":true,"gnssid":1,"svid":16},{"PRN":79,"az":206.0,"ss":41.0,"used":true,"gnssid":2,"svid":9},{"PRN":11,"az":66.0,"ss":47.0,"used":true,"gnssid":0,"svid":11},{"PRN":7,"az":126.0,"ss":47.0,"used":true,"gnssid":0,"svid":7},{"PRN":18,"az":56.0,"ss":35.0,"used":true,"gnssid":0,"svid":18},{"PRN":75,"az":254.0,"ss":42.0,"used":true,"gnssid":2,"svid":5},{"PRN":13,"az":262.0,"ss":47.0,"used":true,"gnssid":0,"svid":13},{"PRN":19,"az":196.0,"ss":47.0,"used":true,"gnssid":0,"svid":19},{"PRN":15,"az":298.0,"ss":44.0,"used":true,"gnssid":0,"svid":15},{"PRN":30,"az":122.0,"ss":48.0,"used":true,"gnssid":0,"svid":30},{"PRN":1,"az":80.0,"ss":43.0,"used":true,"gnssid":0,"svid":1},{"PRN":28,"az":38.0,"ss":46.0,"used":true,"gnssid":0,"svid":28},{"PRN":138,"az":160.0,"ss":46.0,"used":true,"gnssid":1,"svid":19},{"PRN":133,"az":192.0,"ss":45.0,"used":false,"gnssid":1,"svid":14},{"PRN":94,"az":326.0,"ss":44.0,"used":true,"gnssid":2,"svid":24},{"PRN":17,"az":186.0,"ss":47.0,"used":true,"gnssid":0,"svid":17},{"PRN":82,"az":140.0,"ss":48.0,"used":true,"gnssid":2,"svid":12}]}
{"class":"TPV","mode":3,"lat":44.068809118,"lon":-121.314097075,"alt":1103.575,"epv":1.234,"track":294.2972,"speed":0.005,"climb":0.014,"eps":0.01,"ecefx":-2386053.91,"ecefy":-3922195.02,"ecefz":4414355.75,"ecefvx":-0.01,"ecefvy":-0.01,"ecefvz":0.01,"ecefpAcc":1.39,"ecefvAcc":0.02,"velN":0.002,"velE":-0.004,"velD":-0.014,"geoidSep":-22.155,"eph":0.635,"sep":26.168}
{"class":"SKY","vdop":1.19,"tdop":0.80,"hdop":0.70,"pdop":1.38,"satellites":[{"PRN":131,"az":174.0,"ss":45.0,"used":true,"gnssid":1,"svid":12},{"PRN":135,"az":196.0,"ss":46.0,"used":true,"gnssid":1,"svid":16},{"PRN":79,"az":206.0,"ss":40.0,"used":true,"gnssid":2,"svid":9},{"PRN":11,"az":66.0,"ss":47.0,"used":true,"gnssid":0,"svid":11},{"PRN":7,"az":126.0,"ss":47.0,"used":true,"gnssid":0,"svid":7},{"PRN":18,"az":56.0,"ss":36.0,"used":true,"gnssid":0,"svid":18},{"PRN":75,"az":254.0,"ss":42.0,"used":true,"gnssid":2,"svid":5},{"PRN":13,"az":262.0,"ss":47.0,"used":true,"gnssid":0,"svid":13},{"PRN":19,"az":196.0,"ss":47.0,"used":true,"gnssid":0,"svid":19},{"PRN":15,"az":298.0,"ss":44.0,"used":true,"gnssid":0,"svid":15},{"PRN":30,"az":122.0,"ss":48.0,"used":true,"gnssid":0,"svid":30},{"PRN":1,"az":80.0,"ss":43.0,"used":true,"gnssid":0,"svid":1},{"PRN":28,"az":38.0,"ss":46.0,"used":true,"gnssid":0,"svid":28},{"PRN":138,"az":160.0,"ss":46.0,"used":true,"gnssid":1,"svid":19},{"PRN":133,"az":192.0,"ss":45.0,"used":false,"gnssid":1,"svid":14},{"PRN":94,"az":326.0,"ss":44.0,"used":true,"gnssid":2,"svid":24},{"PRN":17,"az":186.0,"ss":47.0,"used":true,"gnssid":0,"svid":17},{"PRN":82,"az":140.0,"ss":48.0,"used":true,"gnssid":2,"svid":12}]}
{"class":"TPV","mode":3,"lat":44.068809122,"lon":-121.314097087,"alt":1103.572,"epv":1.235,"track":290.8300,"speed":0.005,"climb":0.019,"eps":0.01,"ecefx":-2386053.91,"ecefy":-3922195.01,"ecefz":4414355.75,"ecefvx":-0.01,"ecefvy":-0.01,"ecefvz":0.01,"ecefpAcc":1.39,"ecefvAcc":0.02,"velN":0.002,"velE":-0.005,"velD":-0.019,"geoidSep":-22.155,"eph":0.635,"sep":26.168}
{"class":"SKY","vdop":1.19,"tdop":0.80,"hdop":0.70,"pdop":1.38,"satellites":[{"PRN":131,"az":174.0,"ss":45.0,"used":true,"gnssid":1,"svid":12},{"PRN":135,"az":196.0,"ss":46.0,"used":true,"gnssid":1,"svid":16},{"PRN":79,"az":206.0,"ss":40.0,"used":true,"gnssid":2,"svid":9},{"PRN":11,"az":66.0,"ss":47.0,"used":true,"gnssid":0,"svid":11},{"PRN":7,"az":126.0,"ss":47.0,"used":true,"gnssid":0,"svid":7},{"PRN":18,"az":56.0,"ss":36.0,"used":true,"gnssid":0,"svid":18},{"PRN":75,"az":254.0,"ss":42.0,"used":true,"gnssid":2,"svid":5},{"PRN":13,"az":262.0,"ss":47.0,"used":true,"gnssid":0,"svid":13},{"PRN":19,"az":196.0,"ss":47.0,"used":true,"gnssid":0,"svid":19},{"PRN":15,"az":298.0,"ss":44.0,"used":true,"gnssid":0,"svid":15},{"PRN":30,"az":122.0,"ss":48.0,"used":true,"gnssid":0,"svid":30},{"PRN":1,"az":80.0,"ss":43.0,"used":true,"gnssid":0,"svid":1},{"PRN":28,"az":38.0,"ss":46.0,"used":true,"gnssid":0,"svid":28},{"PRN":138,"az":160.0,"ss":46.0,"used":true,"gnssid":1,"svid":19},{"PRN":133,"az":192.0,"ss":45.0,"used":false,"gnssid":1,"svid":14},{"PRN":94,"az":326.0,"ss":44.0,"used":true,"gnssid":2,"svid":24},{"PRN":17,"az":186.0,"ss":47.0,"used":true,"gnssid":0,"svid":17},{"PRN":82,"az":140.0,"ss":47.0,"used":true,"gnssid":2,"svid":12}]}
