$GNRMC,092835.00,A,4804.14539,N,01621.54005,E,0.250,,210615,,,A*6F
{"class":"TPV","mode":2,"time":"2015-06-21T09:28:35.000Z","ept":0.005,"lat":48.069089833,"lon":16.359000833,"magvar":4.5,"speed":0.129}
$GNVTG,,T,,M,0.250,N,0.463,K,A*3B
$GNGGA,092835.00,4804.14539,N,01621.54005,E,1,10,0.96,205.3,M,42.0,M,,*49
{"class":"TPV","mode":3,"time":"2015-06-21T09:28:35.000Z","ept":0.005,"lat":48.069089833,"lon":16.359000833,"altHAE":247.300,"altMSL":205.300,"magvar":4.5,"speed":0.129,"geoidSep":42.000,"eph":18.240}
$GNGSA,A,3,22,17,28,15,18,,,,,,,,1.75,0.96,1.47*13
{"class":"TPV","mode":3,"time":"2015-06-21T09:28:35.000Z","ept":0.005,"lat":48.069089833,"lon":16.359000833,"altHAE":247.300,"altMSL":205.300,"epv":33.810,"magvar":4.5,"speed":0.129,"geoidSep":42.000,"eph":18.240,"sep":33.250}
$GNGSA,A,3,82,72,80,65,73,,,,,,,,1.75,0.96,1.47*12
{"class":"TPV","mode":3,"time":"2015-06-21T09:28:35.000Z","ept":0.005,"lat":48.069089833,"lon":16.359000833,"altHAE":247.300,"altMSL":205.300,"epv":33.810,"magvar":4.5,"speed":0.129,"geoidSep":42.000,"eph":18.240,"sep":33.250}
$GPGSV,4,1,14,01,04,021,,06,03,117,,12,41,246,09,13,20,164,*71
$GPGSV,4,2,14,14,05,324,,15,43,197,16,17,44,067,26,18,11,273,11*78
$GPGSV,4,3,14,22,10,306,15,24,68,302,,25,04,245,,28,10,060,30*7C
$GPGSV,4,4,14,33,27,220,,39,34,168,*7B
{"class":"SKY","xdop":0.76,"ydop":1.48,"vdop":1.47,"tdop":1.37,"hdop":0.96,"gdop":3.58,"pdop":1.75,"satellites":[{"PRN":1,"el":4.0,"az":21.0,"ss":0.0,"used":false,"gnssid":0,"svid":1},{"PRN":6,"el":3.0,"az":117.0,"ss":0.0,"used":false,"gnssid":0,"svid":6},{"PRN":12,"el":41.0,"az":246.0,"ss":9.0,"used":false,"gnssid":0,"svid":12},{"PRN":13,"el":20.0,"az":164.0,"ss":0.0,"used":false,"gnssid":0,"svid":13},{"PRN":14,"el":5.0,"az":324.0,"ss":0.0,"used":false,"gnssid":0,"svid":14},{"PRN":15,"el":43.0,"az":197.0,"ss":16.0,"used":true,"gnssid":0,"svid":15},{"PRN":17,"el":44.0,"az":67.0,"ss":26.0,"used":true,"gnssid":0,"svid":17},{"PRN":18,"el":11.0,"az":273.0,"ss":11.0,"used":true,"gnssid":0,"svid":18},{"PRN":22,"el":10.0,"az":306.0,"ss":15.0,"used":true,"gnssid":0,"svid":22},{"PRN":24,"el":68.0,"az":302.0,"ss":0.0,"used":false,"gnssid":0,"svid":24},{"PRN":25,"el":4.0,"az":245.0,"ss":0.0,"used":false,"gnssid":0,"svid":25},{"PRN":28,"el":10.0,"az":60.0,"ss":30.0,"used":true,"gnssid":0,"svid":28},{"PRN":33,"el":27.0,"az":220.0,"ss":0.0,"used":false,"gnssid":1,"svid":120},{"PRN":39,"el":34.0,"az":168.0,"ss":0.0,"used":false,"gnssid":1,"svid":126}]}
$GLGSV,3,1,09,65,17,335,35,71,18,227,,72,34,282,11,73,65,038,21*65
$GLGSV,3,2,09,74,41,301,19,80,22,086,20,82,31,039,32,83,45,115,*69
$GLGSV,3,3,09,84,12,163,*57
{"class":"SKY","xdop":0.48,"ydop":0.83,"vdop":1.47,"tdop":0.84,"hdop":0.96,"gdop":1.94,"pdop":1.75,"satellites":[{"PRN":1,"el":4.0,"az":21.0,"ss":0.0,"used":false,"gnssid":0,"svid":1},{"PRN":6,"el":3.0,"az":117.0,"ss":0.0,"used":false,"gnssid":0,"svid":6},{"PRN":12,"el":41.0,"az":246.0,"ss":9.0,"used":false,"gnssid":0,"svid":12},{"PRN":13,"el":20.0,"az":164.0,"ss":0.0,"used":false,"gnssid":0,"svid":13},{"PRN":14,"el":5.0,"az":324.0,"ss":0.0,"used":false,"gnssid":0,"svid":14},{"PRN":15,"el":43.0,"az":197.0,"ss":16.0,"used":true,"gnssid":0,"svid":15},{"PRN":17,"el":44.0,"az":67.0,"ss":26.0,"used":true,"gnssid":0,"svid":17},{"PRN":18,"el":11.0,"az":273.0,"ss":11.0,"used":true,"gnssid":0,"svid":18},{"PRN":22,"el":10.0,"az":306.0,"ss":15.0,"used":true,"gnssid":0,"svid":22},{"PRN":24,"el":68.0,"az":302.0,"ss":0.0,"used":false,"gnssid":0,"svid":24},{"PRN":25,"el":4.0,"az":245.0,"ss":0.0,"used":false,"gnssid":0,"svid":25},{"PRN":28,"el":10.0,"az":60.0,"ss":30.0,"used":true,"gnssid":0,"svid":28},{"PRN":33,"el":27.0,"az":220.0,"ss":0.0,"used":false,"gnssid":1,"svid":120},{"PRN":39,"el":34.0,"az":168.0,"ss":0.0,"used":false,"gnssid":1,"svid":126},{"PRN":65,"el":17.0,"az":335.0,"ss":35.0,"used":true,"gnssid":6,"svid":1},{"PRN":71,"el":18.0,"az":227.0,"ss":0.0,"used":false,"gnssid":6,"svid":7},{"PRN":72,"el":34.0,"az":282.0,"ss":11.0,"used":true,"gnssid":6,"svid":8},{"PRN":73,"el":65.0,"az":38.0,"ss":21.0,"used":true,"gnssid":6,"svid":9},{"PRN":74,"el":41.0,"az":301.0,"ss":19.0,"used":false,"gnssid":6,"svid":10},{"PRN":80,"el":22.0,"az":86.0,"ss":20.0,"used":true,"gnssid":6,"svid":16},{"PRN":82,"el":31.0,"az":39.0,"ss":32.0,"used":true,"gnssid":6,"svid":18},{"PRN":83,"el":45.0,"az":115.0,"ss":0.0,"used":false,"gnssid":6,"svid":19},{"PRN":84,"el":12.0,"az":163.0,"ss":0.0,"used":false,"gnssid":6,"svid":20}]}
$GNGLL,4804.14539,N,01621.54005,E,092835.00,A,A*70
{"class":"TPV","mode":3,"time":"2015-06-21T09:28:35.000Z","ept":0.005,"lat":48.069089833,"lon":16.359000833,"altHAE":247.300,"altMSL":205.300,"epx":11.424,"epy":22.236,"epv":33.810,"magvar":4.5,"speed":0.129,"geoidSep":42.000,"eph":18.240,"sep":33.250}
$GNRMC,092836.00,A,4804.14496,N,01621.53984,E,0.130,,210615,,,A*6A
$GNVTG,,T,,M,0.130,N,0.240,K,A*39
$GNGGA,092836.00,4804.14496,N,01621.53984,E,1,10,0.96,205.2,M,42.0,M,,*48
$GNGSA,A,3,22,17,28,15,18,,,,,,,,1.75,0.96,1.47*13
$GNGSA,A,3,82,72,80,65,73,,,,,,,,1.75,0.96,1.47*12
$GPGSV,4,1,14,01,04,021,,06,03,117,,12,41,246,09,13,20,164,17*77
$GPGSV,4,2,14,14,05,324,,15,43,197,16,17,44,067,27,18,11,273,11*79
$GPGSV,4,3,14,22,10,306,15,24,68,302,,25,04,245,,28,10,060,30*7C
$GPGSV,4,4,14,33,27,220,,39,34,168,*7B
$GLGSV,3,1,09,65,17,335,35,71,18,227,,72,34,282,14,73,65,038,21*60
$GLGSV,3,2,09,74,41,301,18,80,22,086,19,82,31,039,32,83,45,115,*62
$GLGSV,3,3,09,84,12,163,*57
{"class":"SKY","xdop":0.48,"ydop":0.83,"vdop":1.47,"tdop":0.84,"hdop":0.96,"gdop":1.94,"pdop":1.75,"satellites":[{"PRN":1,"el":4.0,"az":21.0,"ss":0.0,"used":false,"gnssid":0,"svid":1},{"PRN":6,"el":3.0,"az":117.0,"ss":0.0,"used":false,"gnssid":0,"svid":6},{"PRN":12,"el":41.0,"az":246.0,"ss":9.0,"used":false,"gnssid":0,"svid":12},{"PRN":13,"el":20.0,"az":164.0,"ss":17.0,"used":false,"gnssid":0,"svid":13},{"PRN":14,"el":5.0,"az":324.0,"ss":0.0,"used":false,"gnssid":0,"svid":14},{"PRN":15,"el":43.0,"az":197.0,"ss":16.0,"used":true,"gnssid":0,"svid":15},{"PRN":17,"el":44.0,"az":67.0,"ss":27.0,"used":true,"gnssid":0,"svid":17},{"PRN":18,"el":11.0,"az":273.0,"ss":11.0,"used":true,"gnssid":0,"svid":18},{"PRN":22,"el":10.0,"az":306.0,"ss":15.0,"used":true,"gnssid":0,"svid":22},{"PRN":24,"el":68.0,"az":302.0,"ss":0.0,"used":false,"gnssid":0,"svid":24},{"PRN":25,"el":4.0,"az":245.0,"ss":0.0,"used":false,"gnssid":0,"svid":25},{"PRN":28,"el":10.0,"az":60.0,"ss":30.0,"used":true,"gnssid":0,"svid":28},{"PRN":33,"el":27.0,"az":220.0,"ss":0.0,"used":false,"gnssid":1,"svid":120},{"PRN":39,"el":34.0,"az":168.0,"ss":0.0,"used":false,"gnssid":1,"svid":126},{"PRN":65,"el":17.0,"az":335.0,"ss":35.0,"used":true,"gnssid":6,"svid":1},{"PRN":71,"el":18.0,"az":227.0,"ss":0.0,"used":false,"gnssid":6,"svid":7},{"PRN":72,"el":34.0,"az":282.0,"ss":14.0,"used":true,"gnssid":6,"svid":8},{"PRN":73,"el":65.0,"az":38.0,"ss":21.0,"used":true,"gnssid":6,"svid":9},{"PRN":74,"el":41.0,"az":301.0,"ss":18.0,"used":false,"gnssid":6,"svid":10},{"PRN":80,"el":22.0,"az":86.0,"ss":19.0,"used":true,"gnssid":6,"svid":16},{"PRN":82,"el":31.0,"az":39.0,"ss":32.0,"used":true,"gnssid":6,"svid":18},{"PRN":83,"el":45.0,"az":115.0,"ss":0.0,"used":false,"gnssid":6,"svid":19},{"PRN":84,"el":12.0,"az":163.0,"ss":0.0,"used":false,"gnssid":6,"svid":20}]}
$GNGLL,4804.14496,N,01621.53984,E,092836.00,A,A*70
{"class":"TPV","mode":3,"time":"2015-06-21T09:28:36.000Z","ept":0.005,"lat":48.069082667,"lon":16.358997333,"altHAE":247.200,"altMSL":205.200,"epx":7.156,"epy":12.495,"epv":33.810,"magvar":4.5,"speed":0.067,"climb":-0.100,"eps":34.73,"epc":67.62,"geoidSep":42.000,"eph":18.240,"sep":33.250}
$GNRMC,092837.00,A,4804.14430,N,01621.53949,E,0.320,,210615,,,A*65
$GNVTG,,T,,M,0.320,N,0.592,K,A*32
$GNGGA,092837.00,4804.14430,N,01621.53949,E,1,10,0.96,204.8,M,42.0,M,,*4F
$GNGSA,A,3,22,17,28,15,18,,,,,,,,1.75,0.96,1.47*13
$GNGSA,A,3,82,72,80,65,73,,,,,,,,1.75,0.96,1.47*12
$GPGSV,4,1,14,01,04,021,,06,03,117,,12,41,246,10,13,20,164,17*7F
$GPGSV,4,2,14,14,05,324,,15,43,197,16,17,44,067,27,18,11,273,11*79
$GPGSV,4,3,14,22,10,306,15,24,68,302,,25,04,245,,28,10,060,30*7C
$GPGSV,4,4,14,33,27,220,,39,34,168,*7B
$GLGSV,3,1,09,65,17,335,35,71,18,227,,72,34,282,12,73,65,038,21*66
$GLGSV,3,2,09,74,41,301,16,80,22,086,18,82,31,039,32,83,45,115,*6D
$GLGSV,3,3,09,84,12,163,*57
{"class":"SKY","xdop":0.48,"ydop":0.83,"vdop":1.47,"tdop":0.84,"hdop":0.96,"gdop":1.94,"pdop":1.75,"satellites":[{"PRN":1,"el":4.0,"az":21.0,"ss":0.0,"used":false,"gnssid":0,"svid":1},{"PRN":6,"el":3.0,"az":117.0,"ss":0.0,"used":false,"gnssid":0,"svid":6},{"PRN":12,"el":41.0,"az":246.0,"ss":10.0,"used":false,"gnssid":0,"svid":12},{"PRN":13,"el":20.0,"az":164.0,"ss":17.0,"used":false,"gnssid":0,"svid":13},{"PRN":14,"el":5.0,"az":324.0,"ss":0.0,"used":false,"gnssid":0,"svid":14},{"PRN":15,"el":43.0,"az":197.0,"ss":16.0,"used":true,"gnssid":0,"svid":15},{"PRN":17,"el":44.0,"az":67.0,"ss":27.0,"used":true,"gnssid":0,"svid":17},{"PRN":18,"el":11.0,"az":273.0,"ss":11.0,"used":true,"gnssid":0,"svid":18},{"PRN":22,"el":10.0,"az":306.0,"ss":15.0,"used":true,"gnssid":0,"svid":22},{"PRN":24,"el":68.0,"az":302.0,"ss":0.0,"used":false,"gnssid":0,"svid":24},{"PRN":25,"el":4.0,"az":245.0,"ss":0.0,"used":false,"gnssid":0,"svid":25},{"PRN":28,"el":10.0,"az":60.0,"ss":30.0,"used":true,"gnssid":0,"svid":28},{"PRN":33,"el":27.0,"az":220.0,"ss":0.0,"used":false,"gnssid":1,"svid":120},{"PRN":39,"el":34.0,"az":168.0,"ss":0.0,"used":false,"gnssid":1,"svid":126},{"PRN":65,"el":17.0,"az":335.0,"ss":35.0,"used":true,"gnssid":6,"svid":1},{"PRN":71,"el":18.0,"az":227.0,"ss":0.0,"used":false,"gnssid":6,"svid":7},{"PRN":72,"el":34.0,"az":282.0,"ss":12.0,"used":true,"gnssid":6,"svid":8},{"PRN":73,"el":65.0,"az":38.0,"ss":21.0,"used":true,"gnssid":6,"svid":9},{"PRN":74,"el":41.0,"az":301.0,"ss":16.0,"used":false,"gnssid":6,"svid":10},{"PRN":80,"el":22.0,"az":86.0,"ss":18.0,"used":true,"gnssid":6,"svid":16},{"PRN":82,"el":31.0,"az":39.0,"ss":32.0,"used":true,"gnssid":6,"svid":18},{"PRN":83,"el":45.0,"az":115.0,"ss":0.0,"used":false,"gnssid":6,"svid":19},{"PRN":84,"el":12.0,"az":163.0,"ss":0.0,"used":false,"gnssid":6,"svid":20}]}
$GNGLL,4804.14430,N,01621.53949,E,092837.00,A,A*7C
{"class":"TPV","mode":3,"time":"2015-06-21T09:28:37.000Z","ept":0.005,"lat":48.069071667,"lon":16.358991500,"altHAE":246.800,"altMSL":204.800,"epx":7.156,"epy":12.495,"epv":33.810,"magvar":4.5,"speed":0.165,"climb":-0.400,"eps":24.99,"epc":67.62,"geoidSep":42.000,"eph":18.240,"sep":33.250}
