$GPHDT,,T*1B
$GPGGA,,,,,,0,,,,M,,M,,*66
$GPVTG,,T,,M,,N,,K,N*2C
$GPZDA,193913.00,07,09,2018,00,00*63
$GPHDT,,T*1B
$GPGGA,,,,,,0,,,,M,,M,,*66
$GPVTG,,T,,M,,N,,K,N*2C
$GPHDT,,T*1B
$GPGGA,,,,,,0,,,,M,,M,,*66
$GPVTG,,T,,M,,N,,K,N*2C
$GPZDA,193914.00,07,09,2018,00,00*64
$GPHDT,,T*1B
$GPGGA,,,,,,0,,,,M,,M,,*66
$GPVTG,,T,,M,,N,,K,N*2C
$GPHDT,,T*1B
$GPGGA,,,,,,0,,,,M,,M,,*66
$GPVTG,,T,,M,,N,,K,N*2C
$GPZDA,193915.00,07,09,2018,00,00*65
$GPHDT,,T*1B
$GPGGA,,,,,,0,,,,M,,M,,*66
$GPVTG,,T,,M,,N,,K,N*2C
$GPHDT,,T*1B
$GPGGA,,,,,,0,,,,M,,M,,*66
$GPVTG,,T,,M,,N,,K,N*2C
$GPZDA,193916.00,07,09,2018,00,00*66
$GPHDT,,T*1B
$GPGGA,,,,,,0,,,,M,,M,,*66
$GPVTG,,T,,M,,N,,K,N*2C
$GPHDT,,T*1B
$GPGGA,,,,,,0,,,,M,,M,,*66
$GPVTG,,T,,M,,N,,K,N*2C
$GPZDA,193917.00,07,09,2018,00,00*67
$GPHDT,,T*1B
$GPGGA,,,,,,0,,,,M,,M,,*66
$GPVTG,,T,,M,,N,,K,N*2C
$GPHDT,,T*1B
$GPGGA,,,,,,0,,,,M,,M,,*66
$GPVTG,,T,,M,,N,,K,N*2C
$GPZDA,193918.00,07,09,2018,00,00*68
$GPHDT,,T*1B
$GPGGA,,,,,,0,,,,M,,M,,*66
$GPVTG,,T,,M,,N,,K,N*2C
$GPHDT,,T*1B
$GPGGA,,,,,,0,,,,M,,M,,*66
$GPVTG,,T,,M,,N,,K,N*2C
$GPZDA,193919.00,07,09,2018,00,00*69
$GPHDT,,T*1B
$GPGGA,,,,,,0,,,,M,,M,,*66
$GPVTG,,T,,M,,N,,K,N*2C
$GPHDT,,T*1B
$GPGGA,,,,,,0,,,,M,,M,,*66
$GPVTG,,T,,M,,N,,K,N*2C
$GPZDA,193920.00,07,09,2018,00,00*63
$GPHDT,,T*1B
$GPGGA,,,,,,0,,,,M,,M,,*66
$GPVTG,,T,,M,,N,,K,N*2C
$GPHDT,,T*1B
$GPGGA,,,,,,0,,,,M,,M,,*66
$GPVTG,,T,,M,,N,,K,N*2C
$GPZDA,193921.00,07,09,2018,00,00*62
$GPHDT,,T*1B
$GPGGA,,,,,,0,,,,M,,M,,*66
$GPVTG,,T,,M,,N,,K,N*2C
$GPHDT,,T*1B
$GPGGA,,,,,,0,,,,M,,M,,*66
$GPVTG,,T,,M,,N,,K,N*2C
$GPZDA,193922.00,07,09,2018,00,00*61
$GPHDT,,T*1B
$GPGGA,,,,,,0,,,,M,,M,,*66
$GPVTG,,T,,M,,N,,K,N*2C
$GPHDT,,T*1B
$GPGGA,,,,,,0,,,,M,,M,,*66
$GPVTG,,T,,M,,N,,K,N*2C
$GPZDA,193923.00,07,09,2018,00,00*60
$GPHDT,,T*1B
$GPGGA,,,,,,0,,,,M,,M,,*66
$GPVTG,,T,,M,,N,,K,N*2C
$GPHDT,,T*1B
$GPGGA,,,,,,0,,,,M,,M,,*66
$GPVTG,,T,,M,,N,,K,N*2C
$GPZDA,193924.00,07,09,2018,00,00*67
$GPHDT,,T*1B
$GPGGA,,,,,,0,,,,M,,M,,*66
$GPVTG,,T,,M,,N,,K,N*2C
$GPHDT,,T*1B
$GPGGA,,,,,,0,,,,M,,M,,*66
$GPVTG,,T,,M,,N,,K,N*2C
$GPZDA,193925.00,07,09,2018,00,00*66
$GPHDT,,T*1B
$GPGGA,,,,,,0,,,,M,,M,,*66
$GPVTG,,T,,M,,N,,K,N*2C
$GPHDT,,T*1B
$GPGGA,,,,,,0,,,,M,,M,,*66
$GPVTG,,T,,M,,N,,K,N*2C
$GPZDA,193926.00,07,09,2018,00,00*65
$GPHDT,,T*1B
$GPGGA,,,,,,0,,,,M,,M,,*66
$GPVTG,,T,,M,,N,,K,N*2C
$GPHDT,,T*1B
$GPGGA,,,,,,0,,,,M,,M,,*66
$GPVTG,,T,,M,,N,,K,N*2C
$GPZDA,193927.00,07,09,2018,00,00*64
$GPHDT,,T*1B
$GPGGA,,,,,,0,,,,M,,M,,*66
$GPVTG,,T,,M,,N,,K,N*2C
$GPHDT,,T*1B
$GPGGA,,,,,,0,,,,M,,M,,*66
$GPVTG,,T,,M,,N,,K,N*2C
$GPZDA,193928.00,07,09,2018,00,00*6B
$GPHDT,,T*1B
$GPGGA,,,,,,0,,,,M,,M,,*66
$GPVTG,,T,,M,,N,,K,N*2C
$GPHDT,,T*1B
$GPGGA,,,,,,0,,,,M,,M,,*66
$GPVTG,,T,,M,,N,,K,N*2C
$GPZDA,193929.00,07,09,2018,00,00*6A
$GPHDT,,T*1B
$GPGGA,,,,,,0,,,,M,,M,,*66
$GPVTG,,T,,M,,N,,K,N*2C
$GPHDT,,T*1B
$GPGGA,,,,,,0,,,,M,,M,,*66
$GPVTG,,T,,M,,N,,K,N*2C
$GPZDA,193930.00,07,09,2018,00,00*62
$GPHDT,,T*1B
$GPGGA,,,,,,0,,,,M,,M,,*66
$GPVTG,,T,,M,,N,,K,N*2C
$GPHDT,,T*1B
$GPGGA,,,,,,0,,,,M,,M,,*66
$GPVTG,,T,,M,,N,,K,N*2C
$GPZDA,193931.00,07,09,2018,00,00*63
$GPHDT,,T*1B
$GPGGA,,,,,,0,,,,M,,M,,*66
$GPVTG,,T,,M,,N,,K,N*2C
$GPHDT,,T*1B
$GPGGA,,,,,,0,,,,M,,M,,*66
$GPVTG,,T,,M,,N,,K,N*2C
$GPZDA,193932.00,07,09,2018,00,00*60
$GPHDT,,T*1B
$GPGGA,,,,,,0,,,,M,,M,,*66
$GPVTG,,T,,M,,N,,K,N*2C
$GPHDT,,T*1B
$GPGGA,,,,,,0,,,,M,,M,,*66
$GPVTG,,T,,M,,N,,K,N*2C
$GPZDA,193933.00,07,09,2018,00,00*61
$GPHDT,,T*1B
$GPGGA,,,,,,0,,,,M,,M,,*66
$GPVTG,,T,,M,,N,,K,N*2C
$GPHDT,,T*1B
$GPGGA,,,,,,0,,,,M,,M,,*66
$GPVTG,,T,,M,,N,,K,N*2C
$GPZDA,193934.00,07,09,2018,00,00*66
$GPHDT,,T*1B
$GPGGA,,,,,,0,,,,M,,M,,*66
$GPVTG,,T,,M,,N,,K,N*2C
$GPHDT,,T*1B
$GPGGA,,,,,,0,,,,M,,M,,*66
$GPVTG,,T,,M,,N,,K,N*2C
$GPZDA,193935.00,07,09,2018,00,00*67
$GPHDT,,T*1B
$GPGGA,,,,,,0,,,,M,,M,,*66
$GPVTG,,T,,M,,N,,K,N*2C
$GPHDT,,T*1B
$GPGGA,,,,,,0,,,,M,,M,,*66
$GPVTG,,T,,M,,N,,K,N*2C
$GPZDA,193936.00,07,09,2018,00,00*64
$GPHDT,,T*1B
$GPGGA,,,,,,0,,,,M,,M,,*66
$GPVTG,,T,,M,,N,,K,N*2C
$GPHDT,,T*1B
$GPGGA,,,,,,0,,,,M,,M,,*66
$GPVTG,,T,,M,,N,,K,N*2C
$GPZDA,193937.00,07,09,2018,00,00*65
$GPHDT,,T*1B
$GPGGA,,,,,,0,,,,M,,M,,*66
$GPVTG,,T,,M,,N,,K,N*2C
$GPHDT,,T*1B
$GPGGA,,,,,,0,,,,M,,M,,*66
$GPVTG,,T,,M,,N,,K,N*2C
$GPZDA,193938.00,07,09,2018,00,00*6A
$GPHDT,,T*1B
$GPGGA,,,,,,0,,,,M,,M,,*66
$GPVTG,,T,,M,,N,,K,N*2C
$GPHDT,,T*1B
$GPGGA,,,,,,0,,,,M,,M,,*66
$GPVTG,,T,,M,,N,,K,N*2C
$GPZDA,193939.00,07,09,2018,00,00*6B
$GPHDT,,T*1B
$GPGGA,,,,,,0,,,,M,,M,,*66
$GPVTG,,T,,M,,N,,K,N*2C
$GPHDT,,T*1B
$GPGGA,,,,,,0,,,,M,,M,,*66
$GPVTG,,T,,M,,N,,K,N*2C
$GPZDA,193940.00,07,09,2018,00,00*65
$GPHDT,,T*1B
$GPGGA,,,,,,0,,,,M,,M,,*66
$GPVTG,,T,,M,,N,,K,N*2C
$GPHDT,,T*1B
$GPGGA,,,,,,0,,,,M,,M,,*66
$GPVTG,,T,,M,,N,,K,N*2C
$GPZDA,193941.00,07,09,2018,00,00*64
$GPHDT,,T*1B
$GPGGA,,,,,,0,,,,M,,M,,*66
$GPVTG,,T,,M,,N,,K,N*2C
$GPHDT,,T*1B
$GPGGA,,,,,,0,,,,M,,M,,*66
$GPVTG,,T,,M,,N,,K,N*2C
$GPZDA,193942.00,07,09,2018,00,00*67
$GPHDT,,T*1B
$GPGGA,,,,,,0,,,,M,,M,,*66
$GPVTG,,T,,M,,N,,K,N*2C
$GPHDT,,T*1B
$GPGGA,,,,,,0,,,,M,,M,,*66
$GPVTG,,T,,M,,N,,K,N*2C
$GPZDA,193943.00,07,09,2018,00,00*66
$GPHDT,,T*1B
$GPGGA,,,,,,0,,,,M,,M,,*66
$GPVTG,,T,,M,,N,,K,N*2C
$GPHDT,,T*1B
$GPGGA,,,,,,0,,,,M,,M,,*66
$GPVTG,,T,,M,,N,,K,N*2C
$GPZDA,193944.00,07,09,2018,00,00*61
$GPHDT,,T*1B
$GPGGA,,,,,,0,,,,M,,M,,*66
$GPVTG,,T,,M,,N,,K,N*2C
$GPHDT,,T*1B
$GPGGA,,,,,,0,,,,M,,M,,*66
$GPVTG,,T,,M,,N,,K,N*2C
$GPZDA,193945.00,07,09,2018,00,00*60
$GPHDT,,T*1B
$GPGGA,,,,,,0,,,,M,,M,,*66
$GPVTG,,T,,M,,N,,K,N*2C
$GPHDT,,T*1B
$GPGGA,,,,,,0,,,,M,,M,,*66
$GPVTG,,T,,M,,N,,K,N*2C
$GPZDA,193946.00,07,09,2018,00,00*63
$GPHDT,,T*1B
$GPGGA,,,,,,0,,,,M,,M,,*66
$GPVTG,,T,,M,,N,,K,N*2C
$GPHDT,,T*1B
$GPGGA,,,,,,0,,,,M,,M,,*66
$GPVTG,,T,,M,,N,,K,N*2C
$GPZDA,193947.00,07,09,2018,00,00*62
$GPHDT,,T*1B
$GPGGA,,,,,,0,,,,M,,M,,*66
$GPVTG,,T,,M,,N,,K,N*2C
$GPHDT,,T*1B
$GPGGA,,,,,,0,,,,M,,M,,*66
$GPVTG,,T,,M,,N,,K,N*2C
$GPZDA,193948.00,07,09,2018,00,00*6D
$GPHDT,,T*1B
$GPGGA,,,,,,0,,,,M,,M,,*66
$GPVTG,,T,,M,,N,,K,N*2C
$GPHDT,,T*1B
$GPGGA,,,,,,0,,,,M,,M,,*66
$GPVTG,,T,,M,,N,,K,N*2C
$GPZDA,193949.00,07,09,2018,00,00*6C
$GPHDT,,T*1B
$GPGGA,,,,,,0,,,,M,,M,,*66
$GPVTG,,T,,M,,N,,K,N*2C
$GPHDT,,T*1B
$GPGGA,,,,,,0,,,,M,,M,,*66
$GPVTG,,T,,M,,N,,K,N*2C
$GPZDA,193950.00,07,09,2018,00,00*64
$GPHDT,,T*1B
$GPGGA,,,,,,0,,,,M,,M,,*66
$GPVTG,,T,,M,,N,,K,N*2C
$GPHDT,,T*1B
$GPGGA,,,,,,0,,,,M,,M,,*66
$GPVTG,,T,,M,,N,,K,N*2C
$GPZDA,193951.00,07,09,2018,00,00*65
$GPHDT,,T*1B
$GPGGA,,,,,,0,,,,M,,M,,*66
$GPVTG,,T,,M,,N,,K,N*2C
$GPHDT,,T*1B
$GPGGA,,,,,,0,,,,M,,M,,*66
$GPVTG,,T,,M,,N,,K,N*2C
$GPZDA,193952.00,07,09,2018,00,00*66
$GPHDT,,T*1B
$GPGGA,,,,,,0,,,,M,,M,,*66
$GPVTG,,T,,M,,N,,K,N*2C
$GPHDT,,T*1B
$GPGGA,,,,,,0,,,,M,,M,,*66
$GPVTG,,T,,M,,N,,K,N*2C
$GPZDA,193953.00,07,09,2018,00,00*67
$GPHDT,,T*1B
$GPGGA,,,,,,0,,,,M,,M,,*66
$GPVTG,,T,,M,,N,,K,N*2C
$GPHDT,,T*1B
$GPGGA,,,,,,0,,,,M,,M,,*66
$GPVTG,,T,,M,,N,,K,N*2C
$GPZDA,193954.00,07,09,2018,00,00*60
$GPHDT,,T*1B
$GPGGA,,,,,,0,,,,M,,M,,*66
$GPVTG,,T,,M,,N,,K,N*2C
$GPHDT,,T*1B
$GPGGA,,,,,,0,,,,M,,M,,*66
$GPVTG,,T,,M,,N,,K,N*2C
$GPZDA,193955.00,07,09,2018,00,00*61
$GPHDT,,T*1B
$GPGGA,,,,,,0,,,,M,,M,,*66
$GPVTG,,T,,M,,N,,K,N*2C
$GPHDT,,T*1B
$GPGGA,,,,,,0,,,,M,,M,,*66
$GPVTG,,T,,M,,N,,K,N*2C
$GPZDA,193956.00,07,09,2018,00,00*62
$GPHDT,,T*1B
$GPGGA,,,,,,0,,,,M,,M,,*66
$GPVTG,,T,,M,,N,,K,N*2C
$GPHDT,,T*1B
$GPGGA,,,,,,0,,,,M,,M,,*66
$GPVTG,,T,,M,,N,,K,N*2C
$GPZDA,193957.00,07,09,2018,00,00*63
$GPHDT,,T*1B
$GPGGA,,,,,,0,,,,M,,M,,*66
$GPVTG,,T,,M,,N,,K,N*2C
$GPHDT,,T*1B
$GPGGA,,,,,,0,,,,M,,M,,*66
$GPVTG,,T,,M,,N,,K,N*2C
$GPZDA,193958.00,07,09,2018,00,00*6C
$GPHDT,,T*1B
$GPGGA,,,,,,0,,,,M,,M,,*66
$GPVTG,,T,,M,,N,,K,N*2C
$GPHDT,,T*1B
$GPGGA,,,,,,0,,,,M,,M,,*66
$GPVTG,,T,,M,,N,,K,N*2C
$GPZDA,193959.00,07,09,2018,00,00*6D
$GPHDT,,T*1B
$GPGGA,,,,,,0,,,,M,,M,,*66
$GPVTG,,T,,M,,N,,K,N*2C
$GPHDT,,T*1B
$GPGGA,,,,,,0,,,,M,,M,,*66
$GPVTG,,T,,M,,N,,K,N*2C
$GPZDA,194000.00,07,09,2018,00,00*6F
$GPHDT,,T*1B
$GPGGA,,,,,,0,,,,M,,M,,*66
$GPVTG,,T,,M,,N,,K,N*2C
$GPHDT,,T*1B
$GPGGA,,,,,,0,,,,M,,M,,*66
$GPVTG,,T,,M,,N,,K,N*2C
$GPZDA,194001.00,07,09,2018,00,00*6E
$GPHDT,,T*1B
$GPGGA,,,,,,0,,,,M,,M,,*66
$GPVTG,,T,,M,,N,,K,N*2C
$GPHDT,,T*1B
$GPGGA,,,,,,0,,,,M,,M,,*66
$GPVTG,,T,,M,,N,,K,N*2C
$GPZDA,194002.00,07,09,2018,00,00*6D
$GPHDT,,T*1B
$GPGGA,,,,,,0,,,,M,,M,,*66
$GPVTG,,T,,M,,N,,K,N*2C
$GPHDT,,T*1B
$GPGGA,,,,,,0,,,,M,,M,,*66
$GPVTG,,T,,M,,N,,K,N*2C
$GPZDA,194003.00,07,09,2018,00,00*6C
$GPHDT,,T*1B
$GPGGA,,,,,,0,,,,M,,M,,*66
$GPVTG,,T,,M,,N,,K,N*2C
$GPHDT,,T*1B
$GPGGA,,,,,,0,,,,M,,M,,*66
$GPVTG,,T,,M,,N,,K,N*2C
$GPZDA,194004.00,07,09,2018,00,00*6B
$GPHDT,,T*1B
$GPGGA,,,,,,0,,,,M,,M,,*66
$GPVTG,,T,,M,,N,,K,N*2C
$GPHDT,,T*1B
$GPGGA,,,,,,0,,,,M,,M,,*66
$GPVTG,,T,,M,,N,,K,N*2C
$GPZDA,194005.00,07,09,2018,00,00*6A
$GPHDT,,T*1B
$GPGGA,,,,,,0,,,,M,,M,,*66
$GPVTG,,T,,M,,N,,K,N*2C
$GPHDT,,T*1B
$GPGGA,,,,,,0,,,,M,,M,,*66
$GPVTG,,T,,M,,N,,K,N*2C
$GPZDA,194006.00,07,09,2018,00,00*69
$GPHDT,,T*1B
$GPGGA,,,,,,0,,,,M,,M,,*66
$GPVTG,,T,,M,,N,,K,N*2C
$GPHDT,,T*1B
$GPGGA,,,,,,0,,,,M,,M,,*66
$GPVTG,,T,,M,,N,,K,N*2C
$GPZDA,194007.00,07,09,2018,00,00*68
$GPHDT,,T*1B
$GPGGA,,,,,,0,,,,M,,M,,*66
$GPVTG,,T,,M,,N,,K,N*2C
$GPHDT,,T*1B
$GPGGA,,,,,,0,,,,M,,M,,*66
$GPVTG,,T,,M,,N,,K,N*2C
$GPZDA,194008.00,07,09,2018,00,00*67
$GPHDT,,T*1B
$GPGGA,,,,,,0,,,,M,,M,,*66
$GPVTG,,T,,M,,N,,K,N*2C
$GPHDT,,T*1B
$GPGGA,,,,,,0,,,,M,,M,,*66
$GPVTG,,T,,M,,N,,K,N*2C
$GPZDA,194009.00,07,09,2018,00,00*66
$GPHDT,,T*1B
$GPGGA,,,,,,0,,,,M,,M,,*66
$GPVTG,,T,,M,,N,,K,N*2C
$GPHDT,,T*1B
$GPGGA,,,,,,0,,,,M,,M,,*66
$GPVTG,,T,,M,,N,,K,N*2C
$GPZDA,194010.00,07,09,2018,00,00*6E
$GPHDT,,T*1B
$GPGGA,,,,,,0,,,,M,,M,,*66
$GPVTG,,T,,M,,N,,K,N*2C
$GPHDT,,T*1B
$GPGGA,,,,,,0,,,,M,,M,,*66
$GPVTG,,T,,M,,N,,K,N*2C
$GPZDA,194011.00,07,09,2018,00,00*6F
$GPHDT,,T*1B
$GPGGA,,,,,,0,,,,M,,M,,*66
$GPVTG,,T,,M,,N,,K,N*2C
$GPHDT,,T*1B
$GPGGA,,,,,,0,,,,M,,M,,*66
$GPVTG,,T,,M,,N,,K,N*2C
$GPZDA,194012.00,07,09,2018,00,00*6C
$GPHDT,,T*1B
$GPGGA,,,,,,0,,,,M,,M,,*66
$GPVTG,,T,,M,,N,,K,N*2C
$GPHDT,,T*1B
$GPGGA,,,,,,0,,,,M,,M,,*66
$GPVTG,,T,,M,,N,,K,N*2C
$GPZDA,194013.00,07,09,2018,00,00*6D
$GPHDT,,T*1B
$GPGGA,,,,,,0,,,,M,,M,,*66
$GPVTG,,T,,M,,N,,K,N*2C
$GPHDT,,T*1B
$GPGGA,,,,,,0,,,,M,,M,,*66
$GPVTG,,T,,M,,N,,K,N*2C
$GPZDA,194014.00,07,09,2018,00,00*6A
$GPHDT,,T*1B
$GPGGA,,,,,,0,,,,M,,M,,*66
$GPVTG,,T,,M,,N,,K,N*2C
$GPHDT,,T*1B
$GPGGA,,,,,,0,,,,M,,M,,*66
$GPVTG,,T,,M,,N,,K,N*2C
$GPZDA,194015.00,07,09,2018,00,00*6B
$GPHDT,,T*1B
$GPGGA,,,,,,0,,,,M,,M,,*66
$GPVTG,,T,,M,,N,,K,N*2C
$GPHDT,,T*1B
$GPGGA,,,,,,0,,,,M,,M,,*66
$GPVTG,,T,,M,,N,,K,N*2C
$GPZDA,194016.00,07,09,2018,00,00*68
$GPHDT,,T*1B
$GPGGA,,,,,,0,,,,M,,M,,*66
$GPVTG,,T,,M,,N,,K,N*2C
$GPHDT,,T*1B
$GPGGA,,,,,,0,,,,M,,M,,*66
$GPVTG,,T,,M,,N,,K,N*2C
$GPZDA,194017.00,07,09,2018,00,00*69
$GPHDT,,T*1B
$GPGGA,,,,,,0,,,,M,,M,,*66
$GPVTG,,T,,M,,N,,K,N*2C
$GPHDT,,T*1B
$GPGGA,,,,,,0,,,,M,,M,,*66
$GPVTG,,T,,M,,N,,K,N*2C
$GPZDA,194018.00,07,09,2018,00,00*66
$GPHDT,,T*1B
$GPGGA,,,,,,0,,,,M,,M,,*66
$GPVTG,,T,,M,,N,,K,N*2C
$GPHDT,,T*1B
$GPGGA,,,,,,0,,,,M,,M,,*66
$GPVTG,,T,,M,,N,,K,N*2C
$GPZDA,194019.00,07,09,2018,00,00*67
$GPHDT,,T*1B
$GPGGA,,,,,,0,,,,M,,M,,*66
$GPVTG,,T,,M,,N,,K,N*2C
$GPHDT,,T*1B
$GPGGA,,,,,,0,,,,M,,M,,*66
$GPVTG,,T,,M,,N,,K,N*2C
$GPZDA,194020.00,07,09,2018,00,00*6D
$GPHDT,,T*1B
$GPGGA,,,,,,0,,,,M,,M,,*66
$GPVTG,,T,,M,,N,,K,N*2C
$GPHDT,,T*1B
$GPGGA,,,,,,0,,,,M,,M,,*66
$GPVTG,,T,,M,,N,,K,N*2C
$GPZDA,194021.00,07,09,2018,00,00*6C
$GPHDT,,T*1B
$GPGGA,,,,,,0,,,,M,,M,,*66
$GPVTG,,T,,M,,N,,K,N*2C
$GPHDT,,T*1B
$GPGGA,,,,,,0,,,,M,,M,,*66
$GPVTG,,T,,M,,N,,K,N*2C
$GPZDA,194022.00,07,09,2018,00,00*6F
$GPHDT,,T*1B
$GPGGA,,,,,,0,,,,M,,M,,*66
$GPVTG,,T,,M,,N,,K,N*2C
$GPHDT,,T*1B
$GPGGA,,,,,,0,,,,M,,M,,*66
$GPVTG,,T,,M,,N,,K,N*2C
$GPZDA,194023.00,07,09,2018,00,00*6E
$GPHDT,,T*1B
$GPGGA,,,,,,0,,,,M,,M,,*66
$GPVTG,,T,,M,,N,,K,N*2C
$GPHDT,,T*1B
$GPGGA,,,,,,0,,,,M,,M,,*66
$GPVTG,,T,,M,,N,,K,N*2C
$GPZDA,194024.00,07,09,2018,00,00*69
$GPHDT,,T*1B
$GPGGA,,,,,,0,,,,M,,M,,*66
$GPVTG,,T,,M,,N,,K,N*2C
$GPHDT,,T*1B
$GPGGA,,,,,,0,,,,M,,M,,*66
$GPVTG,,T,,M,,N,,K,N*2C
$GPZDA,194025.00,07,09,2018,00,00*68
$GPHDT,,T*1B
$GPGGA,,,,,,0,,,,M,,M,,*66
$GPVTG,,T,,M,,N,,K,N*2C
$GPHDT,,T*1B
$GPGGA,,,,,,0,,,,M,,M,,*66
$GPVTG,,T,,M,,N,,K,N*2C
$GPZDA,194026.00,07,09,2018,00,00*6B
$GPHDT,,T*1B
$GPGGA,,,,,,0,,,,M,,M,,*66
$GPVTG,,T,,M,,N,,K,N*2C
$GPHDT,,T*1B
$GPGGA,,,,,,0,,,,M,,M,,*66
$GPVTG,,T,,M,,N,,K,N*2C
$GPZDA,194027.00,07,09,2018,00,00*6A
$GPHDT,,T*1B
$GPGGA,,,,,,0,,,,M,,M,,*66
$GPVTG,,T,,M,,N,,K,N*2C
$GPHDT,,T*1B
$GPGGA,,,,,,0,,,,M,,M,,*66
$GPVTG,,T,,M,,N,,K,N*2C
$GPZDA,194028.00,07,09,2018,00,00*65
$GPHDT,,T*1B
$GPGGA,,,,,,0,,,,M,,M,,*66
$GPVTG,,T,,M,,N,,K,N*2C
$GPHDT,,T*1B
$GPGGA,,,,,,0,,,,M,,M,,*66
$GPVTG,,T,,M,,N,,K,N*2C
$GPZDA,194029.00,07,09,2018,00,00*64
$GPHDT,,T*1B
$GPGGA,,,,,,0,,,,M,,M,,*66
$GPVTG,,T,,M,,N,,K,N*2C
$GPHDT,,T*1B
$GPGGA,,,,,,0,,,,M,,M,,*66
$GPVTG,,T,,M,,N,,K,N*2C
$GPZDA,194030.00,07,09,2018,00,00*6C
$GPHDT,,T*1B
$GPGGA,,,,,,0,,,,M,,M,,*66
$GPVTG,,T,,M,,N,,K,N*2C
$GPHDT,,T*1B
$GPGGA,,,,,,0,,,,M,,M,,*66
$GPVTG,,T,,M,,N,,K,N*2C
$GPZDA,194031.00,07,09,2018,00,00*6D
$GPHDT,,T*1B
$GPGGA,,,,,,0,,,,M,,M,,*66
$GPVTG,,T,,M,,N,,K,N*2C
$GPHDT,,T*1B
$GPGGA,,,,,,0,,,,M,,M,,*66
$GPVTG,,T,,M,,N,,K,N*2C
$GPZDA,194032.00,07,09,2018,00,00*6E
$GPHDT,,T*1B
$GPGGA,,,,,,0,,,,M,,M,,*66
$GPVTG,,T,,M,,N,,K,N*2C
$GPHDT,,T*1B
$GPGGA,,,,,,0,,,,M,,M,,*66
$GPVTG,,T,,M,,N,,K,N*2C
$GPZDA,194033.00,07,09,2018,00,00*6F
$GPHDT,,T*1B
$GPGGA,,,,,,0,,,,M,,M,,*66
$GPVTG,,T,,M,,N,,K,N*2C
$GPHDT,,T*1B
$GPGGA,,,,,,0,,,,M,,M,,*66
$GPVTG,,T,,M,,N,,K,N*2C
$GPZDA,194034.00,07,09,2018,00,00*68
$GPHDT,,T*1B
$GPGGA,,,,,,0,,,,M,,M,,*66
$GPVTG,,T,,M,,N,,K,N*2C
$GPHDT,,T*1B
$GPGGA,,,,,,0,,,,M,,M,,*66
$GPVTG,,T,,M,,N,,K,N*2C
$GPZDA,194035.00,07,09,2018,00,00*69
$GPHDT,,T*1B
$GPGGA,,,,,,0,,,,M,,M,,*66
$GPVTG,,T,,M,,N,,K,N*2C
$GPHDT,,T*1B
$GPGGA,,,,,,0,,,,M,,M,,*66
$GPVTG,,T,,M,,N,,K,N*2C
$GPZDA,194036.00,07,09,2018,00,00*6A
$GPHDT,,T*1B
$GPGGA,,,,,,0,,,,M,,M,,*66
$GPVTG,,T,,M,,N,,K,N*2C
$GPHDT,,T*1B
$GPGGA,,,,,,0,,,,M,,M,,*66
$GPVTG,,T,,M,,N,,K,N*2C
$GPZDA,194037.00,07,09,2018,00,00*6B
$GPHDT,,T*1B
$GPGGA,,,,,,0,,,,M,,M,,*66
$GPVTG,,T,,M,,N,,K,N*2C
$GPHDT,,T*1B
$GPGGA,,,,,,0,,,,M,,M,,*66
$GPVTG,,T,,M,,N,,K,N*2C
$GPZDA,194038.00,07,09,2018,00,00*64
$GPHDT,,T*1B
$GPGGA,,,,,,0,,,,M,,M,,*66
$GPVTG,,T,,M,,N,,K,N*2C
$GPHDT,,T*1B
$GPGGA,,,,,,0,,,,M,,M,,*66
$GPVTG,,T,,M,,N,,K,N*2C
$GPZDA,194039.00,07,09,2018,00,00*65
$GPHDT,,T*1B
$GPGGA,,,,,,0,,,,M,,M,,*66
$GPVTG,,T,,M,,N,,K,N*2C
$GPHDT,,T*1B
$GPGGA,,,,,,0,,,,M,,M,,*66
$GPVTG,,T,,M,,N,,K,N*2C
$GPZDA,194040.00,07,09,2018,00,00*6B
$GPHDT,,T*1B
$GPGGA,,,,,,0,,,,M,,M,,*66
$GPVTG,,T,,M,,N,,K,N*2C
$GPHDT,,T*1B
$GPGGA,,,,,,0,,,,M,,M,,*66
$GPVTG,,T,,M,,N,,K,N*2C
$GPZDA,194041.00,07,09,2018,00,00*6A
$GPHDT,,T*1B
$GPGGA,,,,,,0,,,,M,,M,,*66
$GPVTG,,T,,M,,N,,K,N*2C
$GPHDT,,T*1B
$GPGGA,,,,,,0,,,,M,,M,,*66
$GPVTG,,T,,M,,N,,K,N*2C
$GPZDA,194042.00,07,09,2018,00,00*69
$GPHDT,,T*1B
$GPGGA,,,,,,0,,,,M,,M,,*66
$GPVTG,,T,,M,,N,,K,N*2C
$GPHDT,,T*1B
$GPGGA,,,,,,0,,,,M,,M,,*66
$GPVTG,,T,,M,,N,,K,N*2C
$GPZDA,194043.00,07,09,2018,00,00*68
$GPHDT,,T*1B
$GPGGA,,,,,,0,,,,M,,M,,*66
$GPVTG,,T,,M,,N,,K,N*2C
$GPHDT,,T*1B
$GPGGA,,,,,,0,,,,M,,M,,*66
$GPVTG,,T,,M,,N,,K,N*2C
$GPZDA,194044.00,07,09,2018,00,00*6F
$GPHDT,,T*1B
$GPGGA,,,,,,0,,,,M,,M,,*66
$GPVTG,,T,,M,,N,,K,N*2C
$GPHDT,,T*1B
$GPGGA,,,,,,0,,,,M,,M,,*66
$GPVTG,,T,,M,,N,,K,N*2C
$GPZDA,194045.00,07,09,2018,00,00*6E
$GPHDT,,T*1B
$GPGGA,,,,,,0,,,,M,,M,,*66
$GPVTG,,T,,M,,N,,K,N*2C
$GPHDT,,T*1B
$GPGGA,,,,,,0,,,,M,,M,,*66
$GPVTG,,T,,M,,N,,K,N*2C
$GPZDA,194046.00,07,09,2018,00,00*6D
$GPHDT,,T*1B
$GPGGA,,,,,,0,,,,M,,M,,*66
$GPVTG,,T,,M,,N,,K,N*2C
$GPHDT,,T*1B
$GPGGA,,,,,,0,,,,M,,M,,*66
$GPVTG,,T,,M,,N,,K,N*2C
$GPZDA,194047.00,07,09,2018,00,00*6C
$GPHDT,,T*1B
$GPGGA,,,,,,0,,,,M,,M,,*66
$GPVTG,,T,,M,,N,,K,N*2C
$GPHDT,,T*1B
$GPGGA,,,,,,0,,,,M,,M,,*66
$GPVTG,,T,,M,,N,,K,N*2C
$GPZDA,194048.00,07,09,2018,00,00*63
$GPHDT,,T*1B
$GPGGA,,,,,,0,,,,M,,M,,*66
$GPVTG,,T,,M,,N,,K,N*2C
$GPHDT,,T*1B
$GPGGA,,,,,,0,,,,M,,M,,*66
$GPVTG,,T,,M,,N,,K,N*2C
$GPZDA,194049.00,07,09,2018,00,00*62
$GPHDT,,T*1B
$GPGGA,,,,,,0,,,,M,,M,,*66
$GPVTG,,T,,M,,N,,K,N*2C
$GPHDT,,T*1B
$GPGGA,194050.00,4221.8237733,N,07101.9411707,W,1,00,3.3,10.835,M,-33.320,M,,*62
{"class":"TPV","mode":3,"time":"2018-09-07T19:40:50.000Z","ept":0.005,"lat":42.363729555,"lon":-71.032352845,"alt":10.835}
$GPVTG,330.63,T,345.26,M,0.00,N,0.00,K,A*20
$GPZDA,194050.00,07,09,2018,00,00*6A
$GPHDT,,T*1B
$GPGGA,194050.50,4221.8237941,N,07101.9410746,W,1,00,3.3,10.526,M,-33.320,M,,*67
{"class":"TPV","mode":3,"time":"2018-09-07T19:40:50.500Z","ept":0.005,"lat":42.363729902,"lon":-71.032351243,"alt":10.526,"speed":0.275,"climb":-0.618}
$GPVTG,156.55,T,171.19,M,0.00,N,0.00,K,A*2E
$GPHDT,,T*1B
$GPGGA,194051.00,4221.8238054,N,07101.9410555,W,1,00,3.3,10.862,M,-33.320,M,,*6C
{"class":"TPV","mode":3,"time":"2018-09-07T19:40:51.000Z","ept":0.005,"lat":42.363730090,"lon":-71.032350925,"alt":10.862,"speed":0.067,"climb":0.672}
$GPVTG,107.68,T,122.32,M,0.00,N,0.00,K,A*2B
$GPZDA,194051.00,07,09,2018,00,00*6B
$GPHDT,,T*1B
$GPGGA,194051.50,4221.8239037,N,07101.9411896,W,1,00,3.3,10.870,M,-33.057,M,,*6E
{"class":"TPV","mode":3,"time":"2018-09-07T19:40:51.500Z","ept":0.005,"lat":42.363731728,"lon":-71.032353160,"alt":10.870,"speed":0.518,"climb":0.016}
$GPVTG,256.17,T,270.81,M,0.00,N,0.00,K,A*28
$GPHDT,,T*1B
$GPGGA,194052.00,4221.8238929,N,07101.9412731,W,1,00,3.3,11.392,M,-33.057,M,,*68
{"class":"TPV","mode":3,"time":"2018-09-07T19:40:52.000Z","ept":0.005,"lat":42.363731548,"lon":-71.032354552,"alt":11.392,"speed":0.233,"climb":1.044}
$GPVTG,74.45,T,89.09,M,0.00,N,0.00,K,A*29
$GPZDA,194052.00,07,09,2018,00,00*68
$GPHDT,,T*1B
$GPGGA,194052.50,4221.8238140,N,07101.9412553,W,1,00,3.3,11.515,M,-33.057,M,,*65
{"class":"TPV","mode":3,"time":"2018-09-07T19:40:52.500Z","ept":0.005,"lat":42.363730233,"lon":-71.032354255,"alt":11.515,"speed":0.296,"climb":0.246}
$GPVTG,74.45,T,89.09,M,0.00,N,0.00,K,A*29
$GPHDT,,T*1B
$GPGGA,194053.00,4221.8238450,N,07101.9411940,W,1,00,3.3,11.243,M,-33.057,M,,*6C
{"class":"TPV","mode":3,"time":"2018-09-07T19:40:53.000Z","ept":0.005,"lat":42.363730750,"lon":-71.032353233,"alt":11.243,"speed":0.204,"climb":-0.544}
$GPVTG,74.45,T,89.09,M,0.00,N,0.00,K,A*29
$GPZDA,194053.00,07,09,2018,00,00*69
$GPHDT,,T*1B
$GPGGA,194053.50,4221.8238406,N,07101.9413037,W,1,00,3.3,10.806,M,-33.057,M,,*6B
{"class":"TPV","mode":3,"time":"2018-09-07T19:40:53.500Z","ept":0.005,"lat":42.363730677,"lon":-71.032355062,"alt":10.806,"speed":0.302,"climb":-0.874}
$GPVTG,74.45,T,89.09,M,0.00,N,0.00,K,A*29
$GPHDT,,T*1B
$GPGGA,194054.00,4221.8237822,N,07101.9413821,W,1,00,3.3,10.688,M,-33.057,M,,*6B
{"class":"TPV","mode":3,"time":"2018-09-07T19:40:54.000Z","ept":0.005,"lat":42.363729703,"lon":-71.032356368,"alt":10.688,"speed":0.305,"climb":-0.236}
$GPVTG,74.45,T,89.09,M,0.00,N,0.00,K,A*29
$GPZDA,194054.00,07,09,2018,00,00*6E
$GPHDT,,T*1B
$GPGGA,194054.50,4221.8236855,N,07101.9414891,W,1,00,3.3,11.031,M,-33.057,M,,*66
{"class":"TPV","mode":3,"time":"2018-09-07T19:40:54.500Z","ept":0.005,"lat":42.363728092,"lon":-71.032358152,"alt":11.031,"speed":0.463,"climb":0.686}
$GPVTG,74.45,T,89.09,M,0.00,N,0.00,K,A*29
$GPHDT,,T*1B
$GPGGA,194055.00,4221.8236802,N,07101.9416175,W,1,00,3.3,11.308,M,-33.057,M,,*68
{"class":"TPV","mode":3,"time":"2018-09-07T19:40:55.000Z","ept":0.005,"lat":42.363728003,"lon":-71.032360292,"alt":11.308,"speed":0.353,"climb":0.554}
$GPVTG,74.45,T,89.09,M,0.00,N,0.00,K,A*29
$GPZDA,194055.00,07,09,2018,00,00*6F
$GPHDT,,T*1B
$GPGGA,194055.50,4221.8236693,N,07101.9416028,W,1,00,3.3,11.111,M,-33.057,M,,*68
{"class":"TPV","mode":3,"time":"2018-09-07T19:40:55.500Z","ept":0.005,"lat":42.363727822,"lon":-71.032360047,"alt":11.111,"speed":0.057,"climb":-0.394}
$GPVTG,74.45,T,89.09,M,0.00,N,0.00,K,A*29
$GPHDT,,T*1B
$GPGGA,194056.00,4221.8236359,N,07101.9416800,W,1,00,3.3,11.217,M,-33.057,M,,*6A
{"class":"TPV","mode":3,"time":"2018-09-07T19:40:56.000Z","ept":0.005,"lat":42.363727265,"lon":-71.032361333,"alt":11.217,"speed":0.245,"climb":0.212}
$GPVTG,74.45,T,89.09,M,0.00,N,0.00,K,A*29
$GPZDA,194056.00,07,09,2018,00,00*6C
$GPHDT,,T*1B
$GPGGA,194056.50,4221.8236184,N,07101.9416602,W,1,00,3.3,11.389,M,-33.057,M,,*67
{"class":"TPV","mode":3,"time":"2018-09-07T19:40:56.500Z","ept":0.005,"lat":42.363726973,"lon":-71.032361003,"alt":11.389,"speed":0.085,"climb":0.344}
$GPVTG,74.45,T,89.09,M,0.00,N,0.00,K,A*29
$GPHDT,,T*1B
$GPGGA,194057.00,4221.8236070,N,07101.9417726,W,1,00,3.3,11.706,M,-33.057,M,,*6C
{"class":"TPV","mode":3,"time":"2018-09-07T19:40:57.000Z","ept":0.005,"lat":42.363726783,"lon":-71.032362877,"alt":11.706,"speed":0.312,"climb":0.634}
$GPVTG,74.45,T,89.09,M,0.00,N,0.00,K,A*29
$GPZDA,194057.00,07,09,2018,00,00*6D
$GPHDT,,T*1B
$GPGGA,194057.50,4221.8237090,N,07101.9439268,W,1,04,1.4,7.671,M,-33.057,M,,*52
{"class":"TPV","mode":3,"time":"2018-09-07T19:40:57.500Z","ept":0.005,"lat":42.363728483,"lon":-71.032398780,"alt":7.671,"speed":5.927,"climb":-8.070}
$GPVTG,97.75,T,112.39,M,0.04,N,0.07,K,A*14
$GPHDT,,T*1B
$GPGGA,194058.00,4221.8236441,N,07101.9438734,W,1,04,1.4,6.786,M,-33.057,M,,*54
{"class":"TPV","mode":3,"time":"2018-09-07T19:40:58.000Z","ept":0.005,"lat":42.363727402,"lon":-71.032397890,"alt":6.786,"speed":0.282,"climb":-1.770}
$GPVTG,346.88,T,1.52,M,0.04,N,0.07,K,A*27
$GPZDA,194058.00,07,09,2018,00,00*62
$GPHDT,274.07,T*03
{"class":"ATT","heading":274.070}
$GPGGA,194058.50,4221.8236149,N,07101.9438435,W,1,04,1.4,6.668,M,-33.057,M,,*5F
{"class":"TPV","mode":3,"time":"2018-09-07T19:40:58.500Z","ept":0.005,"lat":42.363726915,"lon":-71.032397392,"alt":6.668,"speed":0.136,"climb":-0.236}
$GPVTG,237.64,T,252.28,M,0.02,N,0.04,K,A*2E
$GPHDT,274.04,T*00
{"class":"ATT","heading":274.040}
$GPGGA,194059.00,4221.8235923,N,07101.9438218,W,1,04,1.4,6.709,M,-33.057,M,,*53
{"class":"TPV","mode":3,"time":"2018-09-07T19:40:59.000Z","ept":0.005,"lat":42.363726538,"lon":-71.032397030,"alt":6.709,"speed":0.103,"climb":0.082}
$GPVTG,150.20,T,164.83,M,0.02,N,0.05,K,A*2A
$GPZDA,194059.00,07,09,2018,00,00*63
$GPHDT,274.12,T*07
{"class":"ATT","heading":274.120}
$GPGGA,194059.50,4221.8235724,N,07101.9438087,W,1,04,1.4,6.809,M,-33.057,M,,*54
{"class":"TPV","mode":3,"time":"2018-09-07T19:40:59.500Z","ept":0.005,"lat":42.363726207,"lon":-71.032396812,"alt":6.809,"speed":0.082,"climb":0.200}
$GPVTG,183.70,T,198.32,M,0.02,N,0.04,K,A*29
$GPHDT,274.11,T*04
{"class":"ATT","heading":274.110}
$GPGGA,194100.00,4221.8235522,N,07101.9438007,W,1,04,1.4,6.914,M,-33.057,M,,*5D
{"class":"TPV","mode":3,"time":"2018-09-07T19:41:00.000Z","ept":0.005,"lat":42.363725870,"lon":-71.032396678,"alt":6.914,"speed":0.078,"climb":0.210}
$GPVTG,196.33,T,210.95,M,0.03,N,0.06,K,A*27
$GPZDA,194100.00,07,09,2018,00,00*6E
