$INDPT,2.2,0.0*47
$INRMC,194101,A,4426.1130,N,07140.5596,W,5.2,77.3,160906,15.8,W*60
{"class":"TPV","mode":2,"time":"2006-09-16T19:41:01.000Z","ept":0.005,"lat":44.435216667,"lon":-71.675993333,"track":77.3000,"speed":2.675}
$INDPT,2.1,0.0*44
$INGLL,4426.1130,N,07140.5579,W,194102,A*2C
$INVTG,77.5,T,93.3,M,5.2,N,9.7,K*5B
$INMTW,17.9,C*1B
$INDPT,2.1,0.0*44
$INRMC,194103,A,4426.1134,N,07140.5558,W,5.3,77.0,160906,15.8,W*66
{"class":"TPV","mode":2,"time":"2006-09-16T19:41:03.000Z","ept":0.005,"lat":44.435223333,"lon":-71.675930000,"track":77.0000,"speed":2.727}
$INDPT,2.0,0.0*45
$INGGA,194104,4426.1138,N,07140.5536,W,2,10,0.9,267.9,M,,,,*13
$INZDA,194104,16,09,2006,-05,00*73
$INMTW,17.9,C*1B
$INDPT,2.1,0.0*44
$INRMC,194105,A,4426.1142,N,07140.5515,W,5.3,76.8,160906,15.8,W*61
{"class":"TPV","mode":2,"time":"2006-09-16T19:41:05.000Z","ept":0.005,"lat":44.435236667,"lon":-71.675858333,"track":76.8000,"speed":2.727}
$INDPT,2.1,0.0*44
$INGLL,4426.1146,N,07140.5499,W,194106,A*26
{"class":"TPV","mode":2,"time":"2006-09-16T19:41:06.000Z","ept":0.005,"lat":44.435243333,"lon":-71.675831667,"speed":2.249}
$INVTG,76.3,T,92.1,M,5.3,N,9.7,K*5E
$INMTW,17.9,C*1B
$INDPT,2.2,0.0*47
$INRMC,194107,A,4426.1149,N,07140.5477,W,5.3,76.6,160906,15.8,W*63
{"class":"TPV","mode":2,"time":"2006-09-16T19:41:07.000Z","ept":0.005,"lat":44.435248333,"lon":-71.675795000,"track":76.6000,"speed":2.727}
$INDPT,2.1,0.0*44
$INGGA,194108,4426.1149,N,07140.5455,W,2,10,0.9,268.0,M,,,,*1B
{"class":"TPV","mode":3,"time":"2006-09-16T19:41:08.000Z","ept":0.005,"lat":44.435248333,"lon":-71.675758333,"alt":268.000,"speed":2.919}
$INZDA,194108,16,09,2006,-05,00*7F
$INMTW,17.9,C*1B
$INDPT,2.2,0.0*47
$INRMC,194109,A,4426.1153,N,07140.5439,W,5.2,76.5,160906,15.8,W*6E
{"class":"TPV","mode":2,"time":"2006-09-16T19:41:09.000Z","ept":0.005,"lat":44.435255000,"lon":-71.675731667,"track":76.5000,"speed":2.675}
$INDPT,2.3,0.0*46
$INGLL,4426.1157,N,07140.5418,W,194110,A*28
{"class":"TPV","mode":2,"time":"2006-09-16T19:41:10.000Z","ept":0.005,"lat":44.435261667,"lon":-71.675696667,"speed":2.883}
$INVTG,77.2,T,93.0,M,5.2,N,9.7,K*5F
$INMTW,17.9,C*1B
$INDPT,2.2,0.0*47
$INRMC,194111,A,4426.1161,N,07140.5396,W,5.3,77.6,160906,15.8,W*67
{"class":"TPV","mode":2,"time":"2006-09-16T19:41:11.000Z","ept":0.005,"lat":44.435268333,"lon":-71.675660000,"track":77.6000,"speed":2.727}
$INDPT,2.3,0.0*46
$INGGA,194112,4426.1165,N,07140.5380,W,2,10,0.9,268.0,M,,,,*11
{"class":"TPV","mode":3,"time":"2006-09-16T19:41:12.000Z","ept":0.005,"lat":44.435275000,"lon":-71.675633333,"alt":268.000,"speed":2.249}
$INZDA,194112,16,09,2006,-05,00*74
$INMTW,17.9,C*1B
$INDPT,2.3,0.0*46
$INRMC,194113,A,4426.1169,N,07140.5358,W,5.2,75.6,160906,15.8,W*6C
{"class":"TPV","mode":2,"time":"2006-09-16T19:41:13.000Z","ept":0.005,"lat":44.435281667,"lon":-71.675596667,"track":75.6000,"speed":2.675}
$INDPT,2.4,0.0*41
$INGLL,4426.1173,N,07140.5337,W,194114,A*20
{"class":"TPV","mode":2,"time":"2006-09-16T19:41:14.000Z","ept":0.005,"lat":44.435288333,"lon":-71.675561667,"speed":2.883}
$INVTG,76.0,T,91.8,M,5.2,N,9.6,K*57
$INMTW,17.9,C*1B
$INDPT,2.5,0.0*40
$INRMC,194115,A,4426.1176,N,07140.5321,W,5.2,77.3,160906,15.8,W*6D
{"class":"TPV","mode":2,"time":"2006-09-16T19:41:15.000Z","ept":0.005,"lat":44.435293333,"lon":-71.675535000,"track":77.3000,"speed":2.675}
$INDPT,2.4,0.0*41
$INGGA,194116,4426.1176,N,07140.5299,W,2,10,0.9,268.0,M,,,,*1E
{"class":"TPV","mode":3,"time":"2006-09-16T19:41:16.000Z","ept":0.005,"lat":44.435293333,"lon":-71.675498333,"alt":268.000,"speed":2.919}
$INZDA,194116,16,09,2006,-05,00*70
$INMTW,18.0,C*1D
$INDPT,2.4,0.0*41
$INRMC,194117,A,4426.1180,N,07140.5278,W,5.2,76.8,160906,15.8,W*61
{"class":"TPV","mode":2,"time":"2006-09-16T19:41:17.000Z","ept":0.005,"lat":44.435300000,"lon":-71.675463333,"track":76.8000,"speed":2.675}
$INDPT,2.5,0.0*40
$INGLL,4426.1184,N,07140.5261,W,194118,A*26
{"class":"TPV","mode":2,"time":"2006-09-16T19:41:18.000Z","ept":0.005,"lat":44.435306667,"lon":-71.675435000,"speed":2.374}
$INVTG,76.4,T,92.2,M,5.2,N,9.7,K*5B
$INMTW,18.0,C*1D
$INDPT,2.6,0.0*43
$INRMC,194119,A,4426.1188,N,07140.5240,W,5.2,77.5,160906,15.8,W*60
{"class":"TPV","mode":2,"time":"2006-09-16T19:41:19.000Z","ept":0.005,"lat":44.435313333,"lon":-71.675400000,"track":77.5000,"speed":2.675}
$INDPT,2.4,0.0*41
$INGGA,194120,4426.1192,N,07140.5218,W,2,10,0.9,268.2,M,,,,*1A
{"class":"TPV","mode":3,"time":"2006-09-16T19:41:20.000Z","ept":0.005,"lat":44.435320000,"lon":-71.675363333,"alt":268.200,"speed":3.012}
$INZDA,194120,16,09,2006,-05,00*75
$INMTW,17.9,C*1B
$INDPT,2.4,0.0*41
$INRMC,194121,A,4426.1192,N,07140.5202,W,5.2,79.3,160906,15.8,W*6E
{"class":"TPV","mode":2,"time":"2006-09-16T19:41:21.000Z","ept":0.005,"lat":44.435320000,"lon":-71.675336667,"track":79.3000,"speed":2.675}
$INDPT,2.4,0.0*41
$INGLL,4426.1196,N,07140.5181,W,194122,A*21
{"class":"TPV","mode":2,"time":"2006-09-16T19:41:22.000Z","ept":0.005,"lat":44.435326667,"lon":-71.675301667,"speed":2.883}
$INVTG,78.6,T,94.4,M,5.3,N,9.7,K*56
$INMTW,18.0,C*1D
$INDPT,2.4,0.0*41
$INRMC,194123,A,4426.1200,N,07140.5159,W,5.2,79.0,160906,15.8,W*6A
{"class":"TPV","mode":2,"time":"2006-09-16T19:41:23.000Z","ept":0.005,"lat":44.435333333,"lon":-71.675265000,"track":79.0000,"speed":2.675}
$INDPT,2.4,0.0*41
$INGGA,194124,4426.1200,N,07140.5143,W,2,10,0.9,268.2,M,,,,*1B
{"class":"TPV","mode":3,"time":"2006-09-16T19:41:24.000Z","ept":0.005,"lat":44.435333333,"lon":-71.675238333,"alt":268.200,"speed":2.123}
$INZDA,194124,16,09,2006,-05,00*71
$INMTW,17.9,C*1B
$INDPT,2.5,0.0*40
$INRMC,194111,A,4426.1203,N,07140.5121,W,5.2,81.5,160906,15.8,W*65
{"class":"TPV","mode":2,"time":"2006-09-16T19:41:11.000Z","ept":0.005,"lat":44.435338333,"lon":-71.675201667,"track":81.5000,"speed":2.675}
$INDPT,2.4,0.0*41
$INGLL,4426.1203,N,07140.5100,W,194112,A*24
{"class":"TPV","mode":2,"time":"2006-09-16T19:41:12.000Z","ept":0.005,"lat":44.435338333,"lon":-71.675166667,"speed":2.787}
$INVTG,81.4,T,97.2,M,5.2,N,9.6,K*57
$INMTW,18.0,C*1D
$INDPT,2.3,0.0*46
$INRMC,194113,A,4426.1207,N,07140.5084,W,5.2,81.9,160906,15.8,W*61
{"class":"TPV","mode":2,"time":"2006-09-16T19:41:13.000Z","ept":0.005,"lat":44.435345000,"lon":-71.675140000,"track":81.9000,"speed":2.675}
$INDPT,2.3,0.0*46
$INGGA,194114,4426.1211,N,07140.5062,W,2,10,0.9,268.4,M,,,,*1C
{"class":"TPV","mode":3,"time":"2006-09-16T19:41:14.000Z","ept":0.005,"lat":44.435351667,"lon":-71.675103333,"alt":268.400,"speed":3.012}
$INZDA,194114,16,09,2006,-05,00*72
$INMTW,18.0,C*1D
$INDPT,2.4,0.0*41
$INRMC,194115,A,4426.1211,N,07140.5040,W,5.2,83.9,160906,15.8,W*6A
{"class":"TPV","mode":2,"time":"2006-09-16T19:41:15.000Z","ept":0.005,"lat":44.435351667,"lon":-71.675066667,"track":83.9000,"speed":2.675}
$INDPT,2.4,0.0*41
$INGLL,4426.1211,N,07140.5024,W,194116,A*24
{"class":"TPV","mode":2,"time":"2006-09-16T19:41:16.000Z","ept":0.005,"lat":44.435351667,"lon":-71.675040000,"speed":2.123}
$INVTG,83.7,T,99.5,M,5.2,N,9.6,K*5F
$INMTW,18.1,C*1C
$INDPT,2.4,0.0*41
$INRMC,194117,A,4426.1215,N,07140.5003,W,5.2,83.8,160906,15.8,W*6A
{"class":"TPV","mode":2,"time":"2006-09-16T19:41:17.000Z","ept":0.005,"lat":44.435358333,"lon":-71.675005000,"track":83.8000,"speed":2.675}
$INDPT,2.4,0.0*41
$INGGA,194118,4426.1215,N,07140.4987,W,2,10,0.9,268.5,M,,,,*16
{"class":"TPV","mode":3,"time":"2006-09-16T19:41:18.000Z","ept":0.005,"lat":44.435358333,"lon":-71.674978333,"alt":268.500,"speed":2.123}
$INZDA,194118,16,09,2006,-05,00*7E
$INMTW,18.0,C*1D
$INDPT,2.3,0.0*46
$INRMC,194119,A,4426.1219,N,07140.4965,W,5.1,85.4,160906,15.8,W*69
{"class":"TPV","mode":2,"time":"2006-09-16T19:41:19.000Z","ept":0.005,"lat":44.435365000,"lon":-71.674941667,"track":85.4000,"speed":2.624}
