$GPGGA,221300,5333.7947,N,11326.3773,W,1,05,,661.09,M,-19.872,M,,*65
$GPRMC,221300,A,5333.7947,N,11326.3773,W,0.0000,0.000,060709,,*39
$GPGSA,A,3,,,,,,,,,,,,,0.0,0.0,0.0*32
{"class":"TPV","tag":"ITK-07","time":1246918380.144,"ept":0.005,"lat":53.563244879,"lon":-113.439622385,"alt":661.089,"track":0.0000,"speed":0.000,"climb":0.000,"mode":3}
$GPGSV,3,1,09,03,35,061,32,06,26,049,34,07,76,101,23,08,60,183,38*71
$GPGSV,3,2,09,10,23,180,00,13,33,166,16,19,43,094,47,25,54,109,44*73
$GPGSV,3,3,09,28,30,125,00*4F
{"class":"SKY","tag":"ITK-02","time":1246918380.322,"xdop":0.00,"ydop":0.00,"satellites":[{"PRN":3,"el":35,"az":61,"ss":32,"used":true},{"PRN":6,"el":26,"az":49,"ss":34,"used":true},{"PRN":7,"el":76,"az":101,"ss":23,"used":false},{"PRN":8,"el":60,"az":183,"ss":38,"used":true},{"PRN":10,"el":23,"az":180,"ss":0,"used":false},{"PRN":13,"el":33,"az":166,"ss":16,"used":false},{"PRN":19,"el":43,"az":94,"ss":47,"used":true},{"PRN":25,"el":54,"az":109,"ss":44,"used":true},{"PRN":28,"el":30,"az":125,"ss":0,"used":false}]}
$GPGGA,221301,5333.7947,N,11326.3773,W,1,05,,661.09,M,-19.872,M,,*64
$GPRMC,221301,A,5333.7947,N,11326.3773,W,0.0000,0.000,060709,,*38
$GPGSA,A,3,03,06,08,19,25,,,,,,,,0.0,0.0,0.0*30
{"class":"TPV","tag":"ITK-07","time":1246918381.145,"ept":0.005,"lat":53.563244879,"lon":-113.439622385,"alt":661.089,"track":0.0000,"speed":0.000,"climb":0.000,"mode":3}
$GPGSV,3,1,09,03,35,061,31,06,26,049,34,07,76,101,00,08,60,183,38*73
$GPGSV,3,2,09,10,23,180,05,13,33,166,12,19,43,094,47,25,54,109,44*72
$GPGSV,3,3,09,28,30,125,00*4F
{"class":"SKY","tag":"ITK-02","time":1246918381.326,"xdop":0.00,"ydop":0.00,"satellites":[{"PRN":3,"el":35,"az":61,"ss":31,"used":true},{"PRN":6,"el":26,"az":49,"ss":34,"used":true},{"PRN":7,"el":76,"az":101,"ss":0,"used":false},{"PRN":8,"el":60,"az":183,"ss":38,"used":true},{"PRN":10,"el":23,"az":180,"ss":5,"used":false},{"PRN":13,"el":33,"az":166,"ss":12,"used":false},{"PRN":19,"el":43,"az":94,"ss":47,"used":true},{"PRN":25,"el":54,"az":109,"ss":44,"used":true},{"PRN":28,"el":30,"az":125,"ss":0,"used":false}]}
$GPGGA,221302,5333.7947,N,11326.3773,W,1,05,,661.09,M,-19.872,M,,*67
$GPRMC,221302,A,5333.7947,N,11326.3773,W,0.0000,0.000,060709,,*3B
$GPGSA,A,3,03,06,08,19,25,,,,,,,,0.0,0.0,0.0*30
{"class":"TPV","tag":"ITK-07","time":1246918382.146,"ept":0.005,"lat":53.563244812,"lon":-113.439622325,"alt":661.095,"track":0.0000,"speed":0.000,"climb":0.000,"mode":3}
$GPGSV,3,1,09,03,35,061,31,06,26,049,34,07,76,101,00,08,60,183,38*73
$GPGSV,3,2,09,10,23,180,22,13,33,166,00,19,43,094,47,25,54,109,44*74
$GPGSV,3,3,09,28,30,125,09*46
{"class":"SKY","tag":"ITK-02","time":1246918382.334,"xdop":0.00,"ydop":0.00,"satellites":[{"PRN":3,"el":35,"az":61,"ss":31,"used":true},{"PRN":6,"el":26,"az":49,"ss":34,"used":true},{"PRN":7,"el":76,"az":101,"ss":0,"used":false},{"PRN":8,"el":60,"az":183,"ss":38,"used":true},{"PRN":10,"el":23,"az":180,"ss":22,"used":false},{"PRN":13,"el":33,"az":166,"ss":0,"used":false},{"PRN":19,"el":43,"az":94,"ss":47,"used":true},{"PRN":25,"el":54,"az":109,"ss":44,"used":true},{"PRN":28,"el":30,"az":125,"ss":9,"used":false}]}
$GPGGA,221303,5333.7947,N,11326.3773,W,1,05,,661.09,M,-19.872,M,,*66
$GPRMC,221303,A,5333.7947,N,11326.3773,W,0.0000,0.000,060709,,*3A
$GPGSA,A,3,03,06,08,19,25,,,,,,,,0.0,0.0,0.0*30
{"class":"TPV","tag":"ITK-07","time":1246918383.146,"ept":0.005,"lat":53.563244812,"lon":-113.439622325,"alt":661.095,"track":0.0000,"speed":0.000,"climb":0.000,"mode":3}
$GPGSV,3,1,09,03,35,061,31,06,26,049,35,07,76,101,05,08,60,183,38*77
$GPGSV,3,2,09,10,23,180,25,13,33,166,00,19,43,094,47,25,54,109,44*73
$GPGSV,3,3,09,28,30,125,18*46
{"class":"SKY","tag":"ITK-02","time":1246918383.482,"xdop":0.00,"ydop":0.00,"satellites":[{"PRN":3,"el":35,"az":61,"ss":31,"used":true},{"PRN":6,"el":26,"az":49,"ss":35,"used":true},{"PRN":7,"el":76,"az":101,"ss":5,"used":false},{"PRN":8,"el":60,"az":183,"ss":38,"used":true},{"PRN":10,"el":23,"az":180,"ss":25,"used":false},{"PRN":13,"el":33,"az":166,"ss":0,"used":false},{"PRN":19,"el":43,"az":94,"ss":47,"used":true},{"PRN":25,"el":54,"az":109,"ss":44,"used":true},{"PRN":28,"el":30,"az":125,"ss":18,"used":false}]}
$GPGGA,221304,5333.7947,N,11326.3773,W,1,05,,661.09,M,-19.872,M,,*61
$GPRMC,221304,A,5333.7947,N,11326.3773,W,0.0000,0.000,060709,,*3D
$GPGSA,A,3,03,06,08,19,25,,,,,,,,0.0,0.0,0.0*30
{"class":"TPV","tag":"ITK-07","time":1246918384.147,"ept":0.005,"lat":53.563244812,"lon":-113.439622325,"alt":661.095,"track":0.0000,"speed":0.000,"climb":0.000,"mode":3}
$GPGGA,221305,5333.7947,N,11326.3773,W,1,05,,661.09,M,-19.872,M,,*60
$GPRMC,221305,A,5333.7947,N,11326.3773,W,0.0000,0.000,060709,,*3C
$GPGSA,A,3,03,06,08,19,25,,,,,,,,0.0,0.0,0.0*30
{"class":"TPV","tag":"ITK-07","time":1246918385.147,"ept":0.005,"lat":53.563244812,"lon":-113.439622325,"alt":661.095,"track":0.0000,"speed":0.000,"climb":0.000,"mode":3}
$GPGSV,3,1,09,03,35,061,31,06,26,049,34,07,76,101,26,08,60,183,38*77
$GPGSV,3,2,09,10,23,180,00,13,33,166,15,19,43,094,48,25,54,109,44*7F
$GPGSV,3,3,09,28,30,125,27*4A
{"class":"SKY","tag":"ITK-02","time":1246918385.362,"xdop":0.00,"ydop":0.00,"satellites":[{"PRN":3,"el":35,"az":61,"ss":31,"used":true},{"PRN":6,"el":26,"az":49,"ss":34,"used":true},{"PRN":7,"el":76,"az":101,"ss":26,"used":false},{"PRN":8,"el":60,"az":183,"ss":38,"used":true},{"PRN":10,"el":23,"az":180,"ss":0,"used":false},{"PRN":13,"el":33,"az":166,"ss":15,"used":false},{"PRN":19,"el":43,"az":94,"ss":48,"used":true},{"PRN":25,"el":54,"az":109,"ss":44,"used":true},{"PRN":28,"el":30,"az":125,"ss":27,"used":false}]}
$GPGGA,221306,5333.7947,N,11326.3773,W,1,05,,661.09,M,-19.872,M,,*63
$GPRMC,221306,A,5333.7947,N,11326.3773,W,0.0000,0.000,060709,,*3F
$GPGSA,A,3,03,06,08,19,25,,,,,,,,0.0,0.0,0.0*30
{"class":"TPV","tag":"ITK-07","time":1246918386.148,"ept":0.005,"lat":53.563244812,"lon":-113.439622325,"alt":661.095,"track":0.0000,"speed":0.000,"climb":0.000,"mode":3}
$GPGSV,3,1,09,03,35,061,31,06,26,049,33,07,76,101,27,08,60,183,38*71
$GPGSV,3,2,09,10,23,180,00,13,33,166,18,19,43,094,47,25,54,109,44*7D
$GPGSV,3,3,09,28,30,125,00*4F
{"class":"SKY","tag":"ITK-02","time":1246918386.328,"xdop":0.00,"ydop":0.00,"satellites":[{"PRN":3,"el":35,"az":61,"ss":31,"used":true},{"PRN":6,"el":26,"az":49,"ss":33,"used":true},{"PRN":7,"el":76,"az":101,"ss":27,"used":false},{"PRN":8,"el":60,"az":183,"ss":38,"used":true},{"PRN":10,"el":23,"az":180,"ss":0,"used":false},{"PRN":13,"el":33,"az":166,"ss":18,"used":false},{"PRN":19,"el":43,"az":94,"ss":47,"used":true},{"PRN":25,"el":54,"az":109,"ss":44,"used":true},{"PRN":28,"el":30,"az":125,"ss":0,"used":false}]}
$GPGGA,221307,5333.7947,N,11326.3773,W,1,05,,661.09,M,-19.872,M,,*62
$GPRMC,221307,A,5333.7947,N,11326.3773,W,0.0000,0.000,060709,,*3E
$GPGSA,A,3,03,06,08,19,25,,,,,,,,0.0,0.0,0.0*30
{"class":"TPV","tag":"ITK-07","time":1246918387.149,"ept":0.005,"lat":53.563244812,"lon":-113.439622325,"alt":661.095,"track":0.0000,"speed":0.000,"climb":0.000,"mode":3}
$GPGSV,3,1,09,03,35,061,31,06,26,049,33,07,76,101,00,08,60,183,38*74
$GPGSV,3,2,09,10,23,180,06,13,33,166,15,19,43,094,48,25,54,109,45*78
$GPGSV,3,3,09,28,30,125,00*4F
{"class":"SKY","tag":"ITK-02","time":1246918387.331,"xdop":0.00,"ydop":0.00,"satellites":[{"PRN":3,"el":35,"az":61,"ss":31,"used":true},{"PRN":6,"el":26,"az":49,"ss":33,"used":true},{"PRN":7,"el":76,"az":101,"ss":0,"used":false},{"PRN":8,"el":60,"az":183,"ss":38,"used":true},{"PRN":10,"el":23,"az":180,"ss":6,"used":false},{"PRN":13,"el":33,"az":166,"ss":15,"used":false},{"PRN":19,"el":43,"az":94,"ss":48,"used":true},{"PRN":25,"el":54,"az":109,"ss":45,"used":true},{"PRN":28,"el":30,"az":125,"ss":0,"used":false}]}
$GPGGA,221308,5333.7947,N,11326.3773,W,1,05,,661.10,M,-19.872,M,,*65
$GPRMC,221308,A,5333.7947,N,11326.3773,W,0.0000,0.000,060709,,*31
$GPGSA,A,3,03,06,08,19,25,,,,,,,,0.0,0.0,0.0*30
{"class":"TPV","tag":"ITK-07","time":1246918388.149,"ept":0.005,"lat":53.563244746,"lon":-113.439622265,"alt":661.100,"track":0.0000,"speed":0.000,"climb":0.000,"mode":3}
$GPGSV,3,1,09,03,35,061,31,06,26,049,33,07,76,101,00,08,60,183,38*74
$GPGSV,3,2,09,10,23,180,14,13,33,166,00,19,43,094,47,25,54,109,45*70
$GPGSV,3,3,09,28,30,125,02*4D
{"class":"SKY","tag":"ITK-02","time":1246918388.336,"xdop":0.00,"ydop":0.00,"satellites":[{"PRN":3,"el":35,"az":61,"ss":31,"used":true},{"PRN":6,"el":26,"az":49,"ss":33,"used":true},{"PRN":7,"el":76,"az":101,"ss":0,"used":false},{"PRN":8,"el":60,"az":183,"ss":38,"used":true},{"PRN":10,"el":23,"az":180,"ss":14,"used":false},{"PRN":13,"el":33,"az":166,"ss":0,"used":false},{"PRN":19,"el":43,"az":94,"ss":47,"used":true},{"PRN":25,"el":54,"az":109,"ss":45,"used":true},{"PRN":28,"el":30,"az":125,"ss":2,"used":false}]}
$GPGGA,221309,5333.7947,N,11326.3773,W,1,05,,661.10,M,-19.872,M,,*64
$GPRMC,221309,A,5333.7947,N,11326.3773,W,0.0000,0.000,060709,,*30
$GPGSA,A,3,03,06,08,19,25,,,,,,,,0.0,0.0,0.0*30
{"class":"TPV","tag":"ITK-07","time":1246918389.150,"ept":0.005,"lat":53.563244746,"lon":-113.439622265,"alt":661.100,"track":0.0000,"speed":0.000,"climb":0.000,"mode":3}
$GPGSV,3,1,09,03,35,061,31,06,26,049,32,07,76,101,08,08,60,183,38*7D
$GPGSV,3,2,09,10,23,180,10,13,33,166,00,19,43,094,48,25,54,109,45*7B
$GPGSV,3,3,09,28,30,125,16*48
{"class":"SKY","tag":"ITK-02","time":1246918389.358,"xdop":0.00,"ydop":0.00,"satellites":[{"PRN":3,"el":35,"az":61,"ss":31,"used":true},{"PRN":6,"el":26,"az":49,"ss":32,"used":true},{"PRN":7,"el":76,"az":101,"ss":8,"used":false},{"PRN":8,"el":60,"az":183,"ss":38,"used":true},{"PRN":10,"el":23,"az":180,"ss":10,"used":false},{"PRN":13,"el":33,"az":166,"ss":0,"used":false},{"PRN":19,"el":43,"az":94,"ss":48,"used":true},{"PRN":25,"el":54,"az":109,"ss":45,"used":true},{"PRN":28,"el":30,"az":125,"ss":16,"used":false}]}
$GPGGA,221310,5333.7947,N,11326.3773,W,1,05,,661.10,M,-19.872,M,,*6C
$GPRMC,221310,A,5333.7947,N,11326.3773,W,0.0000,0.000,060709,,*38
$GPGSA,A,3,03,06,08,19,25,,,,,,,,0.0,0.0,0.0*30
{"class":"TPV","tag":"ITK-07","time":1246918390.151,"ept":0.005,"lat":53.563244775,"lon":-113.439622126,"alt":661.098,"track":0.0000,"speed":0.000,"climb":0.000,"mode":3}
$GPGGA,221311,5333.7947,N,11326.3773,W,1,05,,661.10,M,-19.872,M,,*6D
$GPRMC,221311,A,5333.7947,N,11326.3773,W,0.0000,0.000,060709,,*39
$GPGSA,A,3,03,06,08,19,25,,,,,,,,0.0,0.0,0.0*30
{"class":"TPV","tag":"ITK-07","time":1246918391.151,"ept":0.005,"lat":53.563244775,"lon":-113.439622126,"alt":661.098,"track":0.0000,"speed":0.000,"climb":0.000,"mode":3}
$GPGSV,3,1,09,03,35,061,31,06,26,049,32,07,76,101,26,08,60,183,37*7E
$GPGSV,3,2,09,10,23,180,00,13,33,166,14,19,43,094,47,25,54,109,45*70
$GPGSV,3,3,09,28,30,125,16*48
{"class":"SKY","tag":"ITK-02","time":1246918391.371,"xdop":0.00,"ydop":0.00,"satellites":[{"PRN":3,"el":35,"az":61,"ss":31,"used":true},{"PRN":6,"el":26,"az":49,"ss":32,"used":true},{"PRN":7,"el":76,"az":101,"ss":26,"used":false},{"PRN":8,"el":60,"az":183,"ss":37,"used":true},{"PRN":10,"el":23,"az":180,"ss":0,"used":false},{"PRN":13,"el":33,"az":166,"ss":14,"used":false},{"PRN":19,"el":43,"az":94,"ss":47,"used":true},{"PRN":25,"el":54,"az":109,"ss":45,"used":true},{"PRN":28,"el":30,"az":125,"ss":16,"used":false}]}
$GPGGA,221312,5333.7947,N,11326.3773,W,1,05,,661.10,M,-19.872,M,,*6E
$GPRMC,221312,A,5333.7947,N,11326.3773,W,0.0000,0.000,060709,,*3A
$GPGSA,A,3,03,06,08,19,25,,,,,,,,0.0,0.0,0.0*30
{"class":"TPV","tag":"ITK-07","time":1246918392.152,"ept":0.005,"lat":53.563244709,"lon":-113.439622066,"alt":661.103,"track":0.0000,"speed":0.000,"climb":0.000,"mode":3}
$GPGSV,3,1,09,03,35,061,31,06,26,049,32,07,76,101,26,08,60,183,37*7E
$GPGSV,3,2,09,10,23,180,00,13,33,166,20,19,43,094,47,25,54,109,45*77
$GPGSV,3,3,09,28,30,125,00*4F
{"class":"SKY","tag":"ITK-02","time":1246918392.326,"xdop":0.00,"ydop":0.00,"satellites":[{"PRN":3,"el":35,"az":61,"ss":31,"used":true},{"PRN":6,"el":26,"az":49,"ss":32,"used":true},{"PRN":7,"el":76,"az":101,"ss":26,"used":false},{"PRN":8,"el":60,"az":183,"ss":37,"used":true},{"PRN":10,"el":23,"az":180,"ss":0,"used":false},{"PRN":13,"el":33,"az":166,"ss":20,"used":false},{"PRN":19,"el":43,"az":94,"ss":47,"used":true},{"PRN":25,"el":54,"az":109,"ss":45,"used":true},{"PRN":28,"el":30,"az":125,"ss":0,"used":false}]}
$GPGGA,221313,5333.7947,N,11326.3773,W,1,05,,661.10,M,-19.872,M,,*6F
$GPRMC,221313,A,5333.7947,N,11326.3773,W,0.0000,0.000,060709,,*3B
$GPGSA,A,3,03,06,08,19,25,,,,,,,,0.0,0.0,0.0*30
{"class":"TPV","tag":"ITK-07","time":1246918393.153,"ept":0.005,"lat":53.563244709,"lon":-113.439622066,"alt":661.103,"track":0.0000,"speed":0.000,"climb":0.000,"mode":3}
$GPGGA,221314,5333.7947,N,11326.3773,W,1,04,,661.10,M,-19.872,M,,*69
$GPRMC,221314,A,5333.7947,N,11326.3773,W,0.0000,0.000,060709,,*3C
$GPGSA,A,3,03,06,08,19,25,,,,,,,,0.0,0.0,0.0*30
{"class":"TPV","tag":"ITK-07","time":1246918394.153,"ept":0.005,"lat":53.563244709,"lon":-113.439622066,"alt":661.103,"track":0.0000,"speed":0.000,"climb":0.000,"mode":3}
$GPGSV,3,1,09,03,35,061,00,06,26,049,32,07,76,101,00,08,60,183,38*77
$GPGSV,3,2,09,10,23,180,16,13,33,166,00,19,43,094,48,25,54,109,45*7D
$GPGSV,3,3,09,28,30,125,04*4B
{"class":"SKY","tag":"ITK-02","time":1246918394.337,"xdop":0.00,"ydop":0.00,"satellites":[{"PRN":3,"el":35,"az":61,"ss":0,"used":true},{"PRN":6,"el":26,"az":49,"ss":32,"used":true},{"PRN":7,"el":76,"az":101,"ss":0,"used":false},{"PRN":8,"el":60,"az":183,"ss":38,"used":true},{"PRN":10,"el":23,"az":180,"ss":16,"used":false},{"PRN":13,"el":33,"az":166,"ss":0,"used":false},{"PRN":19,"el":43,"az":94,"ss":48,"used":true},{"PRN":25,"el":54,"az":109,"ss":45,"used":true},{"PRN":28,"el":30,"az":125,"ss":4,"used":false}]}
$GPGGA,221315,5333.7947,N,11326.3773,W,1,04,,661.10,M,-19.872,M,,*68
$GPRMC,221315,A,5333.7947,N,11326.3773,W,0.0000,0.000,060709,,*3D
$GPGSA,A,3,03,06,08,19,25,,,,,,,,0.0,0.0,0.0*30
{"class":"TPV","tag":"ITK-07","time":1246918395.154,"ept":0.005,"lat":53.563244709,"lon":-113.439622066,"alt":661.103,"track":0.0000,"speed":0.000,"climb":0.000,"mode":3}
$GPGSV,3,1,09,03,35,061,00,06,26,049,33,07,76,101,05,08,60,183,38*73
$GPGSV,3,2,09,10,23,180,17,13,33,166,00,19,43,094,48,25,54,109,45*7C
$GPGSV,3,3,09,28,30,125,19*47
{"class":"SKY","tag":"ITK-02","time":1246918395.386,"xdop":0.00,"ydop":0.00,"satellites":[{"PRN":3,"el":35,"az":61,"ss":0,"used":true},{"PRN":6,"el":26,"az":49,"ss":33,"used":true},{"PRN":7,"el":76,"az":101,"ss":5,"used":false},{"PRN":8,"el":60,"az":183,"ss":38,"used":true},{"PRN":10,"el":23,"az":180,"ss":17,"used":false},{"PRN":13,"el":33,"az":166,"ss":0,"used":false},{"PRN":19,"el":43,"az":94,"ss":48,"used":true},{"PRN":25,"el":54,"az":109,"ss":45,"used":true},{"PRN":28,"el":30,"az":125,"ss":19,"used":false}]}
$GPGGA,221316,5333.7947,N,11326.3773,W,1,04,,661.10,M,-19.872,M,,*6B
$GPRMC,221316,A,5333.7947,N,11326.3773,W,0.0000,0.000,060709,,*3E
$GPGSA,A,3,03,06,08,19,25,,,,,,,,0.0,0.0,0.0*30
{"class":"TPV","tag":"ITK-07","time":1246918396.155,"ept":0.005,"lat":53.563244589,"lon":-113.439622006,"alt":661.101,"track":0.0000,"speed":0.000,"climb":0.000,"mode":3}
$GPGGA,221317,5333.7947,N,11326.3773,W,1,04,,661.10,M,-19.872,M,,*6A
$GPRMC,221317,A,5333.7947,N,11326.3773,W,0.0000,0.000,060709,,*3F
$GPGSA,A,3,03,06,08,19,25,,,,,,,,0.0,0.0,0.0*30
{"class":"TPV","tag":"ITK-07","time":1246918397.155,"ept":0.005,"lat":53.563244589,"lon":-113.439622006,"alt":661.101,"track":0.0000,"speed":0.000,"climb":0.000,"mode":3}
$GPGSV,3,1,09,03,35,061,24,06,26,049,32,07,76,101,19,08,60,183,38*79
$GPGSV,3,2,09,10,23,180,00,13,33,166,15,19,43,094,47,25,54,109,45*71
$GPGSV,3,3,09,28,30,125,21*4C
{"class":"SKY","tag":"ITK-02","time":1246918397.328,"xdop":0.00,"ydop":0.00,"satellites":[{"PRN":3,"el":35,"az":61,"ss":24,"used":false},{"PRN":6,"el":26,"az":49,"ss":32,"used":true},{"PRN":7,"el":76,"az":101,"ss":19,"used":false},{"PRN":8,"el":60,"az":183,"ss":38,"used":true},{"PRN":10,"el":23,"az":180,"ss":0,"used":false},{"PRN":13,"el":33,"az":166,"ss":15,"used":false},{"PRN":19,"el":43,"az":94,"ss":47,"used":true},{"PRN":25,"el":54,"az":109,"ss":45,"used":true},{"PRN":28,"el":30,"az":125,"ss":21,"used":false}]}
$GPGGA,221318,5333.7947,N,11326.3773,W,1,04,,661.10,M,-19.872,M,,*65
$GPRMC,221318,A,5333.7947,N,11326.3773,W,0.0000,0.000,060709,,*30
$GPGSA,A,3,06,08,19,25,25,,,,,,,,0.0,0.0,0.0*34
{"class":"TPV","tag":"ITK-07","time":1246918398.156,"ept":0.005,"lat":53.563244589,"lon":-113.439622006,"alt":661.101,"track":0.0000,"speed":0.000,"climb":0.000,"mode":3}
$GPGSV,3,1,09,03,35,061,25,06,26,049,32,07,76,101,20,08,60,183,38*72
$GPGSV,3,2,09,10,23,180,00,13,33,166,19,19,43,094,47,25,54,109,45*7D
$GPGSV,3,3,09,28,30,125,00*4F
{"class":"SKY","tag":"ITK-02","time":1246918398.391,"xdop":0.00,"ydop":0.00,"satellites":[{"PRN":3,"el":35,"az":61,"ss":25,"used":false},{"PRN":6,"el":26,"az":49,"ss":32,"used":true},{"PRN":7,"el":76,"az":101,"ss":20,"used":false},{"PRN":8,"el":60,"az":183,"ss":38,"used":true},{"PRN":10,"el":23,"az":180,"ss":0,"used":false},{"PRN":13,"el":33,"az":166,"ss":19,"used":false},{"PRN":19,"el":43,"az":94,"ss":47,"used":true},{"PRN":25,"el":54,"az":109,"ss":45,"used":true},{"PRN":28,"el":30,"az":125,"ss":0,"used":false}]}
$GPGGA,221319,5333.7947,N,11326.3773,W,1,04,,661.10,M,-19.872,M,,*64
$GPRMC,221319,A,5333.7947,N,11326.3773,W,0.0000,0.000,060709,,*31
$GPGSA,A,3,06,08,19,25,25,,,,,,,,0.0,0.0,0.0*34
{"class":"TPV","tag":"ITK-07","time":1246918399.157,"ept":0.005,"lat":53.563244589,"lon":-113.439622006,"alt":661.101,"track":0.0000,"speed":0.000,"climb":0.000,"mode":3}
$GPGGA,221320,5333.7947,N,11326.3773,W,1,04,,661.11,M,-19.872,M,,*6F
$GPRMC,221320,A,5333.7947,N,11326.3773,W,0.0000,0.000,060709,,*3B
$GPGSA,A,3,06,08,19,25,25,,,,,,,,0.0,0.0,0.0*34
{"class":"TPV","tag":"ITK-07","time":1246918400.157,"ept":0.005,"lat":53.563244523,"lon":-113.439621946,"alt":661.106,"track":0.0000,"speed":0.000,"climb":0.000,"mode":3}
$GPGSV,3,1,09,03,35,061,00,06,26,049,32,07,76,101,00,08,60,183,38*77
$GPGSV,3,2,09,10,23,180,24,13,33,166,00,19,43,094,48,25,54,109,45*7C
$GPGSV,3,3,09,28,30,125,06*49
{"class":"SKY","tag":"ITK-02","time":1246918400.329,"xdop":0.00,"ydop":0.00,"satellites":[{"PRN":3,"el":35,"az":61,"ss":0,"used":false},{"PRN":6,"el":26,"az":49,"ss":32,"used":true},{"PRN":7,"el":76,"az":101,"ss":0,"used":false},{"PRN":8,"el":60,"az":183,"ss":38,"used":true},{"PRN":10,"el":23,"az":180,"ss":24,"used":false},{"PRN":13,"el":33,"az":166,"ss":0,"used":false},{"PRN":19,"el":43,"az":94,"ss":48,"used":true},{"PRN":25,"el":54,"az":109,"ss":45,"used":true},{"PRN":28,"el":30,"az":125,"ss":6,"used":false}]}
$GPGGA,221321,5333.7947,N,11326.3773,W,1,04,,661.11,M,-19.872,M,,*6E
$GPRMC,221321,A,5333.7947,N,11326.3773,W,0.0000,0.000,060709,,*3A
$GPGSA,A,3,06,08,19,25,25,,,,,,,,0.0,0.0,0.0*34
{"class":"TPV","tag":"ITK-07","time":1246918401.158,"ept":0.005,"lat":53.563244523,"lon":-113.439621946,"alt":661.106,"track":0.0000,"speed":0.000,"climb":0.000,"mode":3}
$GPGSV,3,1,09,03,35,061,00,06,26,049,31,07,76,101,00,08,60,183,38*74
$GPGSV,3,2,09,10,23,180,25,13,33,166,00,19,43,094,47,25,54,109,45*72
$GPGSV,3,3,09,28,30,125,07*48
{"class":"SKY","tag":"ITK-02","time":1246918401.431,"xdop":0.00,"ydop":0.00,"satellites":[{"PRN":3,"el":35,"az":61,"ss":0,"used":false},{"PRN":6,"el":26,"az":49,"ss":31,"used":true},{"PRN":7,"el":76,"az":101,"ss":0,"used":false},{"PRN":8,"el":60,"az":183,"ss":38,"used":true},{"PRN":10,"el":23,"az":180,"ss":25,"used":false},{"PRN":13,"el":33,"az":166,"ss":0,"used":false},{"PRN":19,"el":43,"az":94,"ss":47,"used":true},{"PRN":25,"el":54,"az":109,"ss":45,"used":true},{"PRN":28,"el":30,"az":125,"ss":7,"used":false}]}
$GPGGA,221322,5333.7947,N,11326.3773,W,1,04,,661.11,M,-19.872,M,,*6D
$GPRMC,221322,A,5333.7947,N,11326.3773,W,0.0000,0.000,060709,,*39
$GPGSA,A,3,06,08,19,25,25,,,,,,,,0.0,0.0,0.0*34
{"class":"TPV","tag":"ITK-07","time":1246918402.158,"ept":0.005,"lat":53.563244523,"lon":-113.439621946,"alt":661.106,"track":0.0000,"speed":0.000,"climb":0.000,"mode":3}
$GPGGA,221323,5333.7947,N,11326.3773,W,1,04,,661.11,M,-19.872,M,,*6C
$GPRMC,221323,A,5333.7947,N,11326.3773,W,0.0000,0.000,060709,,*38
$GPGSA,A,3,06,08,19,25,25,,,,,,,,0.0,0.0,0.0*34
{"class":"TPV","tag":"ITK-07","time":1246918403.159,"ept":0.005,"lat":53.563244523,"lon":-113.439621946,"alt":661.106,"track":0.0000,"speed":0.000,"climb":0.000,"mode":3}
$GPGSV,3,1,09,03,35,061,24,06,26,049,32,07,76,101,21,08,60,183,38*72
$GPGSV,3,2,09,10,23,180,00,13,33,166,21,19,43,094,47,25,54,109,45*76
$GPGSV,3,3,09,28,30,125,17*49
{"class":"SKY","tag":"ITK-02","time":1246918403.350,"xdop":0.00,"ydop":0.00,"satellites":[{"PRN":3,"el":35,"az":61,"ss":24,"used":false},{"PRN":6,"el":26,"az":49,"ss":32,"used":true},{"PRN":7,"el":76,"az":101,"ss":21,"used":false},{"PRN":8,"el":60,"az":183,"ss":38,"used":true},{"PRN":10,"el":23,"az":180,"ss":0,"used":false},{"PRN":13,"el":33,"az":166,"ss":21,"used":false},{"PRN":19,"el":43,"az":94,"ss":47,"used":true},{"PRN":25,"el":54,"az":109,"ss":45,"used":true},{"PRN":28,"el":30,"az":125,"ss":17,"used":false}]}
$GPGGA,221324,5333.7947,N,11326.3773,W,1,04,,661.11,M,-19.872,M,,*6B
$GPRMC,221324,A,5333.7947,N,11326.3773,W,0.0000,0.000,060709,,*3F
$GPGSA,A,3,06,08,19,25,25,,,,,,,,0.0,0.0,0.0*34
{"class":"TPV","tag":"ITK-07","time":1246918404.160,"ept":0.005,"lat":53.563244428,"lon":-113.439622025,"alt":661.114,"track":0.0000,"speed":0.000,"climb":0.000,"mode":3}
$GPGSV,3,1,09,03,35,061,26,06,26,049,32,07,76,101,22,08,60,183,38*73
$GPGSV,3,2,09,10,23,180,00,13,33,166,19,19,43,094,47,25,54,109,45*7D
$GPGSV,3,3,09,28,30,125,00*4F
{"class":"SKY","tag":"ITK-02","time":1246918404.356,"xdop":0.00,"ydop":0.00,"satellites":[{"PRN":3,"el":35,"az":61,"ss":26,"used":false},{"PRN":6,"el":26,"az":49,"ss":32,"used":true},{"PRN":7,"el":76,"az":101,"ss":22,"used":false},{"PRN":8,"el":60,"az":183,"ss":38,"used":true},{"PRN":10,"el":23,"az":180,"ss":0,"used":false},{"PRN":13,"el":33,"az":166,"ss":19,"used":false},{"PRN":19,"el":43,"az":94,"ss":47,"used":true},{"PRN":25,"el":54,"az":109,"ss":45,"used":true},{"PRN":28,"el":30,"az":125,"ss":0,"used":false}]}
$GPGGA,221325,5333.7947,N,11326.3773,W,1,04,,661.11,M,-19.872,M,,*6A
$GPRMC,221325,A,5333.7947,N,11326.3773,W,0.0000,0.000,060709,,*3E
$GPGSA,A,3,06,08,19,25,25,,,,,,,,0.0,0.0,0.0*34
{"class":"TPV","tag":"ITK-07","time":1246918405.160,"ept":0.005,"lat":53.563244428,"lon":-113.439622025,"alt":661.114,"track":0.0000,"speed":0.000,"climb":0.000,"mode":3}
$GPGGA,221326,5333.7947,N,11326.3773,W,1,04,,661.11,M,-19.872,M,,*69
$GPRMC,221326,A,5333.7947,N,11326.3773,W,0.0000,0.000,060709,,*3D
$GPGSA,A,3,06,08,19,25,25,,,,,,,,0.0,0.0,0.0*34
{"class":"TPV","tag":"ITK-07","time":1246918406.161,"ept":0.005,"lat":53.563244428,"lon":-113.439622025,"alt":661.114,"track":0.0000,"speed":0.000,"climb":0.000,"mode":3}
$GPGSV,3,1,09,03,35,061,00,06,26,049,32,07,76,101,00,08,60,183,38*77
$GPGSV,3,2,09,10,23,180,16,13,33,166,00,19,43,094,47,25,54,109,45*72
$GPGSV,3,3,09,28,30,125,02*4D
{"class":"SKY","tag":"ITK-02","time":1246918406.375,"xdop":0.00,"ydop":0.00,"satellites":[{"PRN":3,"el":35,"az":61,"ss":0,"used":false},{"PRN":6,"el":26,"az":49,"ss":32,"used":true},{"PRN":7,"el":76,"az":101,"ss":0,"used":false},{"PRN":8,"el":60,"az":183,"ss":38,"used":true},{"PRN":10,"el":23,"az":180,"ss":16,"used":false},{"PRN":13,"el":33,"az":166,"ss":0,"used":false},{"PRN":19,"el":43,"az":94,"ss":47,"used":true},{"PRN":25,"el":54,"az":109,"ss":45,"used":true},{"PRN":28,"el":30,"az":125,"ss":2,"used":false}]}
