$GPGLL,3908.8199,N,00023.0832,W,120824.758,A*22
{"class":"TPV","mode":2,"lat":39.146998333,"lon":-0.384720000}
$GPGGA,120824.76,3908.8199,N,00023.0832,W,1,06,2.1,00176,M,,,,*39
{"class":"TPV","mode":3,"lat":39.146998333,"lon":-0.384720000,"alt":176.000}
$GPRMC,120824.76,A,3908.8199,N,00023.0832,W,00.0,000.0,130305,01.,W*62
{"class":"TPV","mode":3,"time":"2005-03-13T12:08:24.760Z","ept":0.005,"lat":39.146998333,"lon":-0.384720000,"alt":176.000,"track":0.0000,"speed":0.000}
$GPGSA,A,3,19,15,03,18,22,11,,,,,,,3.5,2.1,2.7*34
{"class":"TPV","mode":3,"time":"2005-03-13T12:08:24.760Z","ept":0.005,"lat":39.146998333,"lon":-0.384720000,"alt":176.000,"epv":62.100,"track":0.0000,"speed":0.000,"climb":0.000}
$GPGSV,3,1,12,19,77,349,45,03,68,117,41,22,39,052,52,11,35,274,56*7E
$GPGSV,3,2,12,15,22,062,52,14,21,106,,16,10,171,,18,10,040,47*73
$GPGSV,3,3,12,01,08,146,,20,04,211,,08,02,294,,28,02,328,*70
{"class":"SKY","xdop":0.90,"ydop":2.45,"vdop":2.70,"tdop":1.99,"hdop":2.10,"gdop":4.01,"pdop":3.50,"satellites":[{"PRN":19,"el":77,"az":349,"ss":45,"used":true,"gnssid":0,"svid":19},{"PRN":3,"el":68,"az":117,"ss":41,"used":true,"gnssid":0,"svid":3},{"PRN":22,"el":39,"az":52,"ss":52,"used":true,"gnssid":0,"svid":22},{"PRN":11,"el":35,"az":274,"ss":56,"used":true,"gnssid":0,"svid":11},{"PRN":15,"el":22,"az":62,"ss":52,"used":true,"gnssid":0,"svid":15},{"PRN":14,"el":21,"az":106,"ss":0,"used":false,"gnssid":0,"svid":14},{"PRN":16,"el":10,"az":171,"ss":0,"used":false,"gnssid":0,"svid":16},{"PRN":18,"el":10,"az":40,"ss":47,"used":true,"gnssid":0,"svid":18},{"PRN":1,"el":8,"az":146,"ss":0,"used":false,"gnssid":0,"svid":1},{"PRN":20,"el":4,"az":211,"ss":0,"used":false,"gnssid":0,"svid":20},{"PRN":8,"el":2,"az":294,"ss":0,"used":false,"gnssid":0,"svid":8},{"PRN":28,"el":2,"az":328,"ss":0,"used":false,"gnssid":0,"svid":28}]}
$GPGLL,3908.8200,N,00023.0832,W,120827.523,A*2C
$GPGGA,120827.52,3908.8200,N,00023.0832,W,1,06,2.1,00176,M,,,,*3F
$GPRMC,120827.52,A,3908.8200,N,00023.0832,W,00.0,000.0,130305,01.,W*64
{"class":"TPV","mode":3,"time":"2005-03-13T12:08:27.520Z","ept":0.005,"lat":39.147000000,"lon":-0.384720000,"alt":176.000,"epx":13.523,"epy":36.714,"epv":62.100,"track":0.0000,"speed":0.000,"climb":0.000,"eps":26.58}
$GPGSA,A,3,19,15,03,18,22,11,,,,,,,3.5,2.1,2.7*34
$GPGSV,3,1,12,19,77,349,46,03,68,117,42,22,39,052,50,11,35,274,55*7F
$GPGSV,3,2,12,15,22,062,52,14,21,106,,16,10,171,,18,10,040,49*7D
$GPGSV,3,3,12,01,08,146,,20,04,211,,08,02,294,,28,02,328,*70
{"class":"SKY","xdop":0.90,"ydop":2.45,"vdop":2.70,"tdop":1.99,"hdop":2.10,"gdop":4.01,"pdop":3.50,"satellites":[{"PRN":19,"el":77,"az":349,"ss":46,"used":true,"gnssid":0,"svid":19},{"PRN":3,"el":68,"az":117,"ss":42,"used":true,"gnssid":0,"svid":3},{"PRN":22,"el":39,"az":52,"ss":50,"used":true,"gnssid":0,"svid":22},{"PRN":11,"el":35,"az":274,"ss":55,"used":true,"gnssid":0,"svid":11},{"PRN":15,"el":22,"az":62,"ss":52,"used":true,"gnssid":0,"svid":15},{"PRN":14,"el":21,"az":106,"ss":0,"used":false,"gnssid":0,"svid":14},{"PRN":16,"el":10,"az":171,"ss":0,"used":false,"gnssid":0,"svid":16},{"PRN":18,"el":10,"az":40,"ss":49,"used":true,"gnssid":0,"svid":18},{"PRN":1,"el":8,"az":146,"ss":0,"used":false,"gnssid":0,"svid":1},{"PRN":20,"el":4,"az":211,"ss":0,"used":false,"gnssid":0,"svid":20},{"PRN":8,"el":2,"az":294,"ss":0,"used":false,"gnssid":0,"svid":8},{"PRN":28,"el":2,"az":328,"ss":0,"used":false,"gnssid":0,"svid":28}]}
$GPGLL,3908.8201,N,00023.0832,W,120829.500,A*22
$GPGGA,120829.50,3908.8201,N,00023.0832,W,1,06,2.1,00176,M,,,,*32
$GPRMC,120829.50,A,3908.8201,N,00023.0832,W,00.0,000.0,130305,01.,W*69
{"class":"TPV","mode":3,"time":"2005-03-13T12:08:29.500Z","ept":0.005,"lat":39.147001667,"lon":-0.384720000,"alt":176.000,"epx":13.523,"epy":36.714,"epv":62.100,"track":0.0000,"speed":0.000,"climb":0.000,"eps":37.08}
$GPGSA,A,3,19,15,03,18,22,11,,,,,,,3.5,2.1,2.7*34
$GPGSV,3,1,12,19,77,349,44,03,68,117,42,22,39,052,52,11,35,274,56*7C
$GPGSV,3,2,12,15,22,062,52,14,21,106,,16,10,171,,18,10,040,47*73
$GPGSV,3,3,12,01,08,146,,20,04,211,,08,02,294,,28,02,328,*70
{"class":"SKY","xdop":0.90,"ydop":2.45,"vdop":2.70,"tdop":1.99,"hdop":2.10,"gdop":4.01,"pdop":3.50,"satellites":[{"PRN":19,"el":77,"az":349,"ss":44,"used":true,"gnssid":0,"svid":19},{"PRN":3,"el":68,"az":117,"ss":42,"used":true,"gnssid":0,"svid":3},{"PRN":22,"el":39,"az":52,"ss":52,"used":true,"gnssid":0,"svid":22},{"PRN":11,"el":35,"az":274,"ss":56,"used":true,"gnssid":0,"svid":11},{"PRN":15,"el":22,"az":62,"ss":52,"used":true,"gnssid":0,"svid":15},{"PRN":14,"el":21,"az":106,"ss":0,"used":false,"gnssid":0,"svid":14},{"PRN":16,"el":10,"az":171,"ss":0,"used":false,"gnssid":0,"svid":16},{"PRN":18,"el":10,"az":40,"ss":47,"used":true,"gnssid":0,"svid":18},{"PRN":1,"el":8,"az":146,"ss":0,"used":false,"gnssid":0,"svid":1},{"PRN":20,"el":4,"az":211,"ss":0,"used":false,"gnssid":0,"svid":20},{"PRN":8,"el":2,"az":294,"ss":0,"used":false,"gnssid":0,"svid":8},{"PRN":28,"el":2,"az":328,"ss":0,"used":false,"gnssid":0,"svid":28}]}
