$GPRMB,V,,,,,,,,,,,,V*66
$GPRMC,205150.00,V,,,,,,,,,,,V*4a
$GPRMB,V,,,,,,,,,,,,V*66
$GPRMC,205152.00,V,,,,,,,,,,,V*48
$GPRMB,V,,,,,,,,,,,,V*66
$GPRMC,205154.00,V,,,,,,,,,,,V*4e
$GPRMB,V,,,,,,,,,,,,V*66
$GPRMC,205156.00,V,,,,,,,,,,,V*4c
$GPRMB,V,,,,,,,,,,,,V*66
$GPRMC,205158.00,V,,,,,,,,,,,V*42
$GPRMB,V,,,,,,,,,,,,V*66
$GPRMC,205200.00,V,,,,,,,,,,,V*4c
$GPRMB,V,,,,,,,,,,,,V*66
$GPRMC,205202.00,V,,,,,,,,,,,V*4e
$GPRMB,V,,,,,,,,,,,,V*66
$GPRMC,205204.00,V,,,,,,,,,,,V*48
$GPRMB,A,,,,,,,,,,,,V*71
$GPRMC,205206.00,A,4405.556,N,12118.398,W,000.0,000.0,090605,0.0,E*49
{"class":"TPV","tag":"RMC","time":1118350326.000,"ept":0.005,"lat":44.092600000,"lon":-121.306633333,"track":0.0000,"speed":0.000,"mode":2}
$GPRMB,A,,,,,,,,,,,,V*71
$GPRMC,205208.00,A,4405.556,N,12118.398,W,000.0,000.0,090605,0.0,E*47
{"class":"TPV","tag":"RMC","time":1118350328.000,"ept":0.005,"lat":44.092600000,"lon":-121.306633333,"track":0.0000,"speed":0.000,"mode":2}
$GPRMB,A,,,,,,,,,,,,V*71
$GPRMC,205210.00,A,4405.556,N,12118.398,W,000.0,000.0,090605,0.0,E*4e
{"class":"TPV","tag":"RMC","time":1118350330.000,"ept":0.005,"lat":44.092600000,"lon":-121.306633333,"track":0.0000,"speed":0.000,"mode":2}
$GPRMB,A,,,,,,,,,,,,V*71
$GPRMC,205212.00,A,4405.556,N,12118.398,W,000.0,000.0,090605,0.0,E*4c
{"class":"TPV","tag":"RMC","time":1118350332.000,"ept":0.005,"lat":44.092600000,"lon":-121.306633333,"track":0.0000,"speed":0.000,"mode":2}
$GPRMB,A,,,,,,,,,,,,V*71
$GPRMC,205214.00,A,4405.556,N,12118.398,W,000.0,000.0,090605,0.0,E*4a
{"class":"TPV","tag":"RMC","time":1118350334.000,"ept":0.005,"lat":44.092600000,"lon":-121.306633333,"track":0.0000,"speed":0.000,"mode":2}
$GPRMB,A,,,,,,,,,,,,V*71
$GPRMC,205216.00,A,4405.556,N,12118.398,W,000.0,000.0,090605,0.0,E*48
{"class":"TPV","tag":"RMC","time":1118350336.000,"ept":0.005,"lat":44.092600000,"lon":-121.306633333,"track":0.0000,"speed":0.000,"mode":2}
$GPRMB,A,,,,,,,,,,,,V*71
$GPRMC,205218.00,A,4405.556,N,12118.398,W,000.0,000.0,090605,0.0,E*46
{"class":"TPV","tag":"RMC","time":1118350338.000,"ept":0.005,"lat":44.092600000,"lon":-121.306633333,"track":0.0000,"speed":0.000,"mode":2}
$GPRMB,A,,,,,,,,,,,,V*71
$GPRMC,205220.00,A,4405.556,N,12118.398,W,000.0,000.0,090605,0.0,E*4d
{"class":"TPV","tag":"RMC","time":1118350340.000,"ept":0.005,"lat":44.092600000,"lon":-121.306633333,"track":0.0000,"speed":0.000,"mode":2}
$GPRMB,A,,,,,,,,,,,,V*71
$GPRMC,205222.00,A,4405.556,N,12118.398,W,000.0,000.0,090605,0.0,E*4f
{"class":"TPV","tag":"RMC","time":1118350342.000,"ept":0.005,"lat":44.092600000,"lon":-121.306633333,"track":0.0000,"speed":0.000,"mode":2}
$GPRMB,A,,,,,,,,,,,,V*71
$GPRMC,205224.00,A,4405.556,N,12118.398,W,000.0,000.0,090605,0.0,E*49
{"class":"TPV","tag":"RMC","time":1118350344.000,"ept":0.005,"lat":44.092600000,"lon":-121.306633333,"track":0.0000,"speed":0.000,"mode":2}
$GPRMB,A,,,,,,,,,,,,V*71
$GPRMC,205226.00,A,4405.556,N,12118.398,W,000.0,000.0,090605,0.0,E*4b
{"class":"TPV","tag":"RMC","time":1118350346.000,"ept":0.005,"lat":44.092600000,"lon":-121.306633333,"track":0.0000,"speed":0.000,"mode":2}
$GPRMB,A,,,,,,,,,,,,V*71
$GPRMC,205228.00,A,4405.556,N,12118.398,W,000.0,000.0,090605,0.0,E*45
{"class":"TPV","tag":"RMC","time":1118350348.000,"ept":0.005,"lat":44.092600000,"lon":-121.306633333,"track":0.0000,"speed":0.000,"mode":2}
$GPRMB,A,,,,,,,,,,,,V*71
$GPRMC,205230.00,A,4405.556,N,12118.398,W,000.0,000.0,090605,0.0,E*4c
{"class":"TPV","tag":"RMC","time":1118350350.000,"ept":0.005,"lat":44.092600000,"lon":-121.306633333,"track":0.0000,"speed":0.000,"mode":2}
$GPRMB,A,,,,,,,,,,,,V*71
$GPRMC,205232.00,A,4405.556,N,12118.398,W,000.0,000.0,090605,0.0,E*4e
{"class":"TPV","tag":"RMC","time":1118350352.000,"ept":0.005,"lat":44.092600000,"lon":-121.306633333,"track":0.0000,"speed":0.000,"mode":2}
$GPRMB,A,,,,,,,,,,,,V*71
$GPRMC,205234.00,A,4405.556,N,12118.398,W,000.0,000.0,090605,0.0,E*48
{"class":"TPV","tag":"RMC","time":1118350354.000,"ept":0.005,"lat":44.092600000,"lon":-121.306633333,"track":0.0000,"speed":0.000,"mode":2}
$GPRMB,A,,,,,,,,,,,,V*71
$GPRMC,205236.00,A,4405.556,N,12118.398,W,000.0,000.0,090605,0.0,E*4a
{"class":"TPV","tag":"RMC","time":1118350356.000,"ept":0.005,"lat":44.092600000,"lon":-121.306633333,"track":0.0000,"speed":0.000,"mode":2}
$GPRMB,A,,,,,,,,,,,,V*71
$GPRMC,205238.00,A,4405.556,N,12118.398,W,000.0,000.0,090605,0.0,E*44
{"class":"TPV","tag":"RMC","time":1118350358.000,"ept":0.005,"lat":44.092600000,"lon":-121.306633333,"track":0.0000,"speed":0.000,"mode":2}
$GPRMB,A,,,,,,,,,,,,V*71
$GPRMC,205240.00,A,4405.556,N,12118.398,W,000.0,000.0,090605,0.0,E*4b
{"class":"TPV","tag":"RMC","time":1118350360.000,"ept":0.005,"lat":44.092600000,"lon":-121.306633333,"track":0.0000,"speed":0.000,"mode":2}
$GPRMB,A,,,,,,,,,,,,V*71
$GPRMC,205242.00,A,4405.556,N,12118.398,W,000.0,000.0,090605,0.0,E*49
{"class":"TPV","tag":"RMC","time":1118350362.000,"ept":0.005,"lat":44.092600000,"lon":-121.306633333,"track":0.0000,"speed":0.000,"mode":2}
$GPRMB,A,,,,,,,,,,,,V*71
$GPRMC,205244.00,A,4405.556,N,12118.398,W,000.0,000.0,090605,0.0,E*4f
{"class":"TPV","tag":"RMC","time":1118350364.000,"ept":0.005,"lat":44.092600000,"lon":-121.306633333,"track":0.0000,"speed":0.000,"mode":2}
$GPRMB,A,,,,,,,,,,,,V*71
$GPRMC,205246.00,A,4405.556,N,12118.398,W,000.0,000.0,090605,0.0,E*4d
{"class":"TPV","tag":"RMC","time":1118350366.000,"ept":0.005,"lat":44.092600000,"lon":-121.306633333,"track":0.0000,"speed":0.000,"mode":2}
$GPRMB,A,,,,,,,,,,,,V*71
$GPRMC,205248.00,V,,,,,,,,,,,V*40
$GPRMB,V,,,,,,,,,,,,V*66
$GPRMC,205250.00,V,,,,,,,,,,,V*49
$GPRMB,V,,,,,,,,,,,,V*66
$GPRMC,205252.00,V,,,,,,,,,,,V*4b
$GPRMB,V,,,,,,,,,,,,V*66
$GPRMC,205254.00,V,,,,,,,,,,,V*4d
$GPRMB,V,,,,,,,,,,,,V*66
$GPRMC,205256.00,V,,,,,,,,,,,V*4f
$GPRMB,V,,,,,,,,,,,,V*66
$GPRMC,205258.00,V,,,,,,,,,,,V*41
$GPRMB,V,,,,,,,,,,,,V*66
$GPRMC,205300.00,V,,,,,,,,,,,V*4d
$GPRMB,V,,,,,,,,,,,,V*66
$GPRMC,205302.00,V,,,,,,,,,,,V*4f
$GPRMB,V,,,,,,,,,,,,V*66
$GPRMC,205304.00,V,,,,,,,,,,,V*49
