$GPGGA,051133.000,4744.6977,N,12206.7277,W,1,05,1.9,136.4,M,-17.1,M,18.8,0000*7D
{"class":"TPV","mode":3,"lat":47.744961667,"lon":-122.112128333,"alt":136.400}
$GPGSA,A,3,12,25,21,29,30,,,,,,,,2.6,1.9,1.8*38
{"class":"TPV","mode":3,"lat":47.744961667,"lon":-122.112128333,"alt":136.400,"epv":41.400}
$GPZDA,051134.000,04,07,2012,,*56
$GPGGA,051134.000,4744.6980,N,12206.7275,W,1,05,1.9,135.4,M,-17.1,M,18.8,0000*73
{"class":"TPV","mode":3,"time":"2012-07-04T05:11:34.000Z","ept":0.005,"lat":47.744966667,"lon":-122.112125000,"alt":135.400,"epv":41.400,"speed":0.000,"climb":0.000}
$GPGSA,A,3,12,25,21,29,30,,,,,,,,2.6,1.9,1.8*38
$GPZDA,051135.000,04,07,2012,,*57
$GPGGA,051135.000,4744.6981,N,12206.7273,W,1,05,1.9,134.7,M,-17.1,M,18.8,0000*77
{"class":"TPV","mode":3,"time":"2012-07-04T05:11:35.000Z","ept":0.005,"lat":47.744968333,"lon":-122.112121667,"alt":134.700,"epv":41.400,"speed":0.000,"climb":0.000}
$GPGSA,A,3,12,25,21,29,30,,,,,,,,2.6,1.9,1.8*38
$GPZDA,051136.000,04,07,2012,,*54
$GPGGA,051136.000,4744.6980,N,12206.7271,W,1,05,1.9,134.2,M,-17.1,M,18.8,0000*72
{"class":"TPV","mode":3,"time":"2012-07-04T05:11:36.000Z","ept":0.005,"lat":47.744966667,"lon":-122.112118333,"alt":134.200,"epv":41.400,"speed":0.000,"climb":0.000}
$GPGSA,A,3,12,25,21,29,30,,,,,,,,2.6,1.9,1.8*38
$GPZDA,051137.000,04,07,2012,,*55
$GPGGA,051137.000,4744.6980,N,12206.7274,W,1,05,1.9,134.7,M,-17.1,M,18.8,0000*73
{"class":"TPV","mode":3,"time":"2012-07-04T05:11:37.000Z","ept":0.005,"lat":47.744966667,"lon":-122.112123333,"alt":134.700,"epv":41.400,"speed":0.000,"climb":0.000}
$GPGSA,A,3,12,25,21,29,30,,,,,,,,2.6,1.9,1.8*38
$GPZDA,051138.000,04,07,2012,,*5A
$GPGGA,051138.000,4744.6981,N,12206.7278,W,1,05,1.9,135.6,M,-17.1,M,18.8,0000*71
{"class":"TPV","mode":3,"time":"2012-07-04T05:11:38.000Z","ept":0.005,"lat":47.744968333,"lon":-122.112130000,"alt":135.600,"epv":41.400,"speed":0.000,"climb":0.000}
$GPGSA,A,3,12,25,21,29,30,,,,,,,,2.6,1.9,1.8*38
$GPZDA,051139.000,04,07,2012,,*5B
$GPGGA,051139.000,4744.6981,N,12206.7281,W,1,05,1.9,136.3,M,-17.1,M,18.8,0000*70
{"class":"TPV","mode":3,"time":"2012-07-04T05:11:39.000Z","ept":0.005,"lat":47.744968333,"lon":-122.112135000,"alt":136.300,"epv":41.400,"speed":0.000,"climb":0.000}
$GPGSA,A,3,12,25,21,29,30,,,,,,,,2.6,1.9,1.8*38
$GPZDA,051140.000,04,07,2012,,*55
$GPGGA,051140.000,4744.6982,N,12206.7285,W,1,05,1.9,137.1,M,-17.1,M,18.8,0000*7A
{"class":"TPV","mode":3,"time":"2012-07-04T05:11:40.000Z","ept":0.005,"lat":47.744970000,"lon":-122.112141667,"alt":137.100,"epv":41.400,"speed":0.000,"climb":0.000}
$GPGSA,A,3,12,25,21,29,30,,,,,,,,2.6,1.9,1.8*38
$GPZDA,051141.000,04,07,2012,,*54
$GPGGA,051141.000,4744.6982,N,12206.7287,W,1,05,1.9,137.7,M,-17.1,M,18.8,0000*7F
{"class":"TPV","mode":3,"time":"2012-07-04T05:11:41.000Z","ept":0.005,"lat":47.744970000,"lon":-122.112145000,"alt":137.700,"epv":41.400,"speed":0.000,"climb":0.000}
$GPGSA,A,3,12,25,21,29,30,,,,,,,,2.6,1.9,1.8*38
$GPZDA,051142.000,04,07,2012,,*57
$GPGGA,051142.000,4744.6982,N,12206.7289,W,1,05,1.9,138.0,M,-17.1,M,18.8,0000*7A
{"class":"TPV","mode":3,"time":"2012-07-04T05:11:42.000Z","ept":0.005,"lat":47.744970000,"lon":-122.112148333,"alt":138.000,"epv":41.400,"speed":0.000,"climb":0.000}
$GPGSA,A,3,12,25,21,29,30,,,,,,,,2.6,1.9,1.8*38
$GPZDA,051143.000,04,07,2012,,*56
$GPGGA,051143.000,4744.6982,N,12206.7290,W,1,05,1.9,138.2,M,-17.1,M,18.8,0000*71
{"class":"TPV","mode":3,"time":"2012-07-04T05:11:43.000Z","ept":0.005,"lat":47.744970000,"lon":-122.112150000,"alt":138.200,"epv":41.400,"speed":0.000,"climb":0.000}
$GPGSA,A,3,12,25,21,29,30,,,,,,,,2.6,1.9,1.8*38
$GPZDA,051144.000,04,07,2012,,*51
$GPGGA,051144.000,4744.6982,N,12206.7292,W,1,05,1.9,138.8,M,-17.1,M,18.8,0000*7E
{"class":"TPV","mode":3,"time":"2012-07-04T05:11:44.000Z","ept":0.005,"lat":47.744970000,"lon":-122.112153333,"alt":138.800,"epv":41.400,"speed":0.000,"climb":0.000}
$GPGSA,A,3,12,25,21,29,30,,,,,,,,2.6,1.9,1.8*38
$GPZDA,051145.000,04,07,2012,,*50
$GPGGA,051145.000,4744.6983,N,12206.7293,W,1,05,1.9,138.8,M,-17.1,M,18.8,0000*7F
{"class":"TPV","mode":3,"time":"2012-07-04T05:11:45.000Z","ept":0.005,"lat":47.744971667,"lon":-122.112155000,"alt":138.800,"epv":41.400,"speed":0.000,"climb":0.000}
$GPGSA,A,3,12,25,21,29,30,,,,,,,,2.6,1.9,1.8*38
$GPZDA,051146.000,04,07,2012,,*53
$GPGGA,051146.000,4744.6984,N,12206.7294,W,1,05,1.9,138.8,M,-17.1,M,18.8,0000*7C
{"class":"TPV","mode":3,"time":"2012-07-04T05:11:46.000Z","ept":0.005,"lat":47.744973333,"lon":-122.112156667,"alt":138.800,"epv":41.400,"speed":0.000,"climb":0.000}
$GPGSA,A,3,12,25,21,29,30,,,,,,,,2.6,1.9,1.8*38
$GPZDA,051147.000,04,07,2012,,*52
