# Name: Adafruit Ultimate GPS HAT
# Chipset: MT3339
# Description: Raspberry Pi HAT
# Submitter: Gary E. Miller <gem@rellim.com>
# Date: 2015-04-13
# Location: Bend, Oregon USA, 44.04N, 121.18 W
#
$GPGGA,202640.000,4404.1306,N,12118.8515,W,2,10,0.98,1127.7,M,-19.6,M,0000,0000*6C
$GPGSA,A,3,20,16,09,03,07,10,23,19,27,30,,,1.64,0.98,1.31*05
$GPRMC,202640.000,A,4404.1306,N,12118.8515,W,0.03,225.97,130415,,,D*73
$GPZDA,202640.000,13,04,2015,,*54
$GPGGA,202641.000,4404.1305,N,12118.8515,W,2,11,0.83,1127.7,M,-19.6,M,0000,0000*65
$GPGSA,A,3,20,16,09,03,07,10,23,19,27,30,05,,1.33,0.83,1.03*09
$GPRMC,202641.000,A,4404.1305,N,12118.8515,W,0.01,201.71,130415,,,D*7D
$GPZDA,202641.000,13,04,2015,,*55
$GPGGA,202642.000,4404.1305,N,12118.8515,W,2,11,0.83,1127.7,M,-19.6,M,0000,0000*66
$GPGSA,A,3,20,16,09,03,07,10,23,19,27,30,05,,1.33,0.83,1.03*09
$GPRMC,202642.000,A,4404.1305,N,12118.8515,W,0.00,0.00,130415,,,D*7A
$GPZDA,202642.000,13,04,2015,,*56
$GPGGA,202643.000,4404.1305,N,12118.8515,W,2,11,0.84,1127.7,M,-19.6,M,0000,0000*60
$GPGSA,A,3,20,16,09,03,07,10,23,19,27,30,05,,1.33,0.84,1.03*0E
$GPGSV,3,1,12,09,88,089,31,07,60,281,44,23,55,123,33,10,44,274,32*78
$GPGSV,3,2,12,16,39,051,29,30,30,262,20,20,23,308,30,27,23,093,34*7F
$GPGSV,3,3,12,19,13,123,27,03,07,176,19,05,05,328,13,47,,,*41
$GPRMC,202643.000,A,4404.1305,N,12118.8515,W,0.02,171.47,130415,,,D*7D
$GPZDA,202643.000,13,04,2015,,*57
$GPGGA,202644.000,4404.1305,N,12118.8515,W,2,11,0.84,1127.7,M,-19.6,M,0000,0000*67
$GPGSA,A,3,20,16,09,03,07,10,23,19,27,30,05,,1.33,0.84,1.03*0E
$GPRMC,202644.000,A,4404.1305,N,12118.8515,W,0.02,193.13,130415,,,D*77
$GPZDA,202644.000,13,04,2015,,*50
$GPGGA,202645.000,4404.1305,N,12118.8515,W,2,10,0.98,1127.7,M,-19.6,M,0000,0000*6A
$GPGSA,A,3,20,16,09,03,07,10,23,19,27,30,,,1.64,0.98,1.31*05
$GPRMC,202645.000,A,4404.1305,N,12118.8515,W,0.03,173.97,130415,,,D*75
$GPZDA,202645.000,13,04,2015,,*51
$GPGGA,202646.000,4404.1305,N,12118.8515,W,2,10,0.98,1127.7,M,-19.6,M,0000,0000*69
$GPGSA,A,3,20,16,09,03,07,10,23,19,27,30,,,1.64,0.98,1.31*05
$GPRMC,202646.000,A,4404.1305,N,12118.8515,W,0.01,207.08,130415,,,D*72
$GPZDA,202646.000,13,04,2015,,*52
$GPGGA,202647.000,4404.1305,N,12118.8515,W,2,10,0.98,1127.7,M,-19.6,M,0000,0000*68
$GPGSA,A,3,20,16,09,03,07,10,23,19,27,30,,,1.64,0.98,1.31*05
$GPRMC,202647.000,A,4404.1305,N,12118.8515,W,0.02,198.85,130415,,,D*70
$GPZDA,202647.000,13,04,2015,,*53
$GPGGA,202648.000,4404.1305,N,12118.8515,W,2,10,0.98,1127.7,M,-19.6,M,0000,0000*67
$GPGSA,A,3,20,16,09,03,07,10,23,19,27,30,,,1.64,0.98,1.31*05
$GPGSV,3,1,12,09,88,089,32,07,60,281,44,23,55,123,34,10,44,274,31*7F
$GPGSV,3,2,12,16,39,051,31,30,30,262,23,20,24,308,30,27,23,093,34*72
$GPGSV,3,3,12,19,13,123,27,03,07,176,22,05,05,328,,49,,,*45
$GPRMC,202648.000,A,4404.1305,N,12118.8515,W,0.00,152.04,130415,,,D*72
$GPZDA,202648.000,13,04,2015,,*5C
$GPGGA,202649.000,4404.1305,N,12118.8515,W,2,10,0.98,1127.7,M,-19.6,M,0000,0000*66
$GPGSA,A,3,20,16,09,03,07,10,23,19,27,30,,,1.64,0.98,1.31*05
$GPRMC,202649.000,A,4404.1305,N,12118.8515,W,0.04,203.49,130415,,,D*79
$GPZDA,202649.000,13,04,2015,,*5D
$GPGGA,202650.000,4404.1305,N,12118.8515,W,2,10,0.98,1127.7,M,-19.6,M,0000,0000*6E
$GPGSA,A,3,20,16,09,03,07,10,23,19,27,30,,,1.64,0.98,1.31*05
$GPRMC,202650.000,A,4404.1305,N,12118.8515,W,0.04,191.29,130415,,,D*7F
$GPZDA,202650.000,13,04,2015,,*55
$GPGGA,202651.000,4404.1305,N,12118.8515,W,2,10,0.98,1127.7,M,-19.6,M,0000,0000*6F
$GPGSA,A,3,20,16,09,03,07,10,23,19,27,30,,,1.64,0.98,1.31*05
$GPRMC,202651.000,A,4404.1305,N,12118.8515,W,0.04,185.45,130415,,,D*71
$GPZDA,202651.000,13,04,2015,,*54
$GPGGA,202652.000,4404.1305,N,12118.8515,W,2,10,0.98,1127.7,M,-19.6,M,0000,0000*6C
$GPGSA,A,3,20,16,09,03,07,10,23,19,27,30,,,1.64,0.98,1.31*05
$GPRMC,202652.000,A,4404.1305,N,12118.8515,W,0.05,208.06,130415,,,D*72
$GPZDA,202652.000,13,04,2015,,*57
$GPGGA,202653.000,4404.1305,N,12118.8515,W,2,10,0.98,1127.7,M,-19.6,M,0000,0000*6D
$GPGSA,A,3,20,16,09,03,07,10,23,19,27,30,,,1.64,0.98,1.31*05
$GPGSV,3,1,12,09,88,089,31,07,60,281,44,23,54,124,33,10,44,274,31*7D
$GPGSV,3,2,12,16,39,051,31,30,30,262,24,20,24,308,31,27,23,093,34*74
$GPGSV,3,3,12,19,13,123,26,03,07,176,19,05,05,328,,49,,,*4C
$GPRMC,202653.000,A,4404.1305,N,12118.8515,W,0.04,191.42,130415,,,D*71
$GPZDA,202653.000,13,04,2015,,*56
$GPGGA,202654.000,4404.1305,N,12118.8515,W,2,10,0.98,1127.7,M,-19.6,M,0000,0000*6A
$GPGSA,A,3,20,16,09,03,07,10,23,19,27,30,,,1.64,0.98,1.31*05
$GPRMC,202654.000,A,4404.1305,N,12118.8515,W,0.01,233.27,130415,,,D*7B
$GPZDA,202654.000,13,04,2015,,*51
$GPGGA,202655.000,4404.1305,N,12118.8515,W,2,10,0.98,1127.7,M,-19.6,M,0000,0000*6B
$GPGSA,A,3,20,16,09,03,07,10,23,19,27,30,,,1.64,0.98,1.31*05
$GPRMC,202655.000,A,4404.1305,N,12118.8515,W,0.03,166.68,130415,,,D*70
$GPZDA,202655.000,13,04,2015,,*50
$GPGGA,202656.000,4404.1305,N,12118.8515,W,2,10,0.98,1127.7,M,-19.6,M,0000,0000*68
$GPGSA,A,3,20,16,09,03,07,10,23,19,27,30,,,1.64,0.98,1.31*05
$GPRMC,202656.000,A,4404.1305,N,12118.8515,W,0.04,213.40,130415,,,D*7F
$GPZDA,202656.000,13,04,2015,,*53
$GPGGA,202657.000,4404.1304,N,12118.8515,W,2,10,0.98,1127.7,M,-19.6,M,0000,0000*68
$GPGSA,A,3,20,16,09,03,07,10,23,19,27,30,,,1.64,0.98,1.31*05
$GPRMC,202657.000,A,4404.1304,N,12118.8515,W,0.04,206.19,130415,,,D*77
$GPZDA,202657.000,13,04,2015,,*52
$GPGGA,202658.000,4404.1304,N,12118.8515,W,2,10,0.98,1127.7,M,-19.6,M,0000,0000*67
$GPGSA,A,3,20,16,09,03,07,10,23,19,27,30,,,1.64,0.98,1.31*05
$GPGSV,3,1,12,09,88,089,32,07,60,281,44,23,54,124,36,10,44,274,31*7B
$GPGSV,3,2,12,16,39,051,31,46,37,146,,30,30,262,24,20,24,308,32*7B
$GPGSV,3,3,12,27,23,092,33,19,13,123,26,03,07,176,22,05,05,328,*76
$GPRMC,202658.000,A,4404.1304,N,12118.8515,W,0.03,213.30,130415,,,D*70
$GPZDA,202658.000,13,04,2015,,*5D
$GPGGA,202659.000,4404.1304,N,12118.8515,W,2,10,0.98,1127.7,M,-19.6,M,0000,0000*66
$GPGSA,A,3,20,16,09,03,07,10,23,19,27,30,,,1.64,0.98,1.31*05
$GPRMC,202659.000,A,4404.1304,N,12118.8515,W,0.04,190.06,130415,,,D*7B
$GPZDA,202659.000,13,04,2015,,*5C
$GPGGA,202700.000,4404.1304,N,12118.8515,W,2,10,0.98,1127.7,M,-19.6,M,0000,0000*6B
$GPGSA,A,3,20,16,09,03,07,10,23,19,27,30,,,1.64,0.98,1.31*05
$GPRMC,202700.000,A,4404.1304,N,12118.8515,W,0.04,165.60,130415,,,D*7C
$GPZDA,202700.000,13,04,2015,,*51
$GPGGA,202701.000,4404.1304,N,12118.8515,W,2,10,0.98,1127.7,M,-19.6,M,0000,0000*6A
$GPGSA,A,3,20,16,09,03,07,10,23,19,27,30,,,1.64,0.98,1.31*05
$GPRMC,202701.000,A,4404.1304,N,12118.8515,W,0.04,195.31,130415,,,D*76
$GPZDA,202701.000,13,04,2015,,*50
$GPGGA,202702.000,4404.1304,N,12118.8515,W,2,10,0.98,1127.7,M,-19.6,M,0000,0000*69
$GPGSA,A,3,20,16,09,03,07,10,23,19,27,30,,,1.64,0.98,1.31*05
$GPRMC,202702.000,A,4404.1304,N,12118.8515,W,0.01,331.31,130415,,,D*7C
$GPZDA,202702.000,13,04,2015,,*53
$GPGGA,202703.000,4404.1304,N,12118.8515,W,2,10,0.98,1127.7,M,-19.6,M,0000,0000*68
$GPGSA,A,3,20,16,09,03,07,10,23,19,27,30,,,1.64,0.98,1.31*05
$GPGSV,3,1,12,09,88,089,33,07,60,281,44,23,54,124,37,10,44,274,31*7B
$GPGSV,3,2,12,16,39,051,30,46,37,146,,30,30,262,28,20,24,308,30*74
$GPGSV,3,3,12,27,23,092,31,19,13,123,27,03,07,176,20,05,05,328,*77
$GPRMC,202703.000,A,4404.1304,N,12118.8515,W,0.01,202.78,130415,,,D*71
$GPZDA,202703.000,13,04,2015,,*52
$GPGGA,202704.000,4404.1304,N,12118.8514,W,2,10,0.98,1127.7,M,-19.6,M,0000,0000*6E
$GPGSA,A,3,20,16,09,03,07,10,23,19,27,30,,,1.64,0.98,1.31*05
$GPRMC,202704.000,A,4404.1304,N,12118.8514,W,0.01,66.20,130415,,,D*4A
$GPZDA,202704.000,13,04,2015,,*55
$GPGGA,202705.000,4404.1302,N,12118.8514,W,2,10,0.98,1127.6,M,-19.6,M,0000,0000*68
$GPGSA,A,3,20,16,09,03,07,10,23,19,27,30,,,1.64,0.98,1.31*05
$GPRMC,202705.000,A,4404.1302,N,12118.8514,W,0.03,115.82,130415,,,D*72
$GPZDA,202705.000,13,04,2015,,*54
$GPGGA,202706.000,4404.1302,N,12118.8513,W,2,10,0.98,1127.6,M,-19.6,M,0000,0000*6C
$GPGSA,A,3,20,16,09,03,07,10,23,19,27,30,,,1.64,0.98,1.31*05
$GPRMC,202706.000,A,4404.1302,N,12118.8513,W,0.02,124.23,130415,,,D*7E
$GPZDA,202706.000,13,04,2015,,*57
$GPGGA,202707.000,4404.1302,N,12118.8512,W,2,10,0.98,1127.6,M,-19.6,M,0000,0000*6C
$GPGSA,A,3,20,16,09,03,07,10,23,19,27,30,,,1.64,0.98,1.31*05
$GPRMC,202707.000,A,4404.1302,N,12118.8512,W,0.01,66.30,130415,,,D*48
$GPZDA,202707.000,13,04,2015,,*56
$GPGGA,202708.000,4404.1298,N,12118.8513,W,2,10,0.98,1127.4,M,-19.6,M,0000,0000*62
$GPGSA,A,3,20,16,09,03,07,10,23,19,27,30,,,1.64,0.98,1.31*05
$GPGSV,3,1,12,09,88,089,33,07,60,281,44,23,54,124,38,10,44,274,31*74
$GPGSV,3,2,12,16,39,051,31,46,37,146,,30,30,262,29,20,24,308,30*74
$GPGSV,3,3,12,27,23,092,32,19,13,123,25,03,07,176,19,05,05,328,*7C
$GPRMC,202708.000,A,4404.1298,N,12118.8513,W,0.06,182.52,130415,,,D*7C
$GPZDA,202708.000,13,04,2015,,*59
$GPGGA,202709.000,4404.1297,N,12118.8513,W,2,10,0.98,1127.4,M,-19.6,M,0000,0000*6C
$GPGSA,A,3,20,16,09,03,07,10,23,19,27,30,,,1.64,0.98,1.31*05
$GPRMC,202709.000,A,4404.1297,N,12118.8513,W,0.03,188.44,130415,,,D*7A
$GPZDA,202709.000,13,04,2015,,*58
