$GPZDA,102005.00,15,01,2007,00,00*60
$GPGGA,102005.00,3020.5010,N,01213.7241,E,2,00,1.00,627.59,M,29.291,M,,*62
$GPRMC,102005.00,A,3020.5010,N,01213.7241,E,0.1944,90.000,150107,2.5,E*5E
$GPGSA,A,3,,,,,,,,,,,,,2.0,1.0,1.8*38
{"class":"TPV","status":2,"mode":3,"time":"2007-01-15T10:20:05.000Z","ept":0.005,"lat":30.341683155,"lon":12.228735775,"altHAE":659.119,"altMSL":627.588,"epv":10.350,"track":90.0000,"magtrack":92.4833,"magvar":2.5,"speed":0.100,"climb":0.600,"velN":0.000,"velE":0.100,"velD":-0.600,"geoidSep":29.291,"eph":4.750,"sep":9.500}
$GPGSV,3,1,10,21,78,040,46,31,39,230,44,06,36,062,43,25,36,245,43*7F
$GPGSV,3,2,10,30,26,132,38,16,40,321,42,18,31,140,39,03,10,284,34*7F
$GPGSV,3,3,10,07,43,056,43,22,13,173,34*7C
{"class":"SKY","time":"2007-01-14T00:01:44.624Z","xdop":0.55,"ydop":0.74,"vdop":1.80,"tdop":1.30,"hdop":1.00,"gdop":2.40,"pdop":2.00,"satellites":[{"PRN":21,"el":78.0,"az":40.0,"ss":46.5,"used":true},{"PRN":31,"el":39.0,"az":230.0,"ss":44.5,"used":true},{"PRN":6,"el":36.0,"az":62.0,"ss":43.0,"used":true},{"PRN":25,"el":36.0,"az":245.0,"ss":43.0,"used":true},{"PRN":30,"el":26.0,"az":132.0,"ss":38.0,"used":true},{"PRN":16,"el":40.0,"az":321.0,"ss":42.2,"used":true},{"PRN":18,"el":31.0,"az":140.0,"ss":39.0,"used":true},{"PRN":3,"el":10.0,"az":284.0,"ss":34.0,"used":true},{"PRN":7,"el":43.0,"az":56.0,"ss":43.0,"used":true},{"PRN":22,"el":13.0,"az":173.0,"ss":33.5,"used":false}]}
$GPZDA,102006.00,15,01,2007,00,00*63
$GPGGA,102006.00,3020.5010,N,01213.7241,E,2,09,1.00,627.58,M,29.291,M,,*69
$GPRMC,102006.00,A,3020.5010,N,01213.7241,E,0.0135,,150107,2.5,E*45
$GPGSA,A,3,21,31,6,25,30,16,18,3,7,,,,2.0,1.0,1.8*01
$GPGBS,102006.00,2.047,2.792,10.350,,,,*7C
{"class":"TPV","status":2,"mode":3,"time":"2007-01-15T10:20:06.000Z","ept":0.005,"lat":30.341683205,"lon":12.228735818,"altHAE":659.108,"altMSL":627.577,"epx":2.047,"epy":2.792,"epv":10.350,"magvar":2.5,"speed":0.007,"climb":0.800,"eps":5.58,"epc":20.70,"velE":0.000,"velD":-0.800,"geoidSep":29.291,"eph":4.750,"sep":9.500}
$GPGSV,3,1,10,21,78,040,46,31,39,230,44,06,36,062,43,25,36,245,43*7F
$GPGSV,3,2,10,30,26,132,38,16,40,321,42,18,31,140,39,03,10,284,34*7F
$GPGSV,3,3,10,07,43,056,43,22,13,173,32*7A
{"class":"SKY","time":"2007-01-14T00:01:44.625Z","xdop":0.55,"ydop":0.74,"vdop":1.80,"tdop":1.30,"hdop":1.00,"gdop":2.40,"pdop":2.00,"satellites":[{"PRN":21,"el":78.0,"az":40.0,"ss":46.5,"used":true},{"PRN":31,"el":39.0,"az":230.0,"ss":44.5,"used":true},{"PRN":6,"el":36.0,"az":62.0,"ss":43.0,"used":true},{"PRN":25,"el":36.0,"az":245.0,"ss":42.8,"used":true},{"PRN":30,"el":26.0,"az":132.0,"ss":38.0,"used":true},{"PRN":16,"el":40.0,"az":321.0,"ss":42.2,"used":true},{"PRN":18,"el":31.0,"az":140.0,"ss":39.0,"used":true},{"PRN":3,"el":10.0,"az":284.0,"ss":34.0,"used":true},{"PRN":7,"el":43.0,"az":56.0,"ss":43.0,"used":true},{"PRN":22,"el":13.0,"az":173.0,"ss":32.5,"used":false}]}
$GPZDA,102007.00,15,01,2007,00,00*62
$GPGGA,102007.00,3020.5010,N,01213.7242,E,2,09,1.00,627.56,M,29.291,M,,*65
$GPRMC,102007.00,A,3020.5010,N,01213.7242,E,0.1944,90.000,150107,2.5,E*5F
$GPGSA,A,3,21,31,6,25,30,16,18,3,7,,,,2.0,1.0,1.8*01
$GPGBS,102007.00,2.047,2.792,10.350,,,,*7D
{"class":"TPV","status":2,"mode":3,"time":"2007-01-15T10:20:07.000Z","ept":0.005,"lat":30.341683095,"lon":12.228735894,"altHAE":659.090,"altMSL":627.558,"epx":2.047,"epy":2.792,"epv":10.350,"track":90.0000,"magtrack":92.4833,"magvar":2.5,"speed":0.100,"climb":-0.019,"eps":5.58,"epc":20.70,"velN":0.000,"velE":0.100,"geoidSep":29.291,"eph":4.750,"sep":9.500}
$GPGSV,3,1,10,21,78,040,46,31,39,230,44,06,36,062,43,25,36,245,43*7F
$GPGSV,3,2,10,30,26,132,38,16,40,321,42,18,31,140,39,03,10,284,34*7F
$GPGSV,3,3,10,07,43,056,43,22,13,173,44*7B
{"class":"SKY","time":"2007-01-14T00:01:44.626Z","xdop":0.55,"ydop":0.74,"vdop":1.80,"tdop":1.30,"hdop":1.00,"gdop":2.40,"pdop":2.00,"satellites":[{"PRN":21,"el":78.0,"az":40.0,"ss":46.5,"used":true},{"PRN":31,"el":39.0,"az":230.0,"ss":44.5,"used":true},{"PRN":6,"el":36.0,"az":62.0,"ss":43.0,"used":true},{"PRN":25,"el":36.0,"az":245.0,"ss":43.0,"used":true},{"PRN":30,"el":26.0,"az":132.0,"ss":37.8,"used":true},{"PRN":16,"el":40.0,"az":321.0,"ss":42.2,"used":true},{"PRN":18,"el":31.0,"az":140.0,"ss":39.0,"used":true},{"PRN":3,"el":10.0,"az":284.0,"ss":34.0,"used":true},{"PRN":7,"el":43.0,"az":56.0,"ss":43.0,"used":true},{"PRN":22,"el":13.0,"az":173.0,"ss":43.8,"used":false}]}
$GPZDA,102008.00,15,01,2007,00,00*6D
$GPGGA,102008.00,3020.5010,N,01213.7242,E,2,09,1.00,627.55,M,29.291,M,,*69
$GPRMC,102008.00,A,3020.5010,N,01213.7242,E,0.1944,90.000,150107,2.5,E*50
$GPGSA,A,3,21,31,6,25,30,16,18,3,7,,,,2.0,1.0,1.8*01
$GPGBS,102008.00,2.047,2.792,10.350,,,,*72
{"class":"TPV","status":2,"mode":3,"time":"2007-01-15T10:20:08.000Z","ept":0.005,"lat":30.341683146,"lon":12.228735886,"altHAE":659.083,"altMSL":627.552,"epx":2.047,"epy":2.792,"epv":10.350,"track":90.0000,"magtrack":92.4833,"magvar":2.5,"speed":0.100,"climb":0.100,"eps":5.58,"epc":20.70,"velN":0.000,"velE":0.100,"velD":-0.100,"geoidSep":29.291,"eph":4.750,"sep":9.500}
$GPGSV,3,1,10,21,78,040,46,31,39,230,44,06,36,062,43,25,36,245,43*7F
$GPGSV,3,2,10,30,26,132,38,16,40,321,42,18,31,140,39,03,10,284,34*7F
$GPGSV,3,3,10,07,43,056,43,22,13,173,44*7B
{"class":"SKY","time":"2007-01-14T00:01:44.627Z","xdop":0.55,"ydop":0.74,"vdop":1.80,"tdop":1.30,"hdop":1.00,"gdop":2.40,"pdop":2.00,"satellites":[{"PRN":21,"el":78.0,"az":40.0,"ss":46.5,"used":true},{"PRN":31,"el":39.0,"az":230.0,"ss":44.5,"used":true},{"PRN":6,"el":36.0,"az":62.0,"ss":43.0,"used":true},{"PRN":25,"el":36.0,"az":245.0,"ss":43.0,"used":true},{"PRN":30,"el":26.0,"az":132.0,"ss":38.0,"used":true},{"PRN":16,"el":40.0,"az":321.0,"ss":42.2,"used":true},{"PRN":18,"el":31.0,"az":140.0,"ss":38.8,"used":true},{"PRN":3,"el":10.0,"az":284.0,"ss":34.0,"used":true},{"PRN":7,"el":43.0,"az":56.0,"ss":43.0,"used":true},{"PRN":22,"el":13.0,"az":173.0,"ss":44.0,"used":false}]}
$GPZDA,102009.00,15,01,2007,00,00*6C
$GPGGA,102009.00,3020.5010,N,01213.7242,E,2,09,1.00,627.55,M,29.291,M,,*68
$GPRMC,102009.00,A,3020.5010,N,01213.7242,E,0.1944,0.000,150107,2.5,E*68
$GPGSA,A,3,21,31,6,25,30,16,18,3,7,,,,2.0,1.0,1.8*01
$GPGBS,102009.00,2.047,2.792,10.350,,,,*73
{"class":"TPV","status":2,"mode":3,"time":"2007-01-15T10:20:09.000Z","ept":0.005,"lat":30.341683214,"lon":12.228735860,"altHAE":659.085,"altMSL":627.552,"epx":2.047,"epy":2.792,"epv":10.350,"track":0.0000,"magtrack":2.4833,"magvar":2.5,"speed":0.100,"climb":0.000,"eps":5.58,"epc":20.70,"velN":0.100,"velE":0.000,"velD":-0.000,"geoidSep":29.291,"eph":4.750,"sep":9.500}
$GPGSV,3,1,10,21,78,040,46,31,39,230,44,06,36,062,43,25,36,245,43*7F
$GPGSV,3,2,10,30,26,132,38,16,40,321,42,18,31,140,38,03,10,284,34*7E
$GPGSV,3,3,10,07,43,056,43,22,13,173,44*7B
{"class":"SKY","time":"2007-01-14T00:01:44.628Z","xdop":0.55,"ydop":0.74,"vdop":1.80,"tdop":1.30,"hdop":1.00,"gdop":2.40,"pdop":2.00,"satellites":[{"PRN":21,"el":78.0,"az":40.0,"ss":46.5,"used":true},{"PRN":31,"el":39.0,"az":230.0,"ss":44.5,"used":true},{"PRN":6,"el":36.0,"az":62.0,"ss":43.0,"used":true},{"PRN":25,"el":36.0,"az":245.0,"ss":43.0,"used":true},{"PRN":30,"el":26.0,"az":132.0,"ss":38.0,"used":true},{"PRN":16,"el":40.0,"az":321.0,"ss":42.2,"used":true},{"PRN":18,"el":31.0,"az":140.0,"ss":38.5,"used":true},{"PRN":3,"el":10.0,"az":284.0,"ss":34.0,"used":true},{"PRN":7,"el":43.0,"az":56.0,"ss":43.0,"used":true},{"PRN":22,"el":13.0,"az":173.0,"ss":44.0,"used":false}]}
$GPZDA,102010.00,15,01,2007,00,00*64
$GPGGA,102010.00,3020.5010,N,01213.7242,E,2,09,1.00,627.54,M,29.291,M,,*61
$GPRMC,102010.00,A,3020.5010,N,01213.7242,E,0.1944,0.000,150107,2.5,E*60
$GPGSA,A,3,21,31,6,25,30,16,18,3,7,,,,2.0,1.0,1.8*01
$GPGBS,102010.00,2.047,2.792,10.350,,,,*7B
{"class":"TPV","status":2,"mode":3,"time":"2007-01-15T10:20:10.000Z","ept":0.005,"lat":30.341683205,"lon":12.228735860,"altHAE":659.069,"altMSL":627.538,"epx":2.047,"epy":2.792,"epv":10.350,"track":0.0000,"magtrack":2.4833,"magvar":2.5,"speed":0.100,"climb":0.100,"eps":5.58,"epc":20.70,"velN":0.100,"velE":0.000,"velD":-0.100,"geoidSep":29.291,"eph":4.750,"sep":9.500}
$GPGSV,3,1,10,21,78,040,46,31,39,230,44,06,36,062,43,25,36,245,43*7F
$GPGSV,3,2,10,30,26,132,38,16,40,321,42,18,31,140,38,03,10,284,34*7E
$GPGSV,3,3,10,07,43,056,43,22,13,173,35*7D
{"class":"SKY","time":"2007-01-14T00:01:44.629Z","xdop":0.55,"ydop":0.74,"vdop":1.80,"tdop":1.30,"hdop":1.00,"gdop":2.40,"pdop":2.00,"satellites":[{"PRN":21,"el":78.0,"az":40.0,"ss":46.5,"used":true},{"PRN":31,"el":39.0,"az":230.0,"ss":44.5,"used":true},{"PRN":6,"el":36.0,"az":62.0,"ss":43.0,"used":true},{"PRN":25,"el":36.0,"az":245.0,"ss":43.0,"used":true},{"PRN":30,"el":26.0,"az":132.0,"ss":38.0,"used":true},{"PRN":16,"el":40.0,"az":321.0,"ss":42.2,"used":true},{"PRN":18,"el":31.0,"az":140.0,"ss":38.5,"used":true},{"PRN":3,"el":10.0,"az":284.0,"ss":34.0,"used":true},{"PRN":7,"el":43.0,"az":56.0,"ss":43.0,"used":true},{"PRN":22,"el":13.0,"az":173.0,"ss":34.8,"used":false}]}
