$GPRMC,223251.00,A,3757.92653,N,12231.94543,W,0.068,338.51,210416,0.00,E,A,V*5B
{"class":"TPV","mode":2,"time":"2016-04-21T22:32:51.000Z","ept":0.005,"lat":37.965442167,"lon":-122.532423833,"track":338.5100,"speed":0.035}
$GPVTG,338.51,T,0.00,M,0.068,N,0.126,K,A*24
$GPGGA,223251.00,3757.92653,N,12231.94543,W,1,05,1.20,9.2,M,-25.1,M,,*6C
{"class":"TPV","mode":3,"time":"2016-04-21T22:32:51.000Z","ept":0.005,"lat":37.965442167,"lon":-122.532423833,"alt":9.200,"track":338.5100,"magtrack":0.0000,"speed":0.035}
$GPGSA,A,3,07,30,19,11,15,,,,,,,,2.88,1.20,2.62,1*10
{"class":"TPV","mode":3,"time":"2016-04-21T22:32:51.000Z","ept":0.005,"lat":37.965442167,"lon":-122.532423833,"alt":9.200,"epv":60.260,"track":338.5100,"magtrack":0.0000,"speed":0.035,"climb":0.000}
$GPGSV,3,1,12,28,70,351,18,30,61,093,28,17,52,181,,13,50,290,,1*67
$GPGSV,3,2,12,07,32,111,29,11,24,068,25,19,22,197,27,15,18,314,,1*6C
$GPGSV,3,3,12,08,03,037,,05,00,245,,01,17,085,,20,00,287,19,1*63
{"class":"SKY","xdop":0.84,"ydop":0.84,"vdop":2.62,"tdop":1.27,"hdop":1.20,"gdop":3.08,"pdop":2.88,"satellites":[{"PRN":28,"el":70,"az":351,"ss":18,"used":false,"gnssid":0,"svid":28},{"PRN":30,"el":61,"az":93,"ss":28,"used":true,"gnssid":0,"svid":30},{"PRN":17,"el":52,"az":181,"ss":0,"used":false,"gnssid":0,"svid":17},{"PRN":13,"el":50,"az":290,"ss":0,"used":false,"gnssid":0,"svid":13},{"PRN":7,"el":32,"az":111,"ss":29,"used":true,"gnssid":0,"svid":7},{"PRN":11,"el":24,"az":68,"ss":25,"used":true,"gnssid":0,"svid":11},{"PRN":19,"el":22,"az":197,"ss":27,"used":true,"gnssid":0,"svid":19},{"PRN":15,"el":18,"az":314,"ss":0,"used":true,"gnssid":0,"svid":15},{"PRN":8,"el":3,"az":37,"ss":0,"used":false,"gnssid":0,"svid":8},{"PRN":5,"el":0,"az":245,"ss":0,"used":false,"gnssid":0,"svid":5},{"PRN":1,"el":17,"az":85,"ss":0,"used":false,"gnssid":0,"svid":1},{"PRN":20,"el":0,"az":287,"ss":19,"used":false,"gnssid":0,"svid":20}]}
$GPGLL,3757.92653,N,12231.94543,W,223251.00,A,A*7F
{"class":"TPV","mode":3,"time":"2016-04-21T22:32:51.000Z","ept":0.005,"lat":37.965442167,"lon":-122.532423833,"alt":9.200,"epx":12.564,"epy":12.670,"epv":60.260,"track":338.5100,"magtrack":0.0000,"speed":0.035,"climb":0.000}
$GPZDA,223251.00,21,04,2016,-00,00*4C
$GPRMC,223252.00,A,3757.92653,N,12231.94543,W,0.032,312.66,210416,0.00,E,A,V*5B
$GPVTG,312.66,T,0.00,M,0.032,N,0.059,K,A*2E
$GPGGA,223252.00,3757.92653,N,12231.94543,W,1,05,1.20,9.2,M,-25.1,M,,*6F
$GPGSA,A,3,07,30,19,11,15,,,,,,,,2.88,1.20,2.62,1*10
$GPGSV,3,1,12,28,70,351,19,30,61,093,28,17,52,181,,13,50,290,,1*66
$GPGSV,3,2,12,07,32,111,29,11,24,068,25,19,22,197,28,15,18,314,,1*63
$GPGSV,3,3,12,08,03,037,,05,00,245,,01,17,085,,20,00,287,19,1*63
{"class":"SKY","xdop":0.84,"ydop":0.84,"vdop":2.62,"tdop":1.27,"hdop":1.20,"gdop":3.08,"pdop":2.88,"satellites":[{"PRN":28,"el":70,"az":351,"ss":19,"used":false,"gnssid":0,"svid":28},{"PRN":30,"el":61,"az":93,"ss":28,"used":true,"gnssid":0,"svid":30},{"PRN":17,"el":52,"az":181,"ss":0,"used":false,"gnssid":0,"svid":17},{"PRN":13,"el":50,"az":290,"ss":0,"used":false,"gnssid":0,"svid":13},{"PRN":7,"el":32,"az":111,"ss":29,"used":true,"gnssid":0,"svid":7},{"PRN":11,"el":24,"az":68,"ss":25,"used":true,"gnssid":0,"svid":11},{"PRN":19,"el":22,"az":197,"ss":28,"used":true,"gnssid":0,"svid":19},{"PRN":15,"el":18,"az":314,"ss":0,"used":true,"gnssid":0,"svid":15},{"PRN":8,"el":3,"az":37,"ss":0,"used":false,"gnssid":0,"svid":8},{"PRN":5,"el":0,"az":245,"ss":0,"used":false,"gnssid":0,"svid":5},{"PRN":1,"el":17,"az":85,"ss":0,"used":false,"gnssid":0,"svid":1},{"PRN":20,"el":0,"az":287,"ss":19,"used":false,"gnssid":0,"svid":20}]}
$GPGLL,3757.92653,N,12231.94543,W,223252.00,A,A*7C
{"class":"TPV","mode":3,"time":"2016-04-21T22:32:52.000Z","ept":0.005,"lat":37.965442167,"lon":-122.532423833,"alt":9.200,"epx":12.564,"epy":12.670,"epv":60.260,"track":312.6600,"magtrack":0.0000,"speed":0.016,"climb":0.000,"eps":25.34}
$GPZDA,223252.00,21,04,2016,-00,00*4F
$GPRMC,223253.00,A,3757.92653,N,12231.94543,W,0.111,310.15,210416,0.00,E,A,V*5C
$GPVTG,310.15,T,0.00,M,0.111,N,0.206,K,A*20
$GPGGA,223253.00,3757.92653,N,12231.94543,W,1,05,1.20,9.2,M,-25.1,M,,*6E
$GPGSA,A,3,07,30,19,11,15,,,,,,,,2.88,1.20,2.62,1*10
$GPGSV,3,1,12,28,70,351,18,30,60,093,28,17,52,181,,13,50,290,,1*66
$GPGSV,3,2,12,07,32,111,30,11,24,068,25,19,22,197,28,15,18,314,,1*6B
$GPGSV,3,3,12,08,03,037,,05,00,245,,01,17,085,,20,00,287,19,1*63
{"class":"SKY","xdop":0.84,"ydop":0.84,"vdop":2.62,"tdop":1.29,"hdop":1.20,"gdop":3.14,"pdop":2.88,"satellites":[{"PRN":28,"el":70,"az":351,"ss":18,"used":false,"gnssid":0,"svid":28},{"PRN":30,"el":60,"az":93,"ss":28,"used":true,"gnssid":0,"svid":30},{"PRN":17,"el":52,"az":181,"ss":0,"used":false,"gnssid":0,"svid":17},{"PRN":13,"el":50,"az":290,"ss":0,"used":false,"gnssid":0,"svid":13},{"PRN":7,"el":32,"az":111,"ss":30,"used":true,"gnssid":0,"svid":7},{"PRN":11,"el":24,"az":68,"ss":25,"used":true,"gnssid":0,"svid":11},{"PRN":19,"el":22,"az":197,"ss":28,"used":true,"gnssid":0,"svid":19},{"PRN":15,"el":18,"az":314,"ss":0,"used":true,"gnssid":0,"svid":15},{"PRN":8,"el":3,"az":37,"ss":0,"used":false,"gnssid":0,"svid":8},{"PRN":5,"el":0,"az":245,"ss":0,"used":false,"gnssid":0,"svid":5},{"PRN":1,"el":17,"az":85,"ss":0,"used":false,"gnssid":0,"svid":1},{"PRN":20,"el":0,"az":287,"ss":19,"used":false,"gnssid":0,"svid":20}]}
$GPGLL,3757.92653,N,12231.94543,W,223253.00,A,A*7D
{"class":"TPV","mode":3,"time":"2016-04-21T22:32:53.000Z","ept":0.005,"lat":37.965442167,"lon":-122.532423833,"alt":9.200,"epx":12.564,"epy":12.670,"epv":60.260,"track":310.1500,"magtrack":0.0000,"speed":0.057,"climb":0.000,"eps":25.34}
$GPZDA,223253.00,21,04,2016,-00,00*4E
$GPRMC,223254.00,A,3757.92653,N,12231.94543,W,0.092,310.38,210416,0.00,E,A,V*5E
$GPVTG,310.38,T,0.00,M,0.092,N,0.171,K,A*26
$GPGGA,223254.00,3757.92653,N,12231.94543,W,1,05,1.20,9.2,M,-25.1,M,,*69
$GPGSA,A,3,07,30,19,11,15,,,,,,,,2.88,1.20,2.62,1*10
$GPGSV,3,1,12,28,70,351,19,30,60,093,29,17,52,181,,13,50,290,,1*66
$GPGSV,3,2,12,07,32,111,30,11,24,068,26,19,22,197,28,15,18,314,,1*68
$GPGSV,3,3,12,08,03,037,,05,00,245,,01,17,085,,20,00,287,19,1*63
{"class":"SKY","xdop":0.84,"ydop":0.84,"vdop":2.62,"tdop":1.29,"hdop":1.20,"gdop":3.14,"pdop":2.88,"satellites":[{"PRN":28,"el":70,"az":351,"ss":19,"used":false,"gnssid":0,"svid":28},{"PRN":30,"el":60,"az":93,"ss":29,"used":true,"gnssid":0,"svid":30},{"PRN":17,"el":52,"az":181,"ss":0,"used":false,"gnssid":0,"svid":17},{"PRN":13,"el":50,"az":290,"ss":0,"used":false,"gnssid":0,"svid":13},{"PRN":7,"el":32,"az":111,"ss":30,"used":true,"gnssid":0,"svid":7},{"PRN":11,"el":24,"az":68,"ss":26,"used":true,"gnssid":0,"svid":11},{"PRN":19,"el":22,"az":197,"ss":28,"used":true,"gnssid":0,"svid":19},{"PRN":15,"el":18,"az":314,"ss":0,"used":true,"gnssid":0,"svid":15},{"PRN":8,"el":3,"az":37,"ss":0,"used":false,"gnssid":0,"svid":8},{"PRN":5,"el":0,"az":245,"ss":0,"used":false,"gnssid":0,"svid":5},{"PRN":1,"el":17,"az":85,"ss":0,"used":false,"gnssid":0,"svid":1},{"PRN":20,"el":0,"az":287,"ss":19,"used":false,"gnssid":0,"svid":20}]}
$GPGLL,3757.92653,N,12231.94543,W,223254.00,A,A*7A
{"class":"TPV","mode":3,"time":"2016-04-21T22:32:54.000Z","ept":0.005,"lat":37.965442167,"lon":-122.532423833,"alt":9.200,"epx":12.636,"epy":12.673,"epv":60.260,"track":310.3800,"magtrack":0.0000,"speed":0.047,"climb":0.000,"eps":25.34}
$GPZDA,223254.00,21,04,2016,-00,00*49
$GPRMC,223255.00,A,3757.92654,N,12231.94543,W,0.010,338.66,210416,0.00,E,A,V*53
$GPVTG,338.66,T,0.00,M,0.010,N,0.018,K,A*23
$GPGGA,223255.00,3757.92654,N,12231.94543,W,1,05,1.20,9.2,M,-25.1,M,,*6F
$GPGSA,A,3,07,30,19,11,15,,,,,,,,2.88,1.20,2.62,1*10
$GPGSV,3,1,12,28,70,351,19,30,60,093,29,17,52,181,,13,50,290,,1*66
$GPGSV,3,2,12,07,32,111,30,11,24,068,26,19,22,197,28,15,18,314,,1*68
$GPGSV,3,3,12,08,03,037,,05,00,245,,01,17,085,,20,00,287,19,1*63
{"class":"SKY","xdop":0.84,"ydop":0.84,"vdop":2.62,"tdop":1.29,"hdop":1.20,"gdop":3.14,"pdop":2.88,"satellites":[{"PRN":28,"el":70,"az":351,"ss":19,"used":false,"gnssid":0,"svid":28},{"PRN":30,"el":60,"az":93,"ss":29,"used":true,"gnssid":0,"svid":30},{"PRN":17,"el":52,"az":181,"ss":0,"used":false,"gnssid":0,"svid":17},{"PRN":13,"el":50,"az":290,"ss":0,"used":false,"gnssid":0,"svid":13},{"PRN":7,"el":32,"az":111,"ss":30,"used":true,"gnssid":0,"svid":7},{"PRN":11,"el":24,"az":68,"ss":26,"used":true,"gnssid":0,"svid":11},{"PRN":19,"el":22,"az":197,"ss":28,"used":true,"gnssid":0,"svid":19},{"PRN":15,"el":18,"az":314,"ss":0,"used":true,"gnssid":0,"svid":15},{"PRN":8,"el":3,"az":37,"ss":0,"used":false,"gnssid":0,"svid":8},{"PRN":5,"el":0,"az":245,"ss":0,"used":false,"gnssid":0,"svid":5},{"PRN":1,"el":17,"az":85,"ss":0,"used":false,"gnssid":0,"svid":1},{"PRN":20,"el":0,"az":287,"ss":19,"used":false,"gnssid":0,"svid":20}]}
$GPGLL,3757.92654,N,12231.94543,W,223255.00,A,A*7C
{"class":"TPV","mode":3,"time":"2016-04-21T22:32:55.000Z","ept":0.005,"lat":37.965442333,"lon":-122.532423833,"alt":9.200,"epx":12.636,"epy":12.673,"epv":60.260,"track":338.6600,"magtrack":0.0000,"speed":0.005,"climb":0.000,"eps":25.35}
$GPZDA,223255.00,21,04,2016,-00,00*48
$GPRMC,223256.00,A,3757.92654,N,12231.94543,W,0.022,151.70,210416,0.00,E,A,V*5B
$GPVTG,151.70,T,0.00,M,0.022,N,0.041,K,A*24
$GPGGA,223256.00,3757.92654,N,12231.94543,W,1,05,1.20,9.2,M,-25.1,M,,*6C
$GPGSA,A,3,07,30,11,15,19,,,,,,,,2.88,1.20,2.62,1*10
$GPGSV,3,1,12,28,70,351,19,30,60,093,29,17,52,181,,13,50,290,,1*66
$GPGSV,3,2,12,07,32,111,30,11,24,068,26,19,22,197,27,15,18,314,,1*67
$GPGSV,3,3,12,08,03,037,,05,00,245,,01,17,085,,20,00,287,19,1*63
{"class":"SKY","xdop":0.84,"ydop":0.84,"vdop":2.62,"tdop":1.29,"hdop":1.20,"gdop":3.14,"pdop":2.88,"satellites":[{"PRN":28,"el":70,"az":351,"ss":19,"used":false,"gnssid":0,"svid":28},{"PRN":30,"el":60,"az":93,"ss":29,"used":true,"gnssid":0,"svid":30},{"PRN":17,"el":52,"az":181,"ss":0,"used":false,"gnssid":0,"svid":17},{"PRN":13,"el":50,"az":290,"ss":0,"used":false,"gnssid":0,"svid":13},{"PRN":7,"el":32,"az":111,"ss":30,"used":true,"gnssid":0,"svid":7},{"PRN":11,"el":24,"az":68,"ss":26,"used":true,"gnssid":0,"svid":11},{"PRN":19,"el":22,"az":197,"ss":27,"used":true,"gnssid":0,"svid":19},{"PRN":15,"el":18,"az":314,"ss":0,"used":true,"gnssid":0,"svid":15},{"PRN":8,"el":3,"az":37,"ss":0,"used":false,"gnssid":0,"svid":8},{"PRN":5,"el":0,"az":245,"ss":0,"used":false,"gnssid":0,"svid":5},{"PRN":1,"el":17,"az":85,"ss":0,"used":false,"gnssid":0,"svid":1},{"PRN":20,"el":0,"az":287,"ss":19,"used":false,"gnssid":0,"svid":20}]}
$GPGLL,3757.92654,N,12231.94543,W,223256.00,A,A*7F
{"class":"TPV","mode":3,"time":"2016-04-21T22:32:56.000Z","ept":0.005,"lat":37.965442333,"lon":-122.532423833,"alt":9.200,"epx":12.636,"epy":12.673,"epv":60.260,"track":151.7000,"magtrack":0.0000,"speed":0.011,"climb":0.000,"eps":25.35}
$GPZDA,223256.00,21,04,2016,-00,00*4B
$GPRMC,223257.00,A,3757.92654,N,12231.94543,W,0.008,127.37,210416,0.00,E,A,V*50
$GPVTG,127.37,T,0.00,M,0.008,N,0.014,K,A*2E
$GPGGA,223257.00,3757.92654,N,12231.94543,W,1,05,1.20,9.2,M,-25.1,M,,*6D
$GPGSA,A,3,07,30,11,19,15,,,,,,,,2.88,1.20,2.62,1*10
$GPGSV,3,1,12,28,70,352,19,30,60,093,29,17,52,181,,13,50,290,,1*65
$GPGSV,3,2,12,07,32,111,30,11,24,068,26,19,22,197,27,15,18,314,,1*67
$GPGSV,3,3,12,08,03,037,,05,00,245,,01,17,085,,20,00,287,18,1*62
{"class":"SKY","xdop":0.84,"ydop":0.84,"vdop":2.62,"tdop":1.29,"hdop":1.20,"gdop":3.14,"pdop":2.88,"satellites":[{"PRN":28,"el":70,"az":352,"ss":19,"used":false,"gnssid":0,"svid":28},{"PRN":30,"el":60,"az":93,"ss":29,"used":true,"gnssid":0,"svid":30},{"PRN":17,"el":52,"az":181,"ss":0,"used":false,"gnssid":0,"svid":17},{"PRN":13,"el":50,"az":290,"ss":0,"used":false,"gnssid":0,"svid":13},{"PRN":7,"el":32,"az":111,"ss":30,"used":true,"gnssid":0,"svid":7},{"PRN":11,"el":24,"az":68,"ss":26,"used":true,"gnssid":0,"svid":11},{"PRN":19,"el":22,"az":197,"ss":27,"used":true,"gnssid":0,"svid":19},{"PRN":15,"el":18,"az":314,"ss":0,"used":true,"gnssid":0,"svid":15},{"PRN":8,"el":3,"az":37,"ss":0,"used":false,"gnssid":0,"svid":8},{"PRN":5,"el":0,"az":245,"ss":0,"used":false,"gnssid":0,"svid":5},{"PRN":1,"el":17,"az":85,"ss":0,"used":false,"gnssid":0,"svid":1},{"PRN":20,"el":0,"az":287,"ss":18,"used":false,"gnssid":0,"svid":20}]}
$GPGLL,3757.92654,N,12231.94543,W,223257.00,A,A*7E
{"class":"TPV","mode":3,"time":"2016-04-21T22:32:57.000Z","ept":0.005,"lat":37.965442333,"lon":-122.532423833,"alt":9.200,"epx":12.636,"epy":12.673,"epv":60.260,"track":127.3700,"magtrack":0.0000,"speed":0.004,"climb":0.000,"eps":25.35}
$GPZDA,223257.00,21,04,2016,-00,00*4A
$GPRMC,223258.00,A,3757.92654,N,12231.94543,W,0.102,142.64,210416,0.00,E,A,V*51
$GPVTG,142.64,T,0.00,M,0.102,N,0.189,K,A*25
$GPGGA,223258.00,3757.92654,N,12231.94543,W,1,05,1.20,9.2,M,-25.1,M,,*62
$GPGSA,A,3,07,30,11,19,15,,,,,,,,2.88,1.20,2.62,1*10
$GPGSV,3,1,12,28,70,352,20,30,60,093,29,17,52,181,,13,50,290,,1*6F
$GPGSV,3,2,12,07,32,111,30,11,24,068,26,19,22,197,27,15,18,314,,1*67
$GPGSV,3,3,12,08,03,037,,05,00,245,,01,17,085,,20,00,287,,1*6B
{"class":"SKY","xdop":0.84,"ydop":0.84,"vdop":2.62,"tdop":1.29,"hdop":1.20,"gdop":3.14,"pdop":2.88,"satellites":[{"PRN":28,"el":70,"az":352,"ss":20,"used":false,"gnssid":0,"svid":28},{"PRN":30,"el":60,"az":93,"ss":29,"used":true,"gnssid":0,"svid":30},{"PRN":17,"el":52,"az":181,"ss":0,"used":false,"gnssid":0,"svid":17},{"PRN":13,"el":50,"az":290,"ss":0,"used":false,"gnssid":0,"svid":13},{"PRN":7,"el":32,"az":111,"ss":30,"used":true,"gnssid":0,"svid":7},{"PRN":11,"el":24,"az":68,"ss":26,"used":true,"gnssid":0,"svid":11},{"PRN":19,"el":22,"az":197,"ss":27,"used":true,"gnssid":0,"svid":19},{"PRN":15,"el":18,"az":314,"ss":0,"used":true,"gnssid":0,"svid":15},{"PRN":8,"el":3,"az":37,"ss":0,"used":false,"gnssid":0,"svid":8},{"PRN":5,"el":0,"az":245,"ss":0,"used":false,"gnssid":0,"svid":5},{"PRN":1,"el":17,"az":85,"ss":0,"used":false,"gnssid":0,"svid":1},{"PRN":20,"el":0,"az":287,"ss":0,"used":false,"gnssid":0,"svid":20}]}
$GPGLL,3757.92654,N,12231.94543,W,223258.00,A,A*71
{"class":"TPV","mode":3,"time":"2016-04-21T22:32:58.000Z","ept":0.005,"lat":37.965442333,"lon":-122.532423833,"alt":9.200,"epx":12.636,"epy":12.673,"epv":60.260,"track":142.6400,"magtrack":0.0000,"speed":0.052,"climb":0.000,"eps":25.35}
$GPZDA,223258.00,21,04,2016,-00,00*45
$GPRMC,223259.00,A,3757.92654,N,12231.94543,W,0.083,149.93,210416,0.00,E,A,V*5B
$GPVTG,149.93,T,0.00,M,0.083,N,0.154,K,A*2E
$GPGGA,223259.00,3757.92654,N,12231.94543,W,1,05,1.20,9.2,M,-25.1,M,,*63
$GPGSA,A,3,07,30,11,19,15,,,,,,,,2.88,1.20,2.62,1*10
$GPGSV,3,1,12,28,70,352,20,30,60,093,29,17,52,181,,13,50,290,,1*6F
$GPGSV,3,2,12,07,32,111,30,11,24,068,26,19,22,197,27,15,18,314,,1*67
$GPGSV,3,3,12,08,03,037,,05,00,245,,01,17,085,,20,00,287,,1*6B
{"class":"SKY","xdop":0.84,"ydop":0.84,"vdop":2.62,"tdop":1.29,"hdop":1.20,"gdop":3.14,"pdop":2.88,"satellites":[{"PRN":28,"el":70,"az":352,"ss":20,"used":false,"gnssid":0,"svid":28},{"PRN":30,"el":60,"az":93,"ss":29,"used":true,"gnssid":0,"svid":30},{"PRN":17,"el":52,"az":181,"ss":0,"used":false,"gnssid":0,"svid":17},{"PRN":13,"el":50,"az":290,"ss":0,"used":false,"gnssid":0,"svid":13},{"PRN":7,"el":32,"az":111,"ss":30,"used":true,"gnssid":0,"svid":7},{"PRN":11,"el":24,"az":68,"ss":26,"used":true,"gnssid":0,"svid":11},{"PRN":19,"el":22,"az":197,"ss":27,"used":true,"gnssid":0,"svid":19},{"PRN":15,"el":18,"az":314,"ss":0,"used":true,"gnssid":0,"svid":15},{"PRN":8,"el":3,"az":37,"ss":0,"used":false,"gnssid":0,"svid":8},{"PRN":5,"el":0,"az":245,"ss":0,"used":false,"gnssid":0,"svid":5},{"PRN":1,"el":17,"az":85,"ss":0,"used":false,"gnssid":0,"svid":1},{"PRN":20,"el":0,"az":287,"ss":0,"used":false,"gnssid":0,"svid":20}]}
$GPGLL,3757.92654,N,12231.94543,W,223259.00,A,A*70
{"class":"TPV","mode":3,"time":"2016-04-21T22:32:59.000Z","ept":0.005,"lat":37.965442333,"lon":-122.532423833,"alt":9.200,"epx":12.636,"epy":12.673,"epv":60.260,"track":149.9300,"magtrack":0.0000,"speed":0.043,"climb":0.000,"eps":25.35}
$GPZDA,223259.00,21,04,2016,-00,00*44
$GPRMC,223300.00,A,3757.92654,N,12231.94543,W,0.012,219.72,210416,0.00,E,A,V*57
$GPVTG,219.72,T,0.00,M,0.012,N,0.022,K,A*2F
$GPGGA,223300.00,3757.92654,N,12231.94543,W,1,05,1.20,9.2,M,-25.1,M,,*6E
$GPGSA,A,3,07,30,11,19,15,,,,,,,,2.88,1.20,2.62,1*10
$GPGSV,3,1,12,28,70,352,20,30,60,093,29,17,52,181,,13,50,290,,1*6F
$GPGSV,3,2,12,07,32,111,31,11,24,068,27,19,22,197,27,15,18,314,,1*67
$GPGSV,3,3,12,08,03,037,,05,00,245,,01,17,085,,20,00,287,,1*6B
{"class":"SKY","xdop":0.84,"ydop":0.84,"vdop":2.62,"tdop":1.29,"hdop":1.20,"gdop":3.14,"pdop":2.88,"satellites":[{"PRN":28,"el":70,"az":352,"ss":20,"used":false,"gnssid":0,"svid":28},{"PRN":30,"el":60,"az":93,"ss":29,"used":true,"gnssid":0,"svid":30},{"PRN":17,"el":52,"az":181,"ss":0,"used":false,"gnssid":0,"svid":17},{"PRN":13,"el":50,"az":290,"ss":0,"used":false,"gnssid":0,"svid":13},{"PRN":7,"el":32,"az":111,"ss":31,"used":true,"gnssid":0,"svid":7},{"PRN":11,"el":24,"az":68,"ss":27,"used":true,"gnssid":0,"svid":11},{"PRN":19,"el":22,"az":197,"ss":27,"used":true,"gnssid":0,"svid":19},{"PRN":15,"el":18,"az":314,"ss":0,"used":true,"gnssid":0,"svid":15},{"PRN":8,"el":3,"az":37,"ss":0,"used":false,"gnssid":0,"svid":8},{"PRN":5,"el":0,"az":245,"ss":0,"used":false,"gnssid":0,"svid":5},{"PRN":1,"el":17,"az":85,"ss":0,"used":false,"gnssid":0,"svid":1},{"PRN":20,"el":0,"az":287,"ss":0,"used":false,"gnssid":0,"svid":20}]}
$GPGLL,3757.92654,N,12231.94543,W,223300.00,A,A*7D
{"class":"TPV","mode":3,"time":"2016-04-21T22:33:00.000Z","ept":0.005,"lat":37.965442333,"lon":-122.532423833,"alt":9.200,"epx":12.636,"epy":12.673,"epv":60.260,"track":219.7200,"magtrack":0.0000,"speed":0.006,"climb":0.000,"eps":25.35}
$GPZDA,223300.00,21,04,2016,-00,00*49
$GPRMC,223301.00,A,3757.92655,N,12231.94543,W,0.024,306.04,210416,0.00,E,A,V*5C
$GPVTG,306.04,T,0.00,M,0.024,N,0.044,K,A*24
$GPGGA,223301.00,3757.92655,N,12231.94543,W,1,05,1.20,9.2,M,-25.1,M,,*6E
$GPGSA,A,3,07,30,11,19,15,,,,,,,,2.88,1.20,2.62,1*10
$GPGSV,3,1,12,28,70,352,20,30,60,093,29,17,52,181,,13,50,290,,1*6F
$GPGSV,3,2,12,07,32,111,31,11,24,068,27,19,22,197,27,15,18,314,,1*67
$GPGSV,3,3,12,08,03,037,,05,00,245,,01,17,085,,20,00,287,,1*6B
{"class":"SKY","xdop":0.84,"ydop":0.84,"vdop":2.62,"tdop":1.29,"hdop":1.20,"gdop":3.14,"pdop":2.88,"satellites":[{"PRN":28,"el":70,"az":352,"ss":20,"used":false,"gnssid":0,"svid":28},{"PRN":30,"el":60,"az":93,"ss":29,"used":true,"gnssid":0,"svid":30},{"PRN":17,"el":52,"az":181,"ss":0,"used":false,"gnssid":0,"svid":17},{"PRN":13,"el":50,"az":290,"ss":0,"used":false,"gnssid":0,"svid":13},{"PRN":7,"el":32,"az":111,"ss":31,"used":true,"gnssid":0,"svid":7},{"PRN":11,"el":24,"az":68,"ss":27,"used":true,"gnssid":0,"svid":11},{"PRN":19,"el":22,"az":197,"ss":27,"used":true,"gnssid":0,"svid":19},{"PRN":15,"el":18,"az":314,"ss":0,"used":true,"gnssid":0,"svid":15},{"PRN":8,"el":3,"az":37,"ss":0,"used":false,"gnssid":0,"svid":8},{"PRN":5,"el":0,"az":245,"ss":0,"used":false,"gnssid":0,"svid":5},{"PRN":1,"el":17,"az":85,"ss":0,"used":false,"gnssid":0,"svid":1},{"PRN":20,"el":0,"az":287,"ss":0,"used":false,"gnssid":0,"svid":20}]}
$GPGLL,3757.92655,N,12231.94543,W,223301.00,A,A*7D
{"class":"TPV","mode":3,"time":"2016-04-21T22:33:01.000Z","ept":0.005,"lat":37.965442500,"lon":-122.532423833,"alt":9.200,"epx":12.636,"epy":12.673,"epv":60.260,"track":306.0400,"magtrack":0.0000,"speed":0.012,"climb":0.000,"eps":25.35}
$GPZDA,223301.00,21,04,2016,-00,00*48
$GPRMC,223302.00,A,3757.92655,N,12231.94544,W,0.003,227.84,210416,0.00,E,A,V*57
$GPVTG,227.84,T,0.00,M,0.003,N,0.006,K,A*2D
$GPGGA,223302.00,3757.92655,N,12231.94544,W,1,05,1.20,9.2,M,-25.1,M,,*6A
$GPGSA,A,3,07,30,11,19,15,,,,,,,,2.88,1.20,2.62,1*10
$GPGSV,3,1,12,28,70,352,20,30,60,093,29,17,52,181,,13,50,290,,1*6F
$GPGSV,3,2,12,07,32,111,31,11,24,068,27,19,22,197,27,15,18,314,,1*67
$GPGSV,3,3,12,08,03,037,,05,00,245,,01,17,085,,20,00,287,,1*6B
{"class":"SKY","xdop":0.84,"ydop":0.84,"vdop":2.62,"tdop":1.29,"hdop":1.20,"gdop":3.14,"pdop":2.88,"satellites":[{"PRN":28,"el":70,"az":352,"ss":20,"used":false,"gnssid":0,"svid":28},{"PRN":30,"el":60,"az":93,"ss":29,"used":true,"gnssid":0,"svid":30},{"PRN":17,"el":52,"az":181,"ss":0,"used":false,"gnssid":0,"svid":17},{"PRN":13,"el":50,"az":290,"ss":0,"used":false,"gnssid":0,"svid":13},{"PRN":7,"el":32,"az":111,"ss":31,"used":true,"gnssid":0,"svid":7},{"PRN":11,"el":24,"az":68,"ss":27,"used":true,"gnssid":0,"svid":11},{"PRN":19,"el":22,"az":197,"ss":27,"used":true,"gnssid":0,"svid":19},{"PRN":15,"el":18,"az":314,"ss":0,"used":true,"gnssid":0,"svid":15},{"PRN":8,"el":3,"az":37,"ss":0,"used":false,"gnssid":0,"svid":8},{"PRN":5,"el":0,"az":245,"ss":0,"used":false,"gnssid":0,"svid":5},{"PRN":1,"el":17,"az":85,"ss":0,"used":false,"gnssid":0,"svid":1},{"PRN":20,"el":0,"az":287,"ss":0,"used":false,"gnssid":0,"svid":20}]}
$GPGLL,3757.92655,N,12231.94544,W,223302.00,A,A*79
{"class":"TPV","mode":3,"time":"2016-04-21T22:33:02.000Z","ept":0.005,"lat":37.965442500,"lon":-122.532424000,"alt":9.200,"epx":12.636,"epy":12.673,"epv":60.260,"track":227.8400,"magtrack":0.0000,"speed":0.002,"climb":0.000,"eps":25.35}
$GPZDA,223302.00,21,04,2016,-00,00*4B
$GPRMC,223303.00,A,3757.92655,N,12231.94544,W,0.019,227.48,210416,0.00,E,A,V*5D
$GPVTG,227.48,T,0.00,M,0.019,N,0.035,K,A*26
$GPGGA,223303.00,3757.92655,N,12231.94544,W,1,05,1.20,9.2,M,-25.1,M,,*6B
$GPGSA,A,3,07,30,11,19,15,,,,,,,,2.88,1.20,2.62,1*10
$GPGSV,3,1,12,28,70,352,20,30,60,093,29,17,52,181,,13,50,290,,1*6F
$GPGSV,3,2,12,07,32,111,31,11,24,068,27,19,22,197,27,15,18,314,,1*67
$GPGSV,3,3,12,08,03,037,,05,00,245,,01,17,085,,20,00,287,,1*6B
{"class":"SKY","xdop":0.84,"ydop":0.84,"vdop":2.62,"tdop":1.29,"hdop":1.20,"gdop":3.14,"pdop":2.88,"satellites":[{"PRN":28,"el":70,"az":352,"ss":20,"used":false,"gnssid":0,"svid":28},{"PRN":30,"el":60,"az":93,"ss":29,"used":true,"gnssid":0,"svid":30},{"PRN":17,"el":52,"az":181,"ss":0,"used":false,"gnssid":0,"svid":17},{"PRN":13,"el":50,"az":290,"ss":0,"used":false,"gnssid":0,"svid":13},{"PRN":7,"el":32,"az":111,"ss":31,"used":true,"gnssid":0,"svid":7},{"PRN":11,"el":24,"az":68,"ss":27,"used":true,"gnssid":0,"svid":11},{"PRN":19,"el":22,"az":197,"ss":27,"used":true,"gnssid":0,"svid":19},{"PRN":15,"el":18,"az":314,"ss":0,"used":true,"gnssid":0,"svid":15},{"PRN":8,"el":3,"az":37,"ss":0,"used":false,"gnssid":0,"svid":8},{"PRN":5,"el":0,"az":245,"ss":0,"used":false,"gnssid":0,"svid":5},{"PRN":1,"el":17,"az":85,"ss":0,"used":false,"gnssid":0,"svid":1},{"PRN":20,"el":0,"az":287,"ss":0,"used":false,"gnssid":0,"svid":20}]}
$GPGLL,3757.92655,N,12231.94544,W,223303.00,A,A*78
{"class":"TPV","mode":3,"time":"2016-04-21T22:33:03.000Z","ept":0.005,"lat":37.965442500,"lon":-122.532424000,"alt":9.200,"epx":12.636,"epy":12.673,"epv":60.260,"track":227.4800,"magtrack":0.0000,"speed":0.010,"climb":0.000,"eps":25.35}
$GPZDA,223303.00,21,04,2016,-00,00*4A
$GPRMC,223304.00,A,3757.92655,N,12231.94544,W,0.030,305.61,210416,0.00,E,A,V*5B
$GPVTG,305.61,T,0.00,M,0.030,N,0.055,K,A*21
$GPGGA,223304.00,3757.92655,N,12231.94544,W,1,05,1.20,9.2,M,-25.1,M,,*6C
$GPGSA,A,3,07,30,11,19,15,,,,,,,,2.88,1.20,2.62,1*10
$GPGSV,3,1,12,28,70,352,20,30,60,093,29,17,52,181,,13,50,290,,1*6F
$GPGSV,3,2,12,07,32,111,31,11,24,068,27,19,22,197,28,15,18,314,,1*68
$GPGSV,3,3,12,08,03,037,,05,00,245,,01,17,085,,20,00,287,,1*6B
{"class":"SKY","xdop":0.84,"ydop":0.84,"vdop":2.62,"tdop":1.29,"hdop":1.20,"gdop":3.14,"pdop":2.88,"satellites":[{"PRN":28,"el":70,"az":352,"ss":20,"used":false,"gnssid":0,"svid":28},{"PRN":30,"el":60,"az":93,"ss":29,"used":true,"gnssid":0,"svid":30},{"PRN":17,"el":52,"az":181,"ss":0,"used":false,"gnssid":0,"svid":17},{"PRN":13,"el":50,"az":290,"ss":0,"used":false,"gnssid":0,"svid":13},{"PRN":7,"el":32,"az":111,"ss":31,"used":true,"gnssid":0,"svid":7},{"PRN":11,"el":24,"az":68,"ss":27,"used":true,"gnssid":0,"svid":11},{"PRN":19,"el":22,"az":197,"ss":28,"used":true,"gnssid":0,"svid":19},{"PRN":15,"el":18,"az":314,"ss":0,"used":true,"gnssid":0,"svid":15},{"PRN":8,"el":3,"az":37,"ss":0,"used":false,"gnssid":0,"svid":8},{"PRN":5,"el":0,"az":245,"ss":0,"used":false,"gnssid":0,"svid":5},{"PRN":1,"el":17,"az":85,"ss":0,"used":false,"gnssid":0,"svid":1},{"PRN":20,"el":0,"az":287,"ss":0,"used":false,"gnssid":0,"svid":20}]}
$GPGLL,3757.92655,N,12231.94544,W,223304.00,A,A*7F
{"class":"TPV","mode":3,"time":"2016-04-21T22:33:04.000Z","ept":0.005,"lat":37.965442500,"lon":-122.532424000,"alt":9.200,"epx":12.636,"epy":12.673,"epv":60.260,"track":305.6100,"magtrack":0.0000,"speed":0.015,"climb":0.000,"eps":25.35}
$GPZDA,223304.00,21,04,2016,-00,00*4D
$GPRMC,223305.00,A,3757.92655,N,12231.94544,W,0.007,308.76,210416,0.00,E,A,V*55
$GPVTG,308.76,T,0.00,M,0.007,N,0.013,K,A*2C
$GPGGA,223305.00,3757.92655,N,12231.94544,W,1,05,1.20,9.2,M,-25.1,M,,*6D
$GPGSA,A,3,07,30,11,19,15,,,,,,,,2.88,1.20,2.62,1*10
$GPGSV,3,1,12,28,70,352,20,30,60,093,29,17,52,181,,13,50,290,,1*6F
$GPGSV,3,2,12,07,32,111,32,11,24,068,27,19,22,197,28,15,18,314,,1*6B
$GPGSV,3,3,12,08,03,037,,05,00,245,,01,17,085,,20,00,287,,1*6B
{"class":"SKY","xdop":0.84,"ydop":0.84,"vdop":2.62,"tdop":1.29,"hdop":1.20,"gdop":3.14,"pdop":2.88,"satellites":[{"PRN":28,"el":70,"az":352,"ss":20,"used":false,"gnssid":0,"svid":28},{"PRN":30,"el":60,"az":93,"ss":29,"used":true,"gnssid":0,"svid":30},{"PRN":17,"el":52,"az":181,"ss":0,"used":false,"gnssid":0,"svid":17},{"PRN":13,"el":50,"az":290,"ss":0,"used":false,"gnssid":0,"svid":13},{"PRN":7,"el":32,"az":111,"ss":32,"used":true,"gnssid":0,"svid":7},{"PRN":11,"el":24,"az":68,"ss":27,"used":true,"gnssid":0,"svid":11},{"PRN":19,"el":22,"az":197,"ss":28,"used":true,"gnssid":0,"svid":19},{"PRN":15,"el":18,"az":314,"ss":0,"used":true,"gnssid":0,"svid":15},{"PRN":8,"el":3,"az":37,"ss":0,"used":false,"gnssid":0,"svid":8},{"PRN":5,"el":0,"az":245,"ss":0,"used":false,"gnssid":0,"svid":5},{"PRN":1,"el":17,"az":85,"ss":0,"used":false,"gnssid":0,"svid":1},{"PRN":20,"el":0,"az":287,"ss":0,"used":false,"gnssid":0,"svid":20}]}
$GPGLL,3757.92655,N,12231.94544,W,223305.00,A,A*7E
{"class":"TPV","mode":3,"time":"2016-04-21T22:33:05.000Z","ept":0.005,"lat":37.965442500,"lon":-122.532424000,"alt":9.200,"epx":12.636,"epy":12.673,"epv":60.260,"track":308.7600,"magtrack":0.0000,"speed":0.004,"climb":0.000,"eps":25.35}
$GPZDA,223305.00,21,04,2016,-00,00*4C
$GPRMC,223306.00,A,3757.92655,N,12231.94545,W,0.036,222.46,210416,0.00,E,A,V*5F
$GPVTG,222.46,T,0.00,M,0.036,N,0.067,K,A*27
$GPGGA,223306.00,3757.92655,N,12231.94545,W,1,05,1.20,9.2,M,-25.1,M,,*6F
$GPGSA,A,3,07,30,19,11,15,,,,,,,,2.88,1.20,2.62,1*10
$GPGSV,3,1,12,28,70,352,20,30,60,093,29,17,52,181,,13,50,290,,1*6F
$GPGSV,3,2,12,07,32,111,32,11,24,068,27,19,22,197,28,15,19,314,,1*6A
$GPGSV,3,3,12,08,03,037,,05,00,245,,01,17,085,,20,00,287,,1*6B
{"class":"SKY","xdop":0.83,"ydop":0.84,"vdop":2.62,"tdop":1.30,"hdop":1.20,"gdop":3.15,"pdop":2.88,"satellites":[{"PRN":28,"el":70,"az":352,"ss":20,"used":false,"gnssid":0,"svid":28},{"PRN":30,"el":60,"az":93,"ss":29,"used":true,"gnssid":0,"svid":30},{"PRN":17,"el":52,"az":181,"ss":0,"used":false,"gnssid":0,"svid":17},{"PRN":13,"el":50,"az":290,"ss":0,"used":false,"gnssid":0,"svid":13},{"PRN":7,"el":32,"az":111,"ss":32,"used":true,"gnssid":0,"svid":7},{"PRN":11,"el":24,"az":68,"ss":27,"used":true,"gnssid":0,"svid":11},{"PRN":19,"el":22,"az":197,"ss":28,"used":true,"gnssid":0,"svid":19},{"PRN":15,"el":19,"az":314,"ss":0,"used":true,"gnssid":0,"svid":15},{"PRN":8,"el":3,"az":37,"ss":0,"used":false,"gnssid":0,"svid":8},{"PRN":5,"el":0,"az":245,"ss":0,"used":false,"gnssid":0,"svid":5},{"PRN":1,"el":17,"az":85,"ss":0,"used":false,"gnssid":0,"svid":1},{"PRN":20,"el":0,"az":287,"ss":0,"used":false,"gnssid":0,"svid":20}]}
$GPGLL,3757.92655,N,12231.94545,W,223306.00,A,A*7C
{"class":"TPV","mode":3,"time":"2016-04-21T22:33:06.000Z","ept":0.005,"lat":37.965442500,"lon":-122.532424167,"alt":9.200,"epx":12.636,"epy":12.673,"epv":60.260,"track":222.4600,"magtrack":0.0000,"speed":0.019,"climb":0.000,"eps":25.35}
$GPZDA,223306.00,21,04,2016,-00,00*4F
$GPRMC,223307.00,A,3757.92655,N,12231.94545,W,0.035,198.47,210416,0.00,E,A,V*5E
$GPVTG,198.47,T,0.00,M,0.035,N,0.064,K,A*24
$GPGGA,223307.00,3757.92655,N,12231.94545,W,1,05,1.20,9.2,M,-25.1,M,,*6E
$GPGSA,A,3,07,30,11,19,15,,,,,,,,2.89,1.20,2.62,1*11
$GPGSV,3,1,12,28,70,352,20,30,60,093,29,17,52,181,,13,50,290,,1*6F
$GPGSV,3,2,12,07,32,111,32,11,24,068,27,19,22,197,28,15,19,314,,1*6A
$GPGSV,3,3,12,08,03,037,,05,00,245,,01,17,085,,20,00,287,,1*6B
{"class":"SKY","xdop":0.83,"ydop":0.84,"vdop":2.62,"tdop":1.30,"hdop":1.20,"gdop":3.15,"pdop":2.89,"satellites":[{"PRN":28,"el":70,"az":352,"ss":20,"used":false,"gnssid":0,"svid":28},{"PRN":30,"el":60,"az":93,"ss":29,"used":true,"gnssid":0,"svid":30},{"PRN":17,"el":52,"az":181,"ss":0,"used":false,"gnssid":0,"svid":17},{"PRN":13,"el":50,"az":290,"ss":0,"used":false,"gnssid":0,"svid":13},{"PRN":7,"el":32,"az":111,"ss":32,"used":true,"gnssid":0,"svid":7},{"PRN":11,"el":24,"az":68,"ss":27,"used":true,"gnssid":0,"svid":11},{"PRN":19,"el":22,"az":197,"ss":28,"used":true,"gnssid":0,"svid":19},{"PRN":15,"el":19,"az":314,"ss":0,"used":true,"gnssid":0,"svid":15},{"PRN":8,"el":3,"az":37,"ss":0,"used":false,"gnssid":0,"svid":8},{"PRN":5,"el":0,"az":245,"ss":0,"used":false,"gnssid":0,"svid":5},{"PRN":1,"el":17,"az":85,"ss":0,"used":false,"gnssid":0,"svid":1},{"PRN":20,"el":0,"az":287,"ss":0,"used":false,"gnssid":0,"svid":20}]}
$GPGLL,3757.92655,N,12231.94545,W,223307.00,A,A*7D
{"class":"TPV","mode":3,"time":"2016-04-21T22:33:07.000Z","ept":0.005,"lat":37.965442500,"lon":-122.532424167,"alt":9.200,"epx":12.520,"epy":12.669,"epv":60.260,"track":198.4700,"magtrack":0.0000,"speed":0.018,"climb":0.000,"eps":25.34}
$GPZDA,223307.00,21,04,2016,-00,00*4E
$GPRMC,223308.00,A,3757.92655,N,12231.94545,W,0.028,162.50,210416,0.00,E,A,V*5E
$GPVTG,162.50,T,0.00,M,0.028,N,0.052,K,A*2E
$GPGGA,223308.00,3757.92655,N,12231.94545,W,1,05,1.20,9.2,M,-25.1,M,,*61
$GPGSA,A,3,07,30,19,11,15,,,,,,,,2.89,1.20,2.63,1*10
$GPGSV,3,1,12,28,70,352,21,30,60,093,29,17,52,181,,13,50,290,,1*6E
$GPGSV,3,2,12,07,32,111,32,11,24,068,26,19,22,197,27,15,19,314,,1*64
$GPGSV,3,3,12,08,03,037,,05,00,245,,01,17,085,,20,00,287,,1*6B
{"class":"SKY","xdop":0.83,"ydop":0.84,"vdop":2.63,"tdop":1.30,"hdop":1.20,"gdop":3.15,"pdop":2.89,"satellites":[{"PRN":28,"el":70,"az":352,"ss":21,"used":false,"gnssid":0,"svid":28},{"PRN":30,"el":60,"az":93,"ss":29,"used":true,"gnssid":0,"svid":30},{"PRN":17,"el":52,"az":181,"ss":0,"used":false,"gnssid":0,"svid":17},{"PRN":13,"el":50,"az":290,"ss":0,"used":false,"gnssid":0,"svid":13},{"PRN":7,"el":32,"az":111,"ss":32,"used":true,"gnssid":0,"svid":7},{"PRN":11,"el":24,"az":68,"ss":26,"used":true,"gnssid":0,"svid":11},{"PRN":19,"el":22,"az":197,"ss":27,"used":true,"gnssid":0,"svid":19},{"PRN":15,"el":19,"az":314,"ss":0,"used":true,"gnssid":0,"svid":15},{"PRN":8,"el":3,"az":37,"ss":0,"used":false,"gnssid":0,"svid":8},{"PRN":5,"el":0,"az":245,"ss":0,"used":false,"gnssid":0,"svid":5},{"PRN":1,"el":17,"az":85,"ss":0,"used":false,"gnssid":0,"svid":1},{"PRN":20,"el":0,"az":287,"ss":0,"used":false,"gnssid":0,"svid":20}]}
$GPGLL,3757.92655,N,12231.94545,W,223308.00,A,A*72
{"class":"TPV","mode":3,"time":"2016-04-21T22:33:08.000Z","ept":0.005,"lat":37.965442500,"lon":-122.532424167,"alt":9.200,"epx":12.520,"epy":12.669,"epv":60.260,"track":162.5000,"magtrack":0.0000,"speed":0.014,"climb":0.000,"eps":25.34}
$GPZDA,223308.00,21,04,2016,-00,00*41
$GPRMC,223309.00,A,3757.92655,N,12231.94546,W,0.091,129.69,210416,0.00,E,A,V*5B
$GPVTG,129.69,T,0.00,M,0.091,N,0.169,K,A*20
$GPGGA,223309.00,3757.92655,N,12231.94546,W,1,05,1.20,9.2,M,-25.1,M,,*63
$GPGSA,A,3,07,30,11,19,15,,,,,,,,2.89,1.20,2.63,1*10
$GPGSV,3,1,12,28,70,352,21,30,60,093,29,17,52,181,,13,50,290,,1*6E
$GPGSV,3,2,12,07,32,111,32,11,24,068,26,19,22,197,27,15,19,314,,1*64
$GPGSV,3,3,12,08,03,037,,05,00,245,,01,17,085,,20,00,287,,1*6B
{"class":"SKY","xdop":0.83,"ydop":0.84,"vdop":2.63,"tdop":1.30,"hdop":1.20,"gdop":3.15,"pdop":2.89,"satellites":[{"PRN":28,"el":70,"az":352,"ss":21,"used":false,"gnssid":0,"svid":28},{"PRN":30,"el":60,"az":93,"ss":29,"used":true,"gnssid":0,"svid":30},{"PRN":17,"el":52,"az":181,"ss":0,"used":false,"gnssid":0,"svid":17},{"PRN":13,"el":50,"az":290,"ss":0,"used":false,"gnssid":0,"svid":13},{"PRN":7,"el":32,"az":111,"ss":32,"used":true,"gnssid":0,"svid":7},{"PRN":11,"el":24,"az":68,"ss":26,"used":true,"gnssid":0,"svid":11},{"PRN":19,"el":22,"az":197,"ss":27,"used":true,"gnssid":0,"svid":19},{"PRN":15,"el":19,"az":314,"ss":0,"used":true,"gnssid":0,"svid":15},{"PRN":8,"el":3,"az":37,"ss":0,"used":false,"gnssid":0,"svid":8},{"PRN":5,"el":0,"az":245,"ss":0,"used":false,"gnssid":0,"svid":5},{"PRN":1,"el":17,"az":85,"ss":0,"used":false,"gnssid":0,"svid":1},{"PRN":20,"el":0,"az":287,"ss":0,"used":false,"gnssid":0,"svid":20}]}
$GPGLL,3757.92655,N,12231.94546,W,223309.00,A,A*70
{"class":"TPV","mode":3,"time":"2016-04-21T22:33:09.000Z","ept":0.005,"lat":37.965442500,"lon":-122.532424333,"alt":9.200,"epx":12.520,"epy":12.669,"epv":60.490,"track":129.6900,"magtrack":0.0000,"speed":0.047,"climb":0.000,"eps":25.34}
$GPZDA,223309.00,21,04,2016,-00,00*40
$GPRMC,223310.00,A,3757.92655,N,12231.94546,W,0.138,124.71,210416,0.00,E,A,V*55
$GPVTG,124.71,T,0.00,M,0.138,N,0.256,K,A*29
$GPGGA,223310.00,3757.92655,N,12231.94546,W,1,05,1.20,9.2,M,-25.1,M,,*6B
$GPGSA,A,3,07,30,19,11,15,,,,,,,,2.89,1.20,2.63,1*10
$GPGSV,3,1,12,28,70,352,21,30,60,093,29,17,52,181,,13,50,290,,1*6E
$GPGSV,3,2,12,07,32,111,32,11,24,068,26,19,22,197,27,15,19,314,,1*64
$GPGSV,3,3,12,08,03,037,,05,00,245,,01,17,085,,20,00,287,,1*6B
{"class":"SKY","xdop":0.83,"ydop":0.84,"vdop":2.63,"tdop":1.30,"hdop":1.20,"gdop":3.15,"pdop":2.89,"satellites":[{"PRN":28,"el":70,"az":352,"ss":21,"used":false,"gnssid":0,"svid":28},{"PRN":30,"el":60,"az":93,"ss":29,"used":true,"gnssid":0,"svid":30},{"PRN":17,"el":52,"az":181,"ss":0,"used":false,"gnssid":0,"svid":17},{"PRN":13,"el":50,"az":290,"ss":0,"used":false,"gnssid":0,"svid":13},{"PRN":7,"el":32,"az":111,"ss":32,"used":true,"gnssid":0,"svid":7},{"PRN":11,"el":24,"az":68,"ss":26,"used":true,"gnssid":0,"svid":11},{"PRN":19,"el":22,"az":197,"ss":27,"used":true,"gnssid":0,"svid":19},{"PRN":15,"el":19,"az":314,"ss":0,"used":true,"gnssid":0,"svid":15},{"PRN":8,"el":3,"az":37,"ss":0,"used":false,"gnssid":0,"svid":8},{"PRN":5,"el":0,"az":245,"ss":0,"used":false,"gnssid":0,"svid":5},{"PRN":1,"el":17,"az":85,"ss":0,"used":false,"gnssid":0,"svid":1},{"PRN":20,"el":0,"az":287,"ss":0,"used":false,"gnssid":0,"svid":20}]}
$GPGLL,3757.92655,N,12231.94546,W,223310.00,A,A*78
{"class":"TPV","mode":3,"time":"2016-04-21T22:33:10.000Z","ept":0.005,"lat":37.965442500,"lon":-122.532424333,"alt":9.200,"epx":12.520,"epy":12.669,"epv":60.490,"track":124.7100,"magtrack":0.0000,"speed":0.071,"climb":0.000,"eps":25.34}
$GPZDA,223310.00,21,04,2016,-00,00*48
