$GPGSV for GNSS sats
$GLGSV,3,1,10,66,37,078,27,67,62,349,26,68,20,296,25,75,04,018,*6E
$GLGSV,3,2,10,76,43,057,25,77,43,139,26,78,04,176,19,82,25,245,26*67
$GLGSV,3,3,10,83,27,309,29,84,01,353,*63
{"class":"SKY","satellites":[{"PRN":66,"el":37,"az":78,"ss":27,"used":false,"gnssid":6,"svid":1},{"PRN":67,"el":62,"az":349,"ss":26,"used":false,"gnssid":6,"svid":2},{"PRN":68,"el":20,"az":296,"ss":25,"used":false,"gnssid":6,"svid":3},{"PRN":75,"el":4,"az":18,"ss":0,"used":false,"gnssid":6,"svid":10},{"PRN":76,"el":43,"az":57,"ss":25,"used":false,"gnssid":6,"svid":11},{"PRN":77,"el":43,"az":139,"ss":26,"used":false,"gnssid":6,"svid":12},{"PRN":78,"el":4,"az":176,"ss":19,"used":false,"gnssid":6,"svid":13},{"PRN":82,"el":25,"az":245,"ss":26,"used":false,"gnssid":6,"svid":17},{"PRN":83,"el":27,"az":309,"ss":29,"used":false,"gnssid":6,"svid":18},{"PRN":84,"el":1,"az":353,"ss":0,"used":false,"gnssid":6,"svid":19}]}
$GNGLL,4404.14066,N,12118.85481,W,171925.00,A,A*66
{"class":"TPV","mode":2,"lat":44.069011000,"lon":-121.314246833}
$GNRMC,171926.00,A,4404.14063,N,12118.85478,W,0.117,,180315,,,A*76
$GNVTG,,T,,M,0.117,N,0.216,K,A*3F
$GNGGA,171926.00,4404.14063,N,12118.85478,W,1,12,0.91,1147.2,M,-21.3,M,,*44
$GNGSA,A,3,01,11,31,14,22,32,04,25,03,,,,1.56,0.91,1.27*15
$GNGSA,A,3,67,83,76,82,68,,,,,,,,1.56,0.91,1.27*1D
$GPGSV,4,1,13,01,53,280,36,03,29,301,24,04,55,223,37,08,38,166,16*7C
$GPGSV,4,2,13,11,40,245,29,12,05,034,,14,43,055,30,17,06,324,*74
$GPGSV,4,3,13,22,24,112,25,23,08,249,,25,12,069,22,31,58,133,24*7A
$GPGSV,4,4,13,32,76,331,31*48
$GLGSV,3,1,10,66,37,078,26,67,62,349,26,68,20,296,24,75,04,018,*6E
$GLGSV,3,2,10,76,43,057,25,77,43,139,26,78,04,176,19,82,25,245,25*64
$GLGSV,3,3,10,83,27,309,29,84,01,353,*63
{"class":"SKY","xdop":0.42,"ydop":0.73,"vdop":1.27,"tdop":0.81,"hdop":0.91,"gdop":1.68,"pdop":1.56,"satellites":[{"PRN":1,"el":53,"az":280,"ss":36,"used":true,"gnssid":0,"svid":1},{"PRN":3,"el":29,"az":301,"ss":24,"used":true,"gnssid":0,"svid":3},{"PRN":4,"el":55,"az":223,"ss":37,"used":true,"gnssid":0,"svid":4},{"PRN":8,"el":38,"az":166,"ss":16,"used":false,"gnssid":0,"svid":8},{"PRN":11,"el":40,"az":245,"ss":29,"used":true,"gnssid":0,"svid":11},{"PRN":12,"el":5,"az":34,"ss":0,"used":false,"gnssid":0,"svid":12},{"PRN":14,"el":43,"az":55,"ss":30,"used":true,"gnssid":0,"svid":14},{"PRN":17,"el":6,"az":324,"ss":0,"used":false,"gnssid":0,"svid":17},{"PRN":22,"el":24,"az":112,"ss":25,"used":true,"gnssid":0,"svid":22},{"PRN":23,"el":8,"az":249,"ss":0,"used":false,"gnssid":0,"svid":23},{"PRN":25,"el":12,"az":69,"ss":22,"used":true,"gnssid":0,"svid":25},{"PRN":31,"el":58,"az":133,"ss":24,"used":true,"gnssid":0,"svid":31},{"PRN":32,"el":76,"az":331,"ss":31,"used":true,"gnssid":0,"svid":32},{"PRN":66,"el":37,"az":78,"ss":26,"used":false,"gnssid":6,"svid":1},{"PRN":67,"el":62,"az":349,"ss":26,"used":true,"gnssid":6,"svid":2},{"PRN":68,"el":20,"az":296,"ss":24,"used":true,"gnssid":6,"svid":3},{"PRN":75,"el":4,"az":18,"ss":0,"used":false,"gnssid":6,"svid":10},{"PRN":76,"el":43,"az":57,"ss":25,"used":true,"gnssid":6,"svid":11},{"PRN":77,"el":43,"az":139,"ss":26,"used":false,"gnssid":6,"svid":12},{"PRN":78,"el":4,"az":176,"ss":19,"used":false,"gnssid":6,"svid":13},{"PRN":82,"el":25,"az":245,"ss":25,"used":true,"gnssid":6,"svid":17},{"PRN":83,"el":27,"az":309,"ss":29,"used":true,"gnssid":6,"svid":18},{"PRN":84,"el":1,"az":353,"ss":0,"used":false,"gnssid":6,"svid":19}]}
$GNGLL,4404.14063,N,12118.85478,W,171926.00,A,A*66
{"class":"TPV","mode":3,"time":"2015-03-18T17:19:26.000Z","ept":0.005,"lat":44.069010500,"lon":-121.314246333,"alt":1147.200,"epx":6.294,"epy":10.947,"epv":29.210,"track":0.0000,"speed":0.060,"climb":0.000}
$GNRMC,171927.00,A,4404.14058,N,12118.85475,W,0.084,,180315,,,A*79
$GNVTG,,T,,M,0.084,N,0.156,K,A*33
$GNGGA,171927.00,4404.14058,N,12118.85475,W,1,12,0.91,1147.0,M,-21.3,M,,*42
$GNGSA,A,3,01,11,31,14,22,32,04,25,03,,,,1.56,0.91,1.27*15
$GNGSA,A,3,67,83,76,82,68,,,,,,,,1.56,0.91,1.27*1D
$GPGSV,4,1,13,01,53,280,36,03,29,301,23,04,55,223,37,08,38,166,15*78
$GPGSV,4,2,13,11,40,245,29,12,05,034,,14,43,055,29,17,06,324,*7C
$GPGSV,4,3,13,22,24,112,24,23,08,249,,25,12,069,21,31,58,133,23*7F
$GPGSV,4,4,13,32,76,331,30*49
$GLGSV,3,1,10,66,37,078,26,67,62,349,26,68,20,296,23,75,04,018,*69
$GLGSV,3,2,10,76,43,057,24,77,43,139,25,78,04,176,18,82,25,245,25*67
$GLGSV,3,3,10,83,27,309,30,84,01,353,*6B
{"class":"SKY","xdop":0.42,"ydop":0.73,"vdop":1.27,"tdop":0.81,"hdop":0.91,"gdop":1.68,"pdop":1.56,"satellites":[{"PRN":1,"el":53,"az":280,"ss":36,"used":true,"gnssid":0,"svid":1},{"PRN":3,"el":29,"az":301,"ss":23,"used":true,"gnssid":0,"svid":3},{"PRN":4,"el":55,"az":223,"ss":37,"used":true,"gnssid":0,"svid":4},{"PRN":8,"el":38,"az":166,"ss":15,"used":false,"gnssid":0,"svid":8},{"PRN":11,"el":40,"az":245,"ss":29,"used":true,"gnssid":0,"svid":11},{"PRN":12,"el":5,"az":34,"ss":0,"used":false,"gnssid":0,"svid":12},{"PRN":14,"el":43,"az":55,"ss":29,"used":true,"gnssid":0,"svid":14},{"PRN":17,"el":6,"az":324,"ss":0,"used":false,"gnssid":0,"svid":17},{"PRN":22,"el":24,"az":112,"ss":24,"used":true,"gnssid":0,"svid":22},{"PRN":23,"el":8,"az":249,"ss":0,"used":false,"gnssid":0,"svid":23},{"PRN":25,"el":12,"az":69,"ss":21,"used":true,"gnssid":0,"svid":25},{"PRN":31,"el":58,"az":133,"ss":23,"used":true,"gnssid":0,"svid":31},{"PRN":32,"el":76,"az":331,"ss":30,"used":true,"gnssid":0,"svid":32},{"PRN":66,"el":37,"az":78,"ss":26,"used":false,"gnssid":6,"svid":1},{"PRN":67,"el":62,"az":349,"ss":26,"used":true,"gnssid":6,"svid":2},{"PRN":68,"el":20,"az":296,"ss":23,"used":true,"gnssid":6,"svid":3},{"PRN":75,"el":4,"az":18,"ss":0,"used":false,"gnssid":6,"svid":10},{"PRN":76,"el":43,"az":57,"ss":24,"used":true,"gnssid":6,"svid":11},{"PRN":77,"el":43,"az":139,"ss":25,"used":false,"gnssid":6,"svid":12},{"PRN":78,"el":4,"az":176,"ss":18,"used":false,"gnssid":6,"svid":13},{"PRN":82,"el":25,"az":245,"ss":25,"used":true,"gnssid":6,"svid":17},{"PRN":83,"el":27,"az":309,"ss":30,"used":true,"gnssid":6,"svid":18},{"PRN":84,"el":1,"az":353,"ss":0,"used":false,"gnssid":6,"svid":19}]}
$GNGLL,4404.14058,N,12118.85475,W,171927.00,A,A*62
{"class":"TPV","mode":3,"time":"2015-03-18T17:19:27.000Z","ept":0.005,"lat":44.069009667,"lon":-121.314245833,"alt":1147.000,"epx":6.294,"epy":10.947,"epv":29.210,"track":0.0000,"speed":0.043,"climb":0.000,"eps":21.89}
$GNRMC,171928.00,A,4404.14055,N,12118.85469,W,0.116,,180315,,,A*7C
$GNVTG,,T,,M,0.116,N,0.215,K,A*3D
$GNGGA,171928.00,4404.14055,N,12118.85469,W,1,12,0.91,1146.7,M,-21.3,M,,*4B
$GNGSA,A,3,01,11,31,14,22,32,04,25,03,,,,1.56,0.91,1.27*15
$GNGSA,A,3,67,83,76,82,68,,,,,,,,1.56,0.91,1.27*1D
$GPGSV,4,1,13,01,53,279,36,03,29,301,23,04,55,223,37,08,38,166,15*7E
$GPGSV,4,2,13,11,40,245,29,12,05,034,,14,43,055,29,17,06,324,*7C
$GPGSV,4,3,13,22,24,112,24,23,08,249,,25,12,069,19,31,58,133,23*74
$GPGSV,4,4,13,32,76,331,30*49
$GLGSV,3,1,10,66,37,078,26,67,62,349,24,68,20,296,23,75,04,018,*6B
$GLGSV,3,2,10,76,43,057,24,77,43,139,25,78,04,176,17,82,25,245,25*68
$GLGSV,3,3,10,83,27,309,30,84,01,353,*6B
{"class":"SKY","xdop":0.42,"ydop":0.73,"vdop":1.27,"tdop":0.81,"hdop":0.91,"gdop":1.68,"pdop":1.56,"satellites":[{"PRN":1,"el":53,"az":279,"ss":36,"used":true,"gnssid":0,"svid":1},{"PRN":3,"el":29,"az":301,"ss":23,"used":true,"gnssid":0,"svid":3},{"PRN":4,"el":55,"az":223,"ss":37,"used":true,"gnssid":0,"svid":4},{"PRN":8,"el":38,"az":166,"ss":15,"used":false,"gnssid":0,"svid":8},{"PRN":11,"el":40,"az":245,"ss":29,"used":true,"gnssid":0,"svid":11},{"PRN":12,"el":5,"az":34,"ss":0,"used":false,"gnssid":0,"svid":12},{"PRN":14,"el":43,"az":55,"ss":29,"used":true,"gnssid":0,"svid":14},{"PRN":17,"el":6,"az":324,"ss":0,"used":false,"gnssid":0,"svid":17},{"PRN":22,"el":24,"az":112,"ss":24,"used":true,"gnssid":0,"svid":22},{"PRN":23,"el":8,"az":249,"ss":0,"used":false,"gnssid":0,"svid":23},{"PRN":25,"el":12,"az":69,"ss":19,"used":true,"gnssid":0,"svid":25},{"PRN":31,"el":58,"az":133,"ss":23,"used":true,"gnssid":0,"svid":31},{"PRN":32,"el":76,"az":331,"ss":30,"used":true,"gnssid":0,"svid":32},{"PRN":66,"el":37,"az":78,"ss":26,"used":false,"gnssid":6,"svid":1},{"PRN":67,"el":62,"az":349,"ss":24,"used":true,"gnssid":6,"svid":2},{"PRN":68,"el":20,"az":296,"ss":23,"used":true,"gnssid":6,"svid":3},{"PRN":75,"el":4,"az":18,"ss":0,"used":false,"gnssid":6,"svid":10},{"PRN":76,"el":43,"az":57,"ss":24,"used":true,"gnssid":6,"svid":11},{"PRN":77,"el":43,"az":139,"ss":25,"used":false,"gnssid":6,"svid":12},{"PRN":78,"el":4,"az":176,"ss":17,"used":false,"gnssid":6,"svid":13},{"PRN":82,"el":25,"az":245,"ss":25,"used":true,"gnssid":6,"svid":17},{"PRN":83,"el":27,"az":309,"ss":30,"used":true,"gnssid":6,"svid":18},{"PRN":84,"el":1,"az":353,"ss":0,"used":false,"gnssid":6,"svid":19}]}
$GNGLL,4404.14055,N,12118.85469,W,171928.00,A,A*6D
{"class":"TPV","mode":3,"time":"2015-03-18T17:19:28.000Z","ept":0.005,"lat":44.069009167,"lon":-121.314244833,"alt":1146.700,"epx":6.294,"epy":10.947,"epv":29.210,"track":0.0000,"speed":0.060,"climb":0.000,"eps":21.89}
$GNRMC,171929.00,A,4404.14054,N,12118.85469,W,0.145,,180315,,,A*7A
$GNVTG,,T,,M,0.145,N,0.268,K,A*31
$GNGGA,171929.00,4404.14054,N,12118.85469,W,1,12,0.91,1146.8,M,-21.3,M,,*44
$GNGSA,A,3,01,11,31,14,22,32,04,25,03,,,,1.56,0.91,1.27*15
$GNGSA,A,3,67,83,76,82,68,,,,,,,,1.56,0.91,1.27*1D
$GPGSV,4,1,13,01,53,279,36,03,29,301,22,04,55,223,37,08,38,166,15*7F
$GPGSV,4,2,13,11,40,245,29,12,05,034,,14,43,055,29,17,06,324,*7C
$GPGSV,4,3,13,22,24,112,24,23,08,249,17,25,12,069,19,31,58,133,21*70
$GPGSV,4,4,13,32,76,331,32*4B
$GLGSV,3,1,10,66,37,078,24,67,62,349,22,68,20,296,21,75,04,018,*6D
$GLGSV,3,2,10,76,43,057,22,77,43,139,24,78,04,176,15,82,25,245,23*6B
$GLGSV,3,3,10,83,27,309,29,84,01,353,*63
{"class":"SKY","xdop":0.42,"ydop":0.73,"vdop":1.27,"tdop":0.81,"hdop":0.91,"gdop":1.68,"pdop":1.56,"satellites":[{"PRN":1,"el":53,"az":279,"ss":36,"used":true,"gnssid":0,"svid":1},{"PRN":3,"el":29,"az":301,"ss":22,"used":true,"gnssid":0,"svid":3},{"PRN":4,"el":55,"az":223,"ss":37,"used":true,"gnssid":0,"svid":4},{"PRN":8,"el":38,"az":166,"ss":15,"used":false,"gnssid":0,"svid":8},{"PRN":11,"el":40,"az":245,"ss":29,"used":true,"gnssid":0,"svid":11},{"PRN":12,"el":5,"az":34,"ss":0,"used":false,"gnssid":0,"svid":12},{"PRN":14,"el":43,"az":55,"ss":29,"used":true,"gnssid":0,"svid":14},{"PRN":17,"el":6,"az":324,"ss":0,"used":false,"gnssid":0,"svid":17},{"PRN":22,"el":24,"az":112,"ss":24,"used":true,"gnssid":0,"svid":22},{"PRN":23,"el":8,"az":249,"ss":17,"used":false,"gnssid":0,"svid":23},{"PRN":25,"el":12,"az":69,"ss":19,"used":true,"gnssid":0,"svid":25},{"PRN":31,"el":58,"az":133,"ss":21,"used":true,"gnssid":0,"svid":31},{"PRN":32,"el":76,"az":331,"ss":32,"used":true,"gnssid":0,"svid":32},{"PRN":66,"el":37,"az":78,"ss":24,"used":false,"gnssid":6,"svid":1},{"PRN":67,"el":62,"az":349,"ss":22,"used":true,"gnssid":6,"svid":2},{"PRN":68,"el":20,"az":296,"ss":21,"used":true,"gnssid":6,"svid":3},{"PRN":75,"el":4,"az":18,"ss":0,"used":false,"gnssid":6,"svid":10},{"PRN":76,"el":43,"az":57,"ss":22,"used":true,"gnssid":6,"svid":11},{"PRN":77,"el":43,"az":139,"ss":24,"used":false,"gnssid":6,"svid":12},{"PRN":78,"el":4,"az":176,"ss":15,"used":false,"gnssid":6,"svid":13},{"PRN":82,"el":25,"az":245,"ss":23,"used":true,"gnssid":6,"svid":17},{"PRN":83,"el":27,"az":309,"ss":29,"used":true,"gnssid":6,"svid":18},{"PRN":84,"el":1,"az":353,"ss":0,"used":false,"gnssid":6,"svid":19}]}
$GNGLL,4404.14054,N,12118.85469,W,171929.00,A,A*6D
{"class":"TPV","mode":3,"time":"2015-03-18T17:19:29.000Z","ept":0.005,"lat":44.069009000,"lon":-121.314244833,"alt":1146.800,"epx":6.294,"epy":10.950,"epv":29.210,"track":0.0000,"speed":0.075,"climb":0.000,"eps":21.90}
$GNRMC,171930.00,A,4404.14047,N,12118.85466,W,0.086,,180315,,,A*71
$GNVTG,,T,,M,0.086,N,0.160,K,A*34
$GNGGA,171930.00,4404.14047,N,12118.85466,W,1,12,1.02,1146.5,M,-21.3,M,,*47
$GNGSA,A,3,01,11,31,14,22,32,04,25,03,,,,1.69,1.02,1.35*11
$GNGSA,A,3,67,83,76,68,,,,,,,,,1.69,1.02,1.35*13
$GPGSV,4,1,13,01,53,279,35,03,30,301,22,04,55,223,37,08,38,166,17*76
$GPGSV,4,2,13,11,40,245,28,12,05,034,,14,43,055,29,17,06,324,*7D
$GPGSV,4,3,13,22,24,112,24,23,08,249,17,25,12,069,19,31,58,133,22*73
$GPGSV,4,4,13,32,76,331,32*4B
$GLGSV,3,1,10,66,37,078,22,67,62,349,21,68,20,296,19,75,04,018,*63
$GLGSV,3,2,10,76,43,057,21,77,43,139,22,78,04,176,11,82,25,245,20*69
$GLGSV,3,3,10,83,27,309,28,84,01,353,*62
{"class":"SKY","xdop":0.45,"ydop":0.81,"vdop":1.35,"tdop":0.90,"hdop":1.02,"gdop":1.83,"pdop":1.69,"satellites":[{"PRN":1,"el":53,"az":279,"ss":35,"used":true,"gnssid":0,"svid":1},{"PRN":3,"el":30,"az":301,"ss":22,"used":true,"gnssid":0,"svid":3},{"PRN":4,"el":55,"az":223,"ss":37,"used":true,"gnssid":0,"svid":4},{"PRN":8,"el":38,"az":166,"ss":17,"used":false,"gnssid":0,"svid":8},{"PRN":11,"el":40,"az":245,"ss":28,"used":true,"gnssid":0,"svid":11},{"PRN":12,"el":5,"az":34,"ss":0,"used":false,"gnssid":0,"svid":12},{"PRN":14,"el":43,"az":55,"ss":29,"used":true,"gnssid":0,"svid":14},{"PRN":17,"el":6,"az":324,"ss":0,"used":false,"gnssid":0,"svid":17},{"PRN":22,"el":24,"az":112,"ss":24,"used":true,"gnssid":0,"svid":22},{"PRN":23,"el":8,"az":249,"ss":17,"used":false,"gnssid":0,"svid":23},{"PRN":25,"el":12,"az":69,"ss":19,"used":true,"gnssid":0,"svid":25},{"PRN":31,"el":58,"az":133,"ss":22,"used":true,"gnssid":0,"svid":31},{"PRN":32,"el":76,"az":331,"ss":32,"used":true,"gnssid":0,"svid":32},{"PRN":66,"el":37,"az":78,"ss":22,"used":false,"gnssid":6,"svid":1},{"PRN":67,"el":62,"az":349,"ss":21,"used":true,"gnssid":6,"svid":2},{"PRN":68,"el":20,"az":296,"ss":19,"used":true,"gnssid":6,"svid":3},{"PRN":75,"el":4,"az":18,"ss":0,"used":false,"gnssid":6,"svid":10},{"PRN":76,"el":43,"az":57,"ss":21,"used":true,"gnssid":6,"svid":11},{"PRN":77,"el":43,"az":139,"ss":22,"used":false,"gnssid":6,"svid":12},{"PRN":78,"el":4,"az":176,"ss":11,"used":false,"gnssid":6,"svid":13},{"PRN":82,"el":25,"az":245,"ss":20,"used":false,"gnssid":6,"svid":17},{"PRN":83,"el":27,"az":309,"ss":28,"used":true,"gnssid":6,"svid":18},{"PRN":84,"el":1,"az":353,"ss":0,"used":false,"gnssid":6,"svid":19}]}
$GNGLL,4404.14047,N,12118.85466,W,171930.00,A,A*68
{"class":"TPV","mode":3,"time":"2015-03-18T17:19:30.000Z","ept":0.005,"lat":44.069007833,"lon":-121.314244333,"alt":1146.500,"epx":6.294,"epy":10.950,"epv":29.210,"track":0.0000,"speed":0.044,"climb":0.000,"eps":21.90}
$GNRMC,171931.00,A,4404.14038,N,12118.85466,W,0.097,,180315,,,A*78
$GNVTG,,T,,M,0.097,N,0.180,K,A*3A
$GNGGA,171931.00,4404.14038,N,12118.85466,W,1,12,1.01,1146.2,M,-21.3,M,,*4A
$GNGSA,A,3,01,11,31,14,22,32,04,25,03,,,,1.69,1.01,1.35*12
$GNGSA,A,3,67,83,76,68,,,,,,,,,1.69,1.01,1.35*10
$GPGSV,4,1,13,01,53,279,36,03,30,301,23,04,55,222,37,08,38,166,18*7A
$GPGSV,4,2,13,11,40,245,28,12,05,034,,14,43,055,29,17,06,324,*7D
$GPGSV,4,3,13,22,24,112,24,23,08,249,18,25,12,069,19,31,58,133,23*7D
$GPGSV,4,4,13,32,76,331,32*4B
$GLGSV,3,1,10,66,37,078,21,67,62,349,20,68,20,296,16,75,04,018,*6E
$GLGSV,3,2,10,76,43,057,20,77,43,139,21,78,04,176,,82,25,245,*69
$GLGSV,3,3,10,83,27,309,28,84,01,353,*62
{"class":"SKY","xdop":0.45,"ydop":0.81,"vdop":1.35,"tdop":0.90,"hdop":1.01,"gdop":1.83,"pdop":1.69,"satellites":[{"PRN":1,"el":53,"az":279,"ss":36,"used":true,"gnssid":0,"svid":1},{"PRN":3,"el":30,"az":301,"ss":23,"used":true,"gnssid":0,"svid":3},{"PRN":4,"el":55,"az":222,"ss":37,"used":true,"gnssid":0,"svid":4},{"PRN":8,"el":38,"az":166,"ss":18,"used":false,"gnssid":0,"svid":8},{"PRN":11,"el":40,"az":245,"ss":28,"used":true,"gnssid":0,"svid":11},{"PRN":12,"el":5,"az":34,"ss":0,"used":false,"gnssid":0,"svid":12},{"PRN":14,"el":43,"az":55,"ss":29,"used":true,"gnssid":0,"svid":14},{"PRN":17,"el":6,"az":324,"ss":0,"used":false,"gnssid":0,"svid":17},{"PRN":22,"el":24,"az":112,"ss":24,"used":true,"gnssid":0,"svid":22},{"PRN":23,"el":8,"az":249,"ss":18,"used":false,"gnssid":0,"svid":23},{"PRN":25,"el":12,"az":69,"ss":19,"used":true,"gnssid":0,"svid":25},{"PRN":31,"el":58,"az":133,"ss":23,"used":true,"gnssid":0,"svid":31},{"PRN":32,"el":76,"az":331,"ss":32,"used":true,"gnssid":0,"svid":32},{"PRN":66,"el":37,"az":78,"ss":21,"used":false,"gnssid":6,"svid":1},{"PRN":67,"el":62,"az":349,"ss":20,"used":true,"gnssid":6,"svid":2},{"PRN":68,"el":20,"az":296,"ss":16,"used":true,"gnssid":6,"svid":3},{"PRN":75,"el":4,"az":18,"ss":0,"used":false,"gnssid":6,"svid":10},{"PRN":76,"el":43,"az":57,"ss":20,"used":true,"gnssid":6,"svid":11},{"PRN":77,"el":43,"az":139,"ss":21,"used":false,"gnssid":6,"svid":12},{"PRN":78,"el":4,"az":176,"ss":0,"used":false,"gnssid":6,"svid":13},{"PRN":82,"el":25,"az":245,"ss":0,"used":false,"gnssid":6,"svid":17},{"PRN":83,"el":27,"az":309,"ss":28,"used":true,"gnssid":6,"svid":18},{"PRN":84,"el":1,"az":353,"ss":0,"used":false,"gnssid":6,"svid":19}]}
$GNGLL,4404.14038,N,12118.85466,W,171931.00,A,A*61
{"class":"TPV","mode":3,"time":"2015-03-18T17:19:31.000Z","ept":0.005,"lat":44.069006333,"lon":-121.314244333,"alt":1146.200,"epx":6.722,"epy":12.181,"epv":31.050,"track":0.0000,"speed":0.050,"climb":0.000,"eps":23.13}
$GNRMC,171932.00,A,4404.14029,N,12118.85458,W,0.028,,180315,,,A*72
$GNVTG,,T,,M,0.028,N,0.052,K,A*30
$GNGGA,171932.00,4404.14029,N,12118.85458,W,1,12,1.01,1145.6,M,-21.3,M,,*43
$GNGSA,A,3,01,11,31,14,22,32,04,25,03,,,,1.69,1.01,1.35*12
$GNGSA,A,3,67,83,76,68,,,,,,,,,1.69,1.01,1.35*10
$GPGSV,4,1,13,01,53,279,36,03,30,301,22,04,55,222,37,08,38,166,20*70
$GPGSV,4,2,13,11,40,245,28,12,05,034,,14,43,055,29,17,06,324,*7D
$GPGSV,4,3,13,22,24,112,24,23,08,249,18,25,12,069,18,31,58,133,24*7B
$GPGSV,4,4,13,32,76,331,32*4B
$GLGSV,3,1,10,66,37,078,22,67,62,349,20,68,20,296,17,75,04,018,*6C
$GLGSV,3,2,10,76,43,057,22,77,43,139,20,78,04,176,,82,25,245,*6A
$GLGSV,3,3,10,83,27,309,28,84,01,353,*62
{"class":"SKY","xdop":0.45,"ydop":0.81,"vdop":1.35,"tdop":0.90,"hdop":1.01,"gdop":1.83,"pdop":1.69,"satellites":[{"PRN":1,"el":53,"az":279,"ss":36,"used":true,"gnssid":0,"svid":1},{"PRN":3,"el":30,"az":301,"ss":22,"used":true,"gnssid":0,"svid":3},{"PRN":4,"el":55,"az":222,"ss":37,"used":true,"gnssid":0,"svid":4},{"PRN":8,"el":38,"az":166,"ss":20,"used":false,"gnssid":0,"svid":8},{"PRN":11,"el":40,"az":245,"ss":28,"used":true,"gnssid":0,"svid":11},{"PRN":12,"el":5,"az":34,"ss":0,"used":false,"gnssid":0,"svid":12},{"PRN":14,"el":43,"az":55,"ss":29,"used":true,"gnssid":0,"svid":14},{"PRN":17,"el":6,"az":324,"ss":0,"used":false,"gnssid":0,"svid":17},{"PRN":22,"el":24,"az":112,"ss":24,"used":true,"gnssid":0,"svid":22},{"PRN":23,"el":8,"az":249,"ss":18,"used":false,"gnssid":0,"svid":23},{"PRN":25,"el":12,"az":69,"ss":18,"used":true,"gnssid":0,"svid":25},{"PRN":31,"el":58,"az":133,"ss":24,"used":true,"gnssid":0,"svid":31},{"PRN":32,"el":76,"az":331,"ss":32,"used":true,"gnssid":0,"svid":32},{"PRN":66,"el":37,"az":78,"ss":22,"used":false,"gnssid":6,"svid":1},{"PRN":67,"el":62,"az":349,"ss":20,"used":true,"gnssid":6,"svid":2},{"PRN":68,"el":20,"az":296,"ss":17,"used":true,"gnssid":6,"svid":3},{"PRN":75,"el":4,"az":18,"ss":0,"used":false,"gnssid":6,"svid":10},{"PRN":76,"el":43,"az":57,"ss":22,"used":true,"gnssid":6,"svid":11},{"PRN":77,"el":43,"az":139,"ss":20,"used":false,"gnssid":6,"svid":12},{"PRN":78,"el":4,"az":176,"ss":0,"used":false,"gnssid":6,"svid":13},{"PRN":82,"el":25,"az":245,"ss":0,"used":false,"gnssid":6,"svid":17},{"PRN":83,"el":27,"az":309,"ss":28,"used":true,"gnssid":6,"svid":18},{"PRN":84,"el":1,"az":353,"ss":0,"used":false,"gnssid":6,"svid":19}]}
$GNGLL,4404.14029,N,12118.85458,W,171932.00,A,A*6F
{"class":"TPV","mode":3,"time":"2015-03-18T17:19:32.000Z","ept":0.005,"lat":44.069004833,"lon":-121.314243000,"alt":1145.600,"epx":6.725,"epy":12.156,"epv":31.050,"track":0.0000,"speed":0.014,"climb":0.000,"eps":24.34}
$GNRMC,171933.00,A,4404.14022,N,12118.85448,W,0.138,,180315,,,A*79
$GNVTG,,T,,M,0.138,N,0.256,K,A*36
$GNGGA,171933.00,4404.14022,N,12118.85448,W,1,12,1.01,1145.1,M,-21.3,M,,*4F
$GNGSA,A,3,01,11,31,14,22,32,04,25,03,,,,1.69,1.01,1.35*12
$GNGSA,A,3,67,83,76,68,,,,,,,,,1.69,1.01,1.35*10
$GPGSV,4,1,13,01,53,279,35,03,30,301,22,04,55,222,37,08,38,166,20*73
$GPGSV,4,2,13,11,40,245,29,12,05,034,,14,43,055,29,17,06,324,*7C
$GPGSV,4,3,13,22,24,112,24,23,08,249,18,25,12,069,18,31,58,133,24*7B
$GPGSV,4,4,13,32,76,331,32*4B
$GLGSV,3,1,10,66,37,078,23,67,62,349,19,68,20,296,16,75,04,018,*66
$GLGSV,3,2,10,76,43,057,22,77,43,139,20,78,04,176,,82,25,245,06*6C
$GLGSV,3,3,10,83,27,309,28,84,01,353,*62
{"class":"SKY","xdop":0.45,"ydop":0.81,"vdop":1.35,"tdop":0.90,"hdop":1.01,"gdop":1.83,"pdop":1.69,"satellites":[{"PRN":1,"el":53,"az":279,"ss":35,"used":true,"gnssid":0,"svid":1},{"PRN":3,"el":30,"az":301,"ss":22,"used":true,"gnssid":0,"svid":3},{"PRN":4,"el":55,"az":222,"ss":37,"used":true,"gnssid":0,"svid":4},{"PRN":8,"el":38,"az":166,"ss":20,"used":false,"gnssid":0,"svid":8},{"PRN":11,"el":40,"az":245,"ss":29,"used":true,"gnssid":0,"svid":11},{"PRN":12,"el":5,"az":34,"ss":0,"used":false,"gnssid":0,"svid":12},{"PRN":14,"el":43,"az":55,"ss":29,"used":true,"gnssid":0,"svid":14},{"PRN":17,"el":6,"az":324,"ss":0,"used":false,"gnssid":0,"svid":17},{"PRN":22,"el":24,"az":112,"ss":24,"used":true,"gnssid":0,"svid":22},{"PRN":23,"el":8,"az":249,"ss":18,"used":false,"gnssid":0,"svid":23},{"PRN":25,"el":12,"az":69,"ss":18,"used":true,"gnssid":0,"svid":25},{"PRN":31,"el":58,"az":133,"ss":24,"used":true,"gnssid":0,"svid":31},{"PRN":32,"el":76,"az":331,"ss":32,"used":true,"gnssid":0,"svid":32},{"PRN":66,"el":37,"az":78,"ss":23,"used":false,"gnssid":6,"svid":1},{"PRN":67,"el":62,"az":349,"ss":19,"used":true,"gnssid":6,"svid":2},{"PRN":68,"el":20,"az":296,"ss":16,"used":true,"gnssid":6,"svid":3},{"PRN":75,"el":4,"az":18,"ss":0,"used":false,"gnssid":6,"svid":10},{"PRN":76,"el":43,"az":57,"ss":22,"used":true,"gnssid":6,"svid":11},{"PRN":77,"el":43,"az":139,"ss":20,"used":false,"gnssid":6,"svid":12},{"PRN":78,"el":4,"az":176,"ss":0,"used":false,"gnssid":6,"svid":13},{"PRN":82,"el":25,"az":245,"ss":6,"used":false,"gnssid":6,"svid":17},{"PRN":83,"el":27,"az":309,"ss":28,"used":true,"gnssid":6,"svid":18},{"PRN":84,"el":1,"az":353,"ss":0,"used":false,"gnssid":6,"svid":19}]}
$GNGLL,4404.14022,N,12118.85448,W,171933.00,A,A*64
{"class":"TPV","mode":3,"time":"2015-03-18T17:19:33.000Z","ept":0.005,"lat":44.069003667,"lon":-121.314241333,"alt":1145.100,"epx":6.725,"epy":12.156,"epv":31.050,"track":0.0000,"speed":0.071,"climb":0.000,"eps":24.31}
$GNRMC,171934.00,A,4404.14014,N,12118.85438,W,0.103,,180315,,,A*74
$GNVTG,,T,,M,0.103,N,0.191,K,A*36
$GNGGA,171934.00,4404.14014,N,12118.85438,W,1,12,1.01,1144.7,M,-21.3,M,,*4D
$GNGSA,A,3,01,11,31,14,22,32,04,25,03,,,,1.69,1.01,1.35*12
$GNGSA,A,3,67,83,76,68,,,,,,,,,1.69,1.01,1.35*10
$GPGSV,4,1,13,01,53,279,35,03,30,301,22,04,55,222,37,08,38,166,20*73
$GPGSV,4,2,13,11,40,245,29,12,05,034,,14,43,055,29,17,06,324,*7C
$GPGSV,4,3,13,22,24,112,24,23,08,249,17,25,12,069,17,31,58,133,24*7B
$GPGSV,4,4,13,32,76,331,32*4B
$GLGSV,3,1,10,66,37,078,22,67,62,349,19,68,20,296,16,75,04,018,*67
$GLGSV,3,2,10,76,43,057,22,77,43,139,19,78,04,176,,82,25,245,*60
$GLGSV,3,3,10,83,27,309,28,84,01,353,*62
{"class":"SKY","xdop":0.45,"ydop":0.81,"vdop":1.35,"tdop":0.90,"hdop":1.01,"gdop":1.83,"pdop":1.69,"satellites":[{"PRN":1,"el":53,"az":279,"ss":35,"used":true,"gnssid":0,"svid":1},{"PRN":3,"el":30,"az":301,"ss":22,"used":true,"gnssid":0,"svid":3},{"PRN":4,"el":55,"az":222,"ss":37,"used":true,"gnssid":0,"svid":4},{"PRN":8,"el":38,"az":166,"ss":20,"used":false,"gnssid":0,"svid":8},{"PRN":11,"el":40,"az":245,"ss":29,"used":true,"gnssid":0,"svid":11},{"PRN":12,"el":5,"az":34,"ss":0,"used":false,"gnssid":0,"svid":12},{"PRN":14,"el":43,"az":55,"ss":29,"used":true,"gnssid":0,"svid":14},{"PRN":17,"el":6,"az":324,"ss":0,"used":false,"gnssid":0,"svid":17},{"PRN":22,"el":24,"az":112,"ss":24,"used":true,"gnssid":0,"svid":22},{"PRN":23,"el":8,"az":249,"ss":17,"used":false,"gnssid":0,"svid":23},{"PRN":25,"el":12,"az":69,"ss":17,"used":true,"gnssid":0,"svid":25},{"PRN":31,"el":58,"az":133,"ss":24,"used":true,"gnssid":0,"svid":31},{"PRN":32,"el":76,"az":331,"ss":32,"used":true,"gnssid":0,"svid":32},{"PRN":66,"el":37,"az":78,"ss":22,"used":false,"gnssid":6,"svid":1},{"PRN":67,"el":62,"az":349,"ss":19,"used":true,"gnssid":6,"svid":2},{"PRN":68,"el":20,"az":296,"ss":16,"used":true,"gnssid":6,"svid":3},{"PRN":75,"el":4,"az":18,"ss":0,"used":false,"gnssid":6,"svid":10},{"PRN":76,"el":43,"az":57,"ss":22,"used":true,"gnssid":6,"svid":11},{"PRN":77,"el":43,"az":139,"ss":19,"used":false,"gnssid":6,"svid":12},{"PRN":78,"el":4,"az":176,"ss":0,"used":false,"gnssid":6,"svid":13},{"PRN":82,"el":25,"az":245,"ss":0,"used":false,"gnssid":6,"svid":17},{"PRN":83,"el":27,"az":309,"ss":28,"used":true,"gnssid":6,"svid":18},{"PRN":84,"el":1,"az":353,"ss":0,"used":false,"gnssid":6,"svid":19}]}
$GNGLL,4404.14014,N,12118.85438,W,171934.00,A,A*61
{"class":"TPV","mode":3,"time":"2015-03-18T17:19:34.000Z","ept":0.005,"lat":44.069002333,"lon":-121.314239667,"alt":1144.700,"epx":6.725,"epy":12.156,"epv":31.050,"track":0.0000,"speed":0.053,"climb":0.000,"eps":24.31}
$GNRMC,171935.00,A,4404.14008,N,12118.85429,W,0.080,,180315,,,A*72
$GNVTG,,T,,M,0.080,N,0.147,K,A*37
$GNGGA,171935.00,4404.14008,N,12118.85429,W,1,12,1.01,1144.2,M,-21.3,M,,*44
$GNGSA,A,3,01,11,31,14,22,32,04,25,03,,,,1.69,1.01,1.35*12
$GNGSA,A,3,67,83,76,68,,,,,,,,,1.69,1.01,1.35*10
$GPGSV,4,1,13,01,53,279,35,03,30,301,22,04,55,222,36,08,39,166,20*73
$GPGSV,4,2,13,11,40,245,29,12,05,034,,14,43,055,28,17,06,324,*7D
$GPGSV,4,3,13,22,24,112,25,23,08,249,18,25,12,069,17,31,58,133,24*75
$GPGSV,4,4,13,32,76,331,32*4B
$GLGSV,3,1,10,66,37,078,22,67,62,349,20,68,20,296,16,75,04,018,*6D
$GLGSV,3,2,10,76,43,057,23,77,43,139,19,78,04,176,,82,25,245,*61
$GLGSV,3,3,10,83,27,309,28,84,01,353,*62
{"class":"SKY","xdop":0.45,"ydop":0.81,"vdop":1.35,"tdop":0.90,"hdop":1.01,"gdop":1.83,"pdop":1.69,"satellites":[{"PRN":1,"el":53,"az":279,"ss":35,"used":true,"gnssid":0,"svid":1},{"PRN":3,"el":30,"az":301,"ss":22,"used":true,"gnssid":0,"svid":3},{"PRN":4,"el":55,"az":222,"ss":36,"used":true,"gnssid":0,"svid":4},{"PRN":8,"el":39,"az":166,"ss":20,"used":false,"gnssid":0,"svid":8},{"PRN":11,"el":40,"az":245,"ss":29,"used":true,"gnssid":0,"svid":11},{"PRN":12,"el":5,"az":34,"ss":0,"used":false,"gnssid":0,"svid":12},{"PRN":14,"el":43,"az":55,"ss":28,"used":true,"gnssid":0,"svid":14},{"PRN":17,"el":6,"az":324,"ss":0,"used":false,"gnssid":0,"svid":17},{"PRN":22,"el":24,"az":112,"ss":25,"used":true,"gnssid":0,"svid":22},{"PRN":23,"el":8,"az":249,"ss":18,"used":false,"gnssid":0,"svid":23},{"PRN":25,"el":12,"az":69,"ss":17,"used":true,"gnssid":0,"svid":25},{"PRN":31,"el":58,"az":133,"ss":24,"used":true,"gnssid":0,"svid":31},{"PRN":32,"el":76,"az":331,"ss":32,"used":true,"gnssid":0,"svid":32},{"PRN":66,"el":37,"az":78,"ss":22,"used":false,"gnssid":6,"svid":1},{"PRN":67,"el":62,"az":349,"ss":20,"used":true,"gnssid":6,"svid":2},{"PRN":68,"el":20,"az":296,"ss":16,"used":true,"gnssid":6,"svid":3},{"PRN":75,"el":4,"az":18,"ss":0,"used":false,"gnssid":6,"svid":10},{"PRN":76,"el":43,"az":57,"ss":23,"used":true,"gnssid":6,"svid":11},{"PRN":77,"el":43,"az":139,"ss":19,"used":false,"gnssid":6,"svid":12},{"PRN":78,"el":4,"az":176,"ss":0,"used":false,"gnssid":6,"svid":13},{"PRN":82,"el":25,"az":245,"ss":0,"used":false,"gnssid":6,"svid":17},{"PRN":83,"el":27,"az":309,"ss":28,"used":true,"gnssid":6,"svid":18},{"PRN":84,"el":1,"az":353,"ss":0,"used":false,"gnssid":6,"svid":19}]}
$GNGLL,4404.14008,N,12118.85429,W,171935.00,A,A*6D
{"class":"TPV","mode":3,"time":"2015-03-18T17:19:35.000Z","ept":0.005,"lat":44.069001333,"lon":-121.314238167,"alt":1144.200,"epx":6.725,"epy":12.156,"epv":31.050,"track":0.0000,"speed":0.041,"climb":0.000,"eps":24.31}
$GNRMC,171936.00,A,4404.14003,N,12118.85417,W,0.032,,180315,,,A*7E
$GNVTG,,T,,M,0.032,N,0.059,K,A*30
$GNGGA,171936.00,4404.14003,N,12118.85417,W,1,12,1.01,1143.7,M,-21.3,M,,*43
$GNGSA,A,3,01,11,31,14,22,32,04,25,03,,,,1.69,1.01,1.35*12
$GNGSA,A,3,67,83,76,68,,,,,,,,,1.69,1.01,1.35*10
$GPGSV,4,1,13,01,53,279,35,03,30,301,22,04,55,222,36,08,39,166,20*73
$GPGSV,4,2,13,11,40,245,29,12,05,034,,14,43,055,29,17,06,324,*7C
$GPGSV,4,3,13,22,24,112,26,23,08,249,17,25,12,069,17,31,58,133,23*7E
$GPGSV,4,4,13,32,76,331,32*4B
$GLGSV,3,1,10,66,37,078,21,67,62,349,20,68,20,296,16,75,04,018,*6E
$GLGSV,3,2,10,76,43,057,23,77,43,139,19,78,04,176,,82,25,245,*61
$GLGSV,3,3,10,83,27,309,29,84,01,353,*63
{"class":"SKY","xdop":0.45,"ydop":0.81,"vdop":1.35,"tdop":0.90,"hdop":1.01,"gdop":1.83,"pdop":1.69,"satellites":[{"PRN":1,"el":53,"az":279,"ss":35,"used":true,"gnssid":0,"svid":1},{"PRN":3,"el":30,"az":301,"ss":22,"used":true,"gnssid":0,"svid":3},{"PRN":4,"el":55,"az":222,"ss":36,"used":true,"gnssid":0,"svid":4},{"PRN":8,"el":39,"az":166,"ss":20,"used":false,"gnssid":0,"svid":8},{"PRN":11,"el":40,"az":245,"ss":29,"used":true,"gnssid":0,"svid":11},{"PRN":12,"el":5,"az":34,"ss":0,"used":false,"gnssid":0,"svid":12},{"PRN":14,"el":43,"az":55,"ss":29,"used":true,"gnssid":0,"svid":14},{"PRN":17,"el":6,"az":324,"ss":0,"used":false,"gnssid":0,"svid":17},{"PRN":22,"el":24,"az":112,"ss":26,"used":true,"gnssid":0,"svid":22},{"PRN":23,"el":8,"az":249,"ss":17,"used":false,"gnssid":0,"svid":23},{"PRN":25,"el":12,"az":69,"ss":17,"used":true,"gnssid":0,"svid":25},{"PRN":31,"el":58,"az":133,"ss":23,"used":true,"gnssid":0,"svid":31},{"PRN":32,"el":76,"az":331,"ss":32,"used":true,"gnssid":0,"svid":32},{"PRN":66,"el":37,"az":78,"ss":21,"used":false,"gnssid":6,"svid":1},{"PRN":67,"el":62,"az":349,"ss":20,"used":true,"gnssid":6,"svid":2},{"PRN":68,"el":20,"az":296,"ss":16,"used":true,"gnssid":6,"svid":3},{"PRN":75,"el":4,"az":18,"ss":0,"used":false,"gnssid":6,"svid":10},{"PRN":76,"el":43,"az":57,"ss":23,"used":true,"gnssid":6,"svid":11},{"PRN":77,"el":43,"az":139,"ss":19,"used":false,"gnssid":6,"svid":12},{"PRN":78,"el":4,"az":176,"ss":0,"used":false,"gnssid":6,"svid":13},{"PRN":82,"el":25,"az":245,"ss":0,"used":false,"gnssid":6,"svid":17},{"PRN":83,"el":27,"az":309,"ss":29,"used":true,"gnssid":6,"svid":18},{"PRN":84,"el":1,"az":353,"ss":0,"used":false,"gnssid":6,"svid":19}]}
$GNGLL,4404.14003,N,12118.85417,W,171936.00,A,A*68
{"class":"TPV","mode":3,"time":"2015-03-18T17:19:36.000Z","ept":0.005,"lat":44.069000500,"lon":-121.314236167,"alt":1143.700,"epx":6.725,"epy":12.156,"epv":31.050,"track":0.0000,"speed":0.016,"climb":0.000,"eps":24.31}
$GNRMC,171937.00,A,4404.13998,N,12118.85409,W,0.040,,180315,,,A*79
$GNVTG,,T,,M,0.040,N,0.075,K,A*3B
$GNGGA,171937.00,4404.13998,N,12118.85409,W,1,12,1.01,1143.5,M,-21.3,M,,*43
$GNGSA,A,3,01,11,31,14,22,32,04,25,03,,,,1.69,1.01,1.35*12
$GNGSA,A,3,67,83,76,68,,,,,,,,,1.69,1.01,1.35*10
$GPGSV,4,1,13,01,53,279,35,03,30,301,21,04,55,222,36,08,39,166,21*71
$GPGSV,4,2,13,11,40,245,29,12,05,034,,14,43,055,29,17,06,324,*7C
$GPGSV,4,3,13,22,24,112,26,23,08,249,17,25,12,069,17,31,58,133,23*7E
$GPGSV,4,4,13,32,76,331,33*4A
$GLGSV,3,1,10,66,37,078,21,67,62,349,21,68,20,296,16,75,04,018,*6F
$GLGSV,3,2,10,76,43,057,23,77,43,139,19,78,04,176,,82,25,245,*61
$GLGSV,3,3,10,83,27,309,30,84,01,353,*6B
{"class":"SKY","xdop":0.45,"ydop":0.81,"vdop":1.35,"tdop":0.90,"hdop":1.01,"gdop":1.83,"pdop":1.69,"satellites":[{"PRN":1,"el":53,"az":279,"ss":35,"used":true,"gnssid":0,"svid":1},{"PRN":3,"el":30,"az":301,"ss":21,"used":true,"gnssid":0,"svid":3},{"PRN":4,"el":55,"az":222,"ss":36,"used":true,"gnssid":0,"svid":4},{"PRN":8,"el":39,"az":166,"ss":21,"used":false,"gnssid":0,"svid":8},{"PRN":11,"el":40,"az":245,"ss":29,"used":true,"gnssid":0,"svid":11},{"PRN":12,"el":5,"az":34,"ss":0,"used":false,"gnssid":0,"svid":12},{"PRN":14,"el":43,"az":55,"ss":29,"used":true,"gnssid":0,"svid":14},{"PRN":17,"el":6,"az":324,"ss":0,"used":false,"gnssid":0,"svid":17},{"PRN":22,"el":24,"az":112,"ss":26,"used":true,"gnssid":0,"svid":22},{"PRN":23,"el":8,"az":249,"ss":17,"used":false,"gnssid":0,"svid":23},{"PRN":25,"el":12,"az":69,"ss":17,"used":true,"gnssid":0,"svid":25},{"PRN":31,"el":58,"az":133,"ss":23,"used":true,"gnssid":0,"svid":31},{"PRN":32,"el":76,"az":331,"ss":33,"used":true,"gnssid":0,"svid":32},{"PRN":66,"el":37,"az":78,"ss":21,"used":false,"gnssid":6,"svid":1},{"PRN":67,"el":62,"az":349,"ss":21,"used":true,"gnssid":6,"svid":2},{"PRN":68,"el":20,"az":296,"ss":16,"used":true,"gnssid":6,"svid":3},{"PRN":75,"el":4,"az":18,"ss":0,"used":false,"gnssid":6,"svid":10},{"PRN":76,"el":43,"az":57,"ss":23,"used":true,"gnssid":6,"svid":11},{"PRN":77,"el":43,"az":139,"ss":19,"used":false,"gnssid":6,"svid":12},{"PRN":78,"el":4,"az":176,"ss":0,"used":false,"gnssid":6,"svid":13},{"PRN":82,"el":25,"az":245,"ss":0,"used":false,"gnssid":6,"svid":17},{"PRN":83,"el":27,"az":309,"ss":30,"used":true,"gnssid":6,"svid":18},{"PRN":84,"el":1,"az":353,"ss":0,"used":false,"gnssid":6,"svid":19}]}
$GNGLL,4404.13998,N,12118.85409,W,171937.00,A,A*6A
{"class":"TPV","mode":3,"time":"2015-03-18T17:19:37.000Z","ept":0.005,"lat":44.068999667,"lon":-121.314234833,"alt":1143.500,"epx":6.725,"epy":12.156,"epv":31.050,"track":0.0000,"speed":0.021,"climb":0.000,"eps":24.31}
$GNRMC,171938.00,A,4404.13989,N,12118.85402,W,0.056,,180315,,,A*7A
$GNVTG,,T,,M,0.056,N,0.103,K,A*3C
$GNGGA,171938.00,4404.13989,N,12118.85402,W,1,12,1.01,1143.0,M,-21.3,M,,*42
$GNGSA,A,3,01,11,31,14,22,32,04,25,03,,,,1.69,1.01,1.35*12
$GNGSA,A,3,67,83,76,68,,,,,,,,,1.69,1.01,1.35*10
$GPGSV,4,1,13,01,53,279,35,03,30,301,21,04,55,222,37,08,39,166,22*73
$GPGSV,4,2,13,11,40,245,29,12,05,034,,14,43,055,29,17,06,324,*7C
$GPGSV,4,3,13,22,24,112,26,23,08,249,17,25,12,069,16,31,58,133,24*78
$GPGSV,4,4,13,32,76,331,33*4A
$GLGSV,3,1,10,66,37,078,21,67,62,349,20,68,20,296,16,75,04,018,*6E
$GLGSV,3,2,10,76,43,057,25,77,43,139,20,78,04,176,,82,25,245,*6D
$GLGSV,3,3,10,83,27,309,30,84,01,353,*6B
{"class":"SKY","xdop":0.45,"ydop":0.81,"vdop":1.35,"tdop":0.90,"hdop":1.01,"gdop":1.83,"pdop":1.69,"satellites":[{"PRN":1,"el":53,"az":279,"ss":35,"used":true,"gnssid":0,"svid":1},{"PRN":3,"el":30,"az":301,"ss":21,"used":true,"gnssid":0,"svid":3},{"PRN":4,"el":55,"az":222,"ss":37,"used":true,"gnssid":0,"svid":4},{"PRN":8,"el":39,"az":166,"ss":22,"used":false,"gnssid":0,"svid":8},{"PRN":11,"el":40,"az":245,"ss":29,"used":true,"gnssid":0,"svid":11},{"PRN":12,"el":5,"az":34,"ss":0,"used":false,"gnssid":0,"svid":12},{"PRN":14,"el":43,"az":55,"ss":29,"used":true,"gnssid":0,"svid":14},{"PRN":17,"el":6,"az":324,"ss":0,"used":false,"gnssid":0,"svid":17},{"PRN":22,"el":24,"az":112,"ss":26,"used":true,"gnssid":0,"svid":22},{"PRN":23,"el":8,"az":249,"ss":17,"used":false,"gnssid":0,"svid":23},{"PRN":25,"el":12,"az":69,"ss":16,"used":true,"gnssid":0,"svid":25},{"PRN":31,"el":58,"az":133,"ss":24,"used":true,"gnssid":0,"svid":31},{"PRN":32,"el":76,"az":331,"ss":33,"used":true,"gnssid":0,"svid":32},{"PRN":66,"el":37,"az":78,"ss":21,"used":false,"gnssid":6,"svid":1},{"PRN":67,"el":62,"az":349,"ss":20,"used":true,"gnssid":6,"svid":2},{"PRN":68,"el":20,"az":296,"ss":16,"used":true,"gnssid":6,"svid":3},{"PRN":75,"el":4,"az":18,"ss":0,"used":false,"gnssid":6,"svid":10},{"PRN":76,"el":43,"az":57,"ss":25,"used":true,"gnssid":6,"svid":11},{"PRN":77,"el":43,"az":139,"ss":20,"used":false,"gnssid":6,"svid":12},{"PRN":78,"el":4,"az":176,"ss":0,"used":false,"gnssid":6,"svid":13},{"PRN":82,"el":25,"az":245,"ss":0,"used":false,"gnssid":6,"svid":17},{"PRN":83,"el":27,"az":309,"ss":30,"used":true,"gnssid":6,"svid":18},{"PRN":84,"el":1,"az":353,"ss":0,"used":false,"gnssid":6,"svid":19}]}
$GNGLL,4404.13989,N,12118.85402,W,171938.00,A,A*6E
{"class":"TPV","mode":3,"time":"2015-03-18T17:19:38.000Z","ept":0.005,"lat":44.068998167,"lon":-121.314233667,"alt":1143.000,"epx":6.725,"epy":12.156,"epv":31.050,"track":0.0000,"speed":0.029,"climb":0.000,"eps":24.31}
$GNRMC,171939.00,A,4404.13982,N,12118.85396,W,0.079,,180315,,,A*77
$GNVTG,,T,,M,0.079,N,0.147,K,A*31
$GNGGA,171939.00,4404.13982,N,12118.85396,W,1,12,1.01,1142.6,M,-21.3,M,,*45
$GNGSA,A,3,01,11,31,14,22,32,04,25,03,,,,1.69,1.01,1.35*12
$GNGSA,A,3,67,83,76,68,,,,,,,,,1.69,1.01,1.35*10
$GPGSV,4,1,13,01,53,279,35,03,30,301,21,04,55,222,37,08,39,166,22*73
$GPGSV,4,2,13,11,40,245,29,12,05,033,,14,43,055,29,17,06,324,*7B
$GPGSV,4,3,13,22,24,112,27,23,08,249,17,25,12,069,15,31,58,133,24*7A
$GPGSV,4,4,13,32,76,331,33*4A
$GLGSV,3,1,10,66,37,078,21,67,62,349,20,68,20,296,16,75,04,018,*6E
$GLGSV,3,2,10,76,43,057,25,77,43,139,20,78,04,176,,82,25,245,08*65
$GLGSV,3,3,10,83,27,309,30,84,01,353,*6B
{"class":"SKY","xdop":0.45,"ydop":0.81,"vdop":1.35,"tdop":0.90,"hdop":1.01,"gdop":1.83,"pdop":1.69,"satellites":[{"PRN":1,"el":53,"az":279,"ss":35,"used":true,"gnssid":0,"svid":1},{"PRN":3,"el":30,"az":301,"ss":21,"used":true,"gnssid":0,"svid":3},{"PRN":4,"el":55,"az":222,"ss":37,"used":true,"gnssid":0,"svid":4},{"PRN":8,"el":39,"az":166,"ss":22,"used":false,"gnssid":0,"svid":8},{"PRN":11,"el":40,"az":245,"ss":29,"used":true,"gnssid":0,"svid":11},{"PRN":12,"el":5,"az":33,"ss":0,"used":false,"gnssid":0,"svid":12},{"PRN":14,"el":43,"az":55,"ss":29,"used":true,"gnssid":0,"svid":14},{"PRN":17,"el":6,"az":324,"ss":0,"used":false,"gnssid":0,"svid":17},{"PRN":22,"el":24,"az":112,"ss":27,"used":true,"gnssid":0,"svid":22},{"PRN":23,"el":8,"az":249,"ss":17,"used":false,"gnssid":0,"svid":23},{"PRN":25,"el":12,"az":69,"ss":15,"used":true,"gnssid":0,"svid":25},{"PRN":31,"el":58,"az":133,"ss":24,"used":true,"gnssid":0,"svid":31},{"PRN":32,"el":76,"az":331,"ss":33,"used":true,"gnssid":0,"svid":32},{"PRN":66,"el":37,"az":78,"ss":21,"used":false,"gnssid":6,"svid":1},{"PRN":67,"el":62,"az":349,"ss":20,"used":true,"gnssid":6,"svid":2},{"PRN":68,"el":20,"az":296,"ss":16,"used":true,"gnssid":6,"svid":3},{"PRN":75,"el":4,"az":18,"ss":0,"used":false,"gnssid":6,"svid":10},{"PRN":76,"el":43,"az":57,"ss":25,"used":true,"gnssid":6,"svid":11},{"PRN":77,"el":43,"az":139,"ss":20,"used":false,"gnssid":6,"svid":12},{"PRN":78,"el":4,"az":176,"ss":0,"used":false,"gnssid":6,"svid":13},{"PRN":82,"el":25,"az":245,"ss":8,"used":false,"gnssid":6,"svid":17},{"PRN":83,"el":27,"az":309,"ss":30,"used":true,"gnssid":6,"svid":18},{"PRN":84,"el":1,"az":353,"ss":0,"used":false,"gnssid":6,"svid":19}]}
$GNGLL,4404.13982,N,12118.85396,W,171939.00,A,A*6E
{"class":"TPV","mode":3,"time":"2015-03-18T17:19:39.000Z","ept":0.005,"lat":44.068997000,"lon":-121.314232667,"alt":1142.600,"epx":6.725,"epy":12.156,"epv":31.050,"track":0.0000,"speed":0.041,"climb":0.000,"eps":24.31}
$GNRMC,171940.00,A,4404.13975,N,12118.85390,W,0.111,,180315,,,A*78
$GNVTG,,T,,M,0.111,N,0.206,K,A*38
$GNGGA,171940.00,4404.13975,N,12118.85390,W,1,12,1.01,1142.3,M,-21.3,M,,*40
$GNGSA,A,3,01,11,31,14,22,32,04,25,03,,,,1.69,1.01,1.35*12
$GNGSA,A,3,67,83,76,68,,,,,,,,,1.69,1.01,1.35*10
$GPGSV,4,1,13,01,53,279,35,03,30,301,21,04,55,222,37,08,39,166,23*72
$GPGSV,4,2,13,11,40,245,28,12,05,033,,14,43,055,28,17,06,324,*7B
$GPGSV,4,3,13,22,24,112,26,23,08,249,16,25,12,069,15,31,58,133,23*7D
$GPGSV,4,4,13,32,76,331,33*4A
$GLGSV,3,1,10,66,37,078,21,67,62,349,20,68,20,296,16,75,04,018,*6E
$GLGSV,3,2,10,76,43,057,25,77,43,139,21,78,04,176,,82,25,245,12*6F
$GLGSV,3,3,10,83,27,309,30,84,01,353,*6B
{"class":"SKY","xdop":0.45,"ydop":0.81,"vdop":1.35,"tdop":0.90,"hdop":1.01,"gdop":1.83,"pdop":1.69,"satellites":[{"PRN":1,"el":53,"az":279,"ss":35,"used":true,"gnssid":0,"svid":1},{"PRN":3,"el":30,"az":301,"ss":21,"used":true,"gnssid":0,"svid":3},{"PRN":4,"el":55,"az":222,"ss":37,"used":true,"gnssid":0,"svid":4},{"PRN":8,"el":39,"az":166,"ss":23,"used":false,"gnssid":0,"svid":8},{"PRN":11,"el":40,"az":245,"ss":28,"used":true,"gnssid":0,"svid":11},{"PRN":12,"el":5,"az":33,"ss":0,"used":false,"gnssid":0,"svid":12},{"PRN":14,"el":43,"az":55,"ss":28,"used":true,"gnssid":0,"svid":14},{"PRN":17,"el":6,"az":324,"ss":0,"used":false,"gnssid":0,"svid":17},{"PRN":22,"el":24,"az":112,"ss":26,"used":true,"gnssid":0,"svid":22},{"PRN":23,"el":8,"az":249,"ss":16,"used":false,"gnssid":0,"svid":23},{"PRN":25,"el":12,"az":69,"ss":15,"used":true,"gnssid":0,"svid":25},{"PRN":31,"el":58,"az":133,"ss":23,"used":true,"gnssid":0,"svid":31},{"PRN":32,"el":76,"az":331,"ss":33,"used":true,"gnssid":0,"svid":32},{"PRN":66,"el":37,"az":78,"ss":21,"used":false,"gnssid":6,"svid":1},{"PRN":67,"el":62,"az":349,"ss":20,"used":true,"gnssid":6,"svid":2},{"PRN":68,"el":20,"az":296,"ss":16,"used":true,"gnssid":6,"svid":3},{"PRN":75,"el":4,"az":18,"ss":0,"used":false,"gnssid":6,"svid":10},{"PRN":76,"el":43,"az":57,"ss":25,"used":true,"gnssid":6,"svid":11},{"PRN":77,"el":43,"az":139,"ss":21,"used":false,"gnssid":6,"svid":12},{"PRN":78,"el":4,"az":176,"ss":0,"used":false,"gnssid":6,"svid":13},{"PRN":82,"el":25,"az":245,"ss":12,"used":false,"gnssid":6,"svid":17},{"PRN":83,"el":27,"az":309,"ss":30,"used":true,"gnssid":6,"svid":18},{"PRN":84,"el":1,"az":353,"ss":0,"used":false,"gnssid":6,"svid":19}]}
$GNGLL,4404.13975,N,12118.85390,W,171940.00,A,A*6E
{"class":"TPV","mode":3,"time":"2015-03-18T17:19:40.000Z","ept":0.005,"lat":44.068995833,"lon":-121.314231667,"alt":1142.300,"epx":6.725,"epy":12.156,"epv":31.050,"track":0.0000,"speed":0.057,"climb":0.000,"eps":24.31}
$GNRMC,171941.00,A,4404.13964,N,12118.85383,W,0.049,,180315,,,A*77
$GNVTG,,T,,M,0.049,N,0.090,K,A*39
$GNGGA,171941.00,4404.13964,N,12118.85383,W,1,12,1.08,1141.9,M,-21.3,M,,*43
$GNGSA,A,3,01,11,31,14,22,32,04,25,03,,,,1.88,1.08,1.54*13
$GNGSA,A,3,67,83,76,68,,,,,,,,,1.88,1.08,1.54*11
$GPGSV,4,1,13,01,53,279,35,03,30,301,20,04,55,222,37,08,39,166,23*73
$GPGSV,4,2,13,11,40,245,28,12,05,033,,14,42,056,28,17,06,324,*79
$GPGSV,4,3,13,22,24,112,26,23,08,249,15,25,12,069,17,31,58,133,22*7D
$GPGSV,4,4,13,32,76,331,33*4A
$GLGSV,3,1,10,66,37,078,20,67,62,349,20,68,20,296,15,75,04,018,*6C
$GLGSV,3,2,10,76,43,057,25,77,43,139,20,78,04,176,,82,25,245,12*6E
$GLGSV,3,3,10,83,27,309,30,84,01,353,*6B
{"class":"SKY","xdop":0.45,"ydop":0.81,"vdop":1.54,"tdop":0.90,"hdop":1.08,"gdop":1.83,"pdop":1.88,"satellites":[{"PRN":1,"el":53,"az":279,"ss":35,"used":true,"gnssid":0,"svid":1},{"PRN":3,"el":30,"az":301,"ss":20,"used":true,"gnssid":0,"svid":3},{"PRN":4,"el":55,"az":222,"ss":37,"used":true,"gnssid":0,"svid":4},{"PRN":8,"el":39,"az":166,"ss":23,"used":false,"gnssid":0,"svid":8},{"PRN":11,"el":40,"az":245,"ss":28,"used":true,"gnssid":0,"svid":11},{"PRN":12,"el":5,"az":33,"ss":0,"used":false,"gnssid":0,"svid":12},{"PRN":14,"el":42,"az":56,"ss":28,"used":true,"gnssid":0,"svid":14},{"PRN":17,"el":6,"az":324,"ss":0,"used":false,"gnssid":0,"svid":17},{"PRN":22,"el":24,"az":112,"ss":26,"used":true,"gnssid":0,"svid":22},{"PRN":23,"el":8,"az":249,"ss":15,"used":false,"gnssid":0,"svid":23},{"PRN":25,"el":12,"az":69,"ss":17,"used":true,"gnssid":0,"svid":25},{"PRN":31,"el":58,"az":133,"ss":22,"used":true,"gnssid":0,"svid":31},{"PRN":32,"el":76,"az":331,"ss":33,"used":true,"gnssid":0,"svid":32},{"PRN":66,"el":37,"az":78,"ss":20,"used":false,"gnssid":6,"svid":1},{"PRN":67,"el":62,"az":349,"ss":20,"used":true,"gnssid":6,"svid":2},{"PRN":68,"el":20,"az":296,"ss":15,"used":true,"gnssid":6,"svid":3},{"PRN":75,"el":4,"az":18,"ss":0,"used":false,"gnssid":6,"svid":10},{"PRN":76,"el":43,"az":57,"ss":25,"used":true,"gnssid":6,"svid":11},{"PRN":77,"el":43,"az":139,"ss":20,"used":false,"gnssid":6,"svid":12},{"PRN":78,"el":4,"az":176,"ss":0,"used":false,"gnssid":6,"svid":13},{"PRN":82,"el":25,"az":245,"ss":12,"used":false,"gnssid":6,"svid":17},{"PRN":83,"el":27,"az":309,"ss":30,"used":true,"gnssid":6,"svid":18},{"PRN":84,"el":1,"az":353,"ss":0,"used":false,"gnssid":6,"svid":19}]}
$GNGLL,4404.13964,N,12118.85383,W,171941.00,A,A*6D
{"class":"TPV","mode":3,"time":"2015-03-18T17:19:41.000Z","ept":0.005,"lat":44.068994000,"lon":-121.314230500,"alt":1141.900,"epx":6.725,"epy":12.156,"epv":31.050,"track":0.0000,"speed":0.025,"climb":0.000,"eps":24.31}
$GNRMC,171942.00,A,4404.13951,N,12118.85376,W,0.049,,180315,,,A*78
$GNVTG,,T,,M,0.049,N,0.091,K,A*38
$GNGGA,171942.00,4404.13951,N,12118.85376,W,1,12,1.12,1141.4,M,-21.3,M,,*4A
$GNGSA,A,3,01,11,31,14,22,32,04,25,03,,,,2.04,1.12,1.70*19
$GNGSA,A,3,67,83,76,,,,,,,,,,2.04,1.12,1.70*15
$GPGSV,4,1,13,01,53,279,35,03,30,301,20,04,55,222,37,08,39,166,23*73
$GPGSV,4,2,13,11,40,245,29,12,05,033,,14,42,056,28,17,06,324,*78
$GPGSV,4,3,13,22,24,112,27,23,08,249,12,25,12,069,17,31,58,133,21*78
$GPGSV,4,4,13,32,76,331,33*4A
$GLGSV,3,1,10,66,37,078,20,67,62,349,21,68,20,296,,75,04,018,*69
$GLGSV,3,2,10,76,43,057,25,77,43,139,20,78,04,176,,82,25,245,13*6F
$GLGSV,3,3,10,83,27,309,31,84,01,353,*6A
{"class":"SKY","xdop":0.50,"ydop":0.81,"vdop":1.70,"tdop":1.01,"hdop":1.12,"gdop":1.99,"pdop":2.04,"satellites":[{"PRN":1,"el":53,"az":279,"ss":35,"used":true,"gnssid":0,"svid":1},{"PRN":3,"el":30,"az":301,"ss":20,"used":true,"gnssid":0,"svid":3},{"PRN":4,"el":55,"az":222,"ss":37,"used":true,"gnssid":0,"svid":4},{"PRN":8,"el":39,"az":166,"ss":23,"used":false,"gnssid":0,"svid":8},{"PRN":11,"el":40,"az":245,"ss":29,"used":true,"gnssid":0,"svid":11},{"PRN":12,"el":5,"az":33,"ss":0,"used":false,"gnssid":0,"svid":12},{"PRN":14,"el":42,"az":56,"ss":28,"used":true,"gnssid":0,"svid":14},{"PRN":17,"el":6,"az":324,"ss":0,"used":false,"gnssid":0,"svid":17},{"PRN":22,"el":24,"az":112,"ss":27,"used":true,"gnssid":0,"svid":22},{"PRN":23,"el":8,"az":249,"ss":12,"used":false,"gnssid":0,"svid":23},{"PRN":25,"el":12,"az":69,"ss":17,"used":true,"gnssid":0,"svid":25},{"PRN":31,"el":58,"az":133,"ss":21,"used":true,"gnssid":0,"svid":31},{"PRN":32,"el":76,"az":331,"ss":33,"used":true,"gnssid":0,"svid":32},{"PRN":66,"el":37,"az":78,"ss":20,"used":false,"gnssid":6,"svid":1},{"PRN":67,"el":62,"az":349,"ss":21,"used":true,"gnssid":6,"svid":2},{"PRN":68,"el":20,"az":296,"ss":0,"used":false,"gnssid":6,"svid":3},{"PRN":75,"el":4,"az":18,"ss":0,"used":false,"gnssid":6,"svid":10},{"PRN":76,"el":43,"az":57,"ss":25,"used":true,"gnssid":6,"svid":11},{"PRN":77,"el":43,"az":139,"ss":20,"used":false,"gnssid":6,"svid":12},{"PRN":78,"el":4,"az":176,"ss":0,"used":false,"gnssid":6,"svid":13},{"PRN":82,"el":25,"az":245,"ss":13,"used":false,"gnssid":6,"svid":17},{"PRN":83,"el":27,"az":309,"ss":31,"used":true,"gnssid":6,"svid":18},{"PRN":84,"el":1,"az":353,"ss":0,"used":false,"gnssid":6,"svid":19}]}
$GNGLL,4404.13951,N,12118.85376,W,171942.00,A,A*62
{"class":"TPV","mode":3,"time":"2015-03-18T17:19:42.000Z","ept":0.005,"lat":44.068991833,"lon":-121.314229333,"alt":1141.400,"epx":6.714,"epy":12.178,"epv":35.420,"track":0.0000,"speed":0.025,"climb":0.000,"eps":24.33}
$GNRMC,171943.00,A,4404.13941,N,12118.85370,W,0.062,,180315,,,A*77
$GNVTG,,T,,M,0.062,N,0.116,K,A*3F
$GNGGA,171943.00,4404.13941,N,12118.85370,W,1,12,1.05,1140.9,M,-21.3,M,,*46
$GNGSA,A,3,01,11,31,14,22,32,04,25,03,,,,2.02,1.05,1.73*1A
$GNGSA,A,3,67,83,76,82,,,,,,,,,2.02,1.05,1.73*1C
$GPGSV,4,1,13,01,53,279,35,03,30,301,20,04,55,222,37,08,39,166,24*74
$GPGSV,4,2,13,11,40,245,29,12,05,033,,14,42,056,28,17,06,324,*78
$GPGSV,4,3,13,22,24,112,27,23,08,249,12,25,12,069,17,31,58,133,20*79
$GPGSV,4,4,13,32,76,331,33*4A
$GLGSV,3,1,10,66,37,078,20,67,62,349,21,68,20,296,,75,04,018,*69
$GLGSV,3,2,10,76,43,057,25,77,43,139,20,78,04,176,,82,25,245,15*69
$GLGSV,3,3,10,83,27,309,31,84,01,353,*6A
{"class":"SKY","xdop":0.45,"ydop":0.75,"vdop":1.73,"tdop":0.88,"hdop":1.05,"gdop":1.79,"pdop":2.02,"satellites":[{"PRN":1,"el":53,"az":279,"ss":35,"used":true,"gnssid":0,"svid":1},{"PRN":3,"el":30,"az":301,"ss":20,"used":true,"gnssid":0,"svid":3},{"PRN":4,"el":55,"az":222,"ss":37,"used":true,"gnssid":0,"svid":4},{"PRN":8,"el":39,"az":166,"ss":24,"used":false,"gnssid":0,"svid":8},{"PRN":11,"el":40,"az":245,"ss":29,"used":true,"gnssid":0,"svid":11},{"PRN":12,"el":5,"az":33,"ss":0,"used":false,"gnssid":0,"svid":12},{"PRN":14,"el":42,"az":56,"ss":28,"used":true,"gnssid":0,"svid":14},{"PRN":17,"el":6,"az":324,"ss":0,"used":false,"gnssid":0,"svid":17},{"PRN":22,"el":24,"az":112,"ss":27,"used":true,"gnssid":0,"svid":22},{"PRN":23,"el":8,"az":249,"ss":12,"used":false,"gnssid":0,"svid":23},{"PRN":25,"el":12,"az":69,"ss":17,"used":true,"gnssid":0,"svid":25},{"PRN":31,"el":58,"az":133,"ss":20,"used":true,"gnssid":0,"svid":31},{"PRN":32,"el":76,"az":331,"ss":33,"used":true,"gnssid":0,"svid":32},{"PRN":66,"el":37,"az":78,"ss":20,"used":false,"gnssid":6,"svid":1},{"PRN":67,"el":62,"az":349,"ss":21,"used":true,"gnssid":6,"svid":2},{"PRN":68,"el":20,"az":296,"ss":0,"used":false,"gnssid":6,"svid":3},{"PRN":75,"el":4,"az":18,"ss":0,"used":false,"gnssid":6,"svid":10},{"PRN":76,"el":43,"az":57,"ss":25,"used":true,"gnssid":6,"svid":11},{"PRN":77,"el":43,"az":139,"ss":20,"used":false,"gnssid":6,"svid":12},{"PRN":78,"el":4,"az":176,"ss":0,"used":false,"gnssid":6,"svid":13},{"PRN":82,"el":25,"az":245,"ss":15,"used":true,"gnssid":6,"svid":17},{"PRN":83,"el":27,"az":309,"ss":31,"used":true,"gnssid":6,"svid":18},{"PRN":84,"el":1,"az":353,"ss":0,"used":false,"gnssid":6,"svid":19}]}
$GNGLL,4404.13941,N,12118.85370,W,171943.00,A,A*64
{"class":"TPV","mode":3,"time":"2015-03-18T17:19:43.000Z","ept":0.005,"lat":44.068990167,"lon":-121.314228333,"alt":1140.900,"epx":7.426,"epy":12.216,"epv":39.100,"track":0.0000,"speed":0.032,"climb":0.000,"eps":24.39}
$GNRMC,171944.00,A,4404.13933,N,12118.85369,W,0.047,,180315,,,A*7A
$GNVTG,,T,,M,0.047,N,0.087,K,A*31
$GNGGA,171944.00,4404.13933,N,12118.85369,W,1,12,1.05,1140.6,M,-21.3,M,,*43
$GNGSA,A,3,01,11,31,14,22,32,04,25,03,,,,2.02,1.05,1.73*1A
$GNGSA,A,3,67,83,76,82,,,,,,,,,2.02,1.05,1.73*1C
$GPGSV,4,1,13,01,53,279,35,03,30,301,19,04,55,222,37,08,39,166,25*7F
$GPGSV,4,2,13,11,40,245,29,12,05,033,,14,42,056,28,17,06,323,*7F
$GPGSV,4,3,13,22,24,112,28,23,08,249,09,25,12,069,18,31,58,133,20*73
$GPGSV,4,4,13,32,76,331,33*4A
$GLGSV,3,1,10,66,37,078,19,67,62,349,21,68,20,296,,75,04,018,*63
$GLGSV,3,2,10,76,43,057,25,77,43,139,19,78,04,176,,82,25,245,16*60
$GLGSV,3,3,10,83,27,309,31,84,01,353,*6A
{"class":"SKY","xdop":0.45,"ydop":0.75,"vdop":1.73,"tdop":0.88,"hdop":1.05,"gdop":1.79,"pdop":2.02,"satellites":[{"PRN":1,"el":53,"az":279,"ss":35,"used":true,"gnssid":0,"svid":1},{"PRN":3,"el":30,"az":301,"ss":19,"used":true,"gnssid":0,"svid":3},{"PRN":4,"el":55,"az":222,"ss":37,"used":true,"gnssid":0,"svid":4},{"PRN":8,"el":39,"az":166,"ss":25,"used":false,"gnssid":0,"svid":8},{"PRN":11,"el":40,"az":245,"ss":29,"used":true,"gnssid":0,"svid":11},{"PRN":12,"el":5,"az":33,"ss":0,"used":false,"gnssid":0,"svid":12},{"PRN":14,"el":42,"az":56,"ss":28,"used":true,"gnssid":0,"svid":14},{"PRN":17,"el":6,"az":323,"ss":0,"used":false,"gnssid":0,"svid":17},{"PRN":22,"el":24,"az":112,"ss":28,"used":true,"gnssid":0,"svid":22},{"PRN":23,"el":8,"az":249,"ss":9,"used":false,"gnssid":0,"svid":23},{"PRN":25,"el":12,"az":69,"ss":18,"used":true,"gnssid":0,"svid":25},{"PRN":31,"el":58,"az":133,"ss":20,"used":true,"gnssid":0,"svid":31},{"PRN":32,"el":76,"az":331,"ss":33,"used":true,"gnssid":0,"svid":32},{"PRN":66,"el":37,"az":78,"ss":19,"used":false,"gnssid":6,"svid":1},{"PRN":67,"el":62,"az":349,"ss":21,"used":true,"gnssid":6,"svid":2},{"PRN":68,"el":20,"az":296,"ss":0,"used":false,"gnssid":6,"svid":3},{"PRN":75,"el":4,"az":18,"ss":0,"used":false,"gnssid":6,"svid":10},{"PRN":76,"el":43,"az":57,"ss":25,"used":true,"gnssid":6,"svid":11},{"PRN":77,"el":43,"az":139,"ss":19,"used":false,"gnssid":6,"svid":12},{"PRN":78,"el":4,"az":176,"ss":0,"used":false,"gnssid":6,"svid":13},{"PRN":82,"el":25,"az":245,"ss":16,"used":true,"gnssid":6,"svid":17},{"PRN":83,"el":27,"az":309,"ss":31,"used":true,"gnssid":6,"svid":18},{"PRN":84,"el":1,"az":353,"ss":0,"used":false,"gnssid":6,"svid":19}]}
$GNGLL,4404.13933,N,12118.85369,W,171944.00,A,A*6E
{"class":"TPV","mode":3,"time":"2015-03-18T17:19:44.000Z","ept":0.005,"lat":44.068988833,"lon":-121.314228167,"alt":1140.600,"epx":6.742,"epy":11.196,"epv":39.790,"track":0.0000,"speed":0.024,"climb":0.000,"eps":23.41}
$GNRMC,171945.00,A,4404.13924,N,12118.85369,W,0.065,,180315,,,A*7D
$GNVTG,,T,,M,0.065,N,0.121,K,A*3C
$GNGGA,171945.00,4404.13924,N,12118.85369,W,1,12,1.05,1140.3,M,-21.3,M,,*41
$GNGSA,A,3,01,11,31,14,22,32,04,25,03,,,,2.02,1.05,1.73*1A
$GNGSA,A,3,67,83,76,82,,,,,,,,,2.02,1.05,1.73*1C
$GPGSV,4,1,13,01,53,279,35,03,30,301,18,04,55,222,37,08,39,166,26*7D
$GPGSV,4,2,13,11,40,245,29,12,05,033,,14,42,056,28,17,06,323,*7F
$GPGSV,4,3,13,22,24,112,28,23,08,249,,25,12,069,18,31,58,133,20*7A
$GPGSV,4,4,13,32,76,331,34*4D
$GLGSV,3,1,10,66,37,078,20,67,62,349,22,68,20,296,,75,04,018,*6A
$GLGSV,3,2,10,76,43,057,25,77,43,139,19,78,04,176,,82,25,245,15*63
$GLGSV,3,3,10,83,27,309,31,84,01,353,*6A
{"class":"SKY","xdop":0.45,"ydop":0.75,"vdop":1.73,"tdop":0.88,"hdop":1.05,"gdop":1.79,"pdop":2.02,"satellites":[{"PRN":1,"el":53,"az":279,"ss":35,"used":true,"gnssid":0,"svid":1},{"PRN":3,"el":30,"az":301,"ss":18,"used":true,"gnssid":0,"svid":3},{"PRN":4,"el":55,"az":222,"ss":37,"used":true,"gnssid":0,"svid":4},{"PRN":8,"el":39,"az":166,"ss":26,"used":false,"gnssid":0,"svid":8},{"PRN":11,"el":40,"az":245,"ss":29,"used":true,"gnssid":0,"svid":11},{"PRN":12,"el":5,"az":33,"ss":0,"used":false,"gnssid":0,"svid":12},{"PRN":14,"el":42,"az":56,"ss":28,"used":true,"gnssid":0,"svid":14},{"PRN":17,"el":6,"az":323,"ss":0,"used":false,"gnssid":0,"svid":17},{"PRN":22,"el":24,"az":112,"ss":28,"used":true,"gnssid":0,"svid":22},{"PRN":23,"el":8,"az":249,"ss":0,"used":false,"gnssid":0,"svid":23},{"PRN":25,"el":12,"az":69,"ss":18,"used":true,"gnssid":0,"svid":25},{"PRN":31,"el":58,"az":133,"ss":20,"used":true,"gnssid":0,"svid":31},{"PRN":32,"el":76,"az":331,"ss":34,"used":true,"gnssid":0,"svid":32},{"PRN":66,"el":37,"az":78,"ss":20,"used":false,"gnssid":6,"svid":1},{"PRN":67,"el":62,"az":349,"ss":22,"used":true,"gnssid":6,"svid":2},{"PRN":68,"el":20,"az":296,"ss":0,"used":false,"gnssid":6,"svid":3},{"PRN":75,"el":4,"az":18,"ss":0,"used":false,"gnssid":6,"svid":10},{"PRN":76,"el":43,"az":57,"ss":25,"used":true,"gnssid":6,"svid":11},{"PRN":77,"el":43,"az":139,"ss":19,"used":false,"gnssid":6,"svid":12},{"PRN":78,"el":4,"az":176,"ss":0,"used":false,"gnssid":6,"svid":13},{"PRN":82,"el":25,"az":245,"ss":15,"used":true,"gnssid":6,"svid":17},{"PRN":83,"el":27,"az":309,"ss":31,"used":true,"gnssid":6,"svid":18},{"PRN":84,"el":1,"az":353,"ss":0,"used":false,"gnssid":6,"svid":19}]}
$GNGLL,4404.13924,N,12118.85369,W,171945.00,A,A*69
{"class":"TPV","mode":3,"time":"2015-03-18T17:19:45.000Z","ept":0.005,"lat":44.068987333,"lon":-121.314228167,"alt":1140.300,"epx":6.742,"epy":11.196,"epv":39.790,"track":0.0000,"speed":0.033,"climb":0.000,"eps":22.39}
$GNRMC,171946.00,A,4404.13916,N,12118.85369,W,0.065,,180315,,,A*7F
$GNVTG,,T,,M,0.065,N,0.120,K,A*3D
$GNGGA,171946.00,4404.13916,N,12118.85369,W,1,12,1.05,1140.0,M,-21.3,M,,*40
$GNGSA,A,3,01,11,31,14,22,32,04,25,03,,,,2.02,1.05,1.73*1A
$GNGSA,A,3,67,83,76,82,,,,,,,,,2.02,1.05,1.73*1C
$GPGSV,4,1,13,01,53,279,35,03,30,301,19,04,55,222,37,08,39,166,25*7F
$GPGSV,4,2,13,11,40,245,29,12,05,033,,14,42,056,29,17,06,323,*7E
$GPGSV,4,3,13,22,24,112,28,23,08,249,,25,12,069,17,31,58,133,19*7F
$GPGSV,4,4,13,32,76,331,34*4D
$GLGSV,3,1,10,66,37,078,20,67,62,349,22,68,20,296,,75,04,018,*6A
$GLGSV,3,2,10,76,43,057,26,77,43,139,19,78,04,176,,82,25,245,15*60
$GLGSV,3,3,10,83,27,309,31,84,01,353,*6A
{"class":"SKY","xdop":0.45,"ydop":0.75,"vdop":1.73,"tdop":0.88,"hdop":1.05,"gdop":1.79,"pdop":2.02,"satellites":[{"PRN":1,"el":53,"az":279,"ss":35,"used":true,"gnssid":0,"svid":1},{"PRN":3,"el":30,"az":301,"ss":19,"used":true,"gnssid":0,"svid":3},{"PRN":4,"el":55,"az":222,"ss":37,"used":true,"gnssid":0,"svid":4},{"PRN":8,"el":39,"az":166,"ss":25,"used":false,"gnssid":0,"svid":8},{"PRN":11,"el":40,"az":245,"ss":29,"used":true,"gnssid":0,"svid":11},{"PRN":12,"el":5,"az":33,"ss":0,"used":false,"gnssid":0,"svid":12},{"PRN":14,"el":42,"az":56,"ss":29,"used":true,"gnssid":0,"svid":14},{"PRN":17,"el":6,"az":323,"ss":0,"used":false,"gnssid":0,"svid":17},{"PRN":22,"el":24,"az":112,"ss":28,"used":true,"gnssid":0,"svid":22},{"PRN":23,"el":8,"az":249,"ss":0,"used":false,"gnssid":0,"svid":23},{"PRN":25,"el":12,"az":69,"ss":17,"used":true,"gnssid":0,"svid":25},{"PRN":31,"el":58,"az":133,"ss":19,"used":true,"gnssid":0,"svid":31},{"PRN":32,"el":76,"az":331,"ss":34,"used":true,"gnssid":0,"svid":32},{"PRN":66,"el":37,"az":78,"ss":20,"used":false,"gnssid":6,"svid":1},{"PRN":67,"el":62,"az":349,"ss":22,"used":true,"gnssid":6,"svid":2},{"PRN":68,"el":20,"az":296,"ss":0,"used":false,"gnssid":6,"svid":3},{"PRN":75,"el":4,"az":18,"ss":0,"used":false,"gnssid":6,"svid":10},{"PRN":76,"el":43,"az":57,"ss":26,"used":true,"gnssid":6,"svid":11},{"PRN":77,"el":43,"az":139,"ss":19,"used":false,"gnssid":6,"svid":12},{"PRN":78,"el":4,"az":176,"ss":0,"used":false,"gnssid":6,"svid":13},{"PRN":82,"el":25,"az":245,"ss":15,"used":true,"gnssid":6,"svid":17},{"PRN":83,"el":27,"az":309,"ss":31,"used":true,"gnssid":6,"svid":18},{"PRN":84,"el":1,"az":353,"ss":0,"used":false,"gnssid":6,"svid":19}]}
$GNGLL,4404.13916,N,12118.85369,W,171946.00,A,A*6B
{"class":"TPV","mode":3,"time":"2015-03-18T17:19:46.000Z","ept":0.005,"lat":44.068986000,"lon":-121.314228167,"alt":1140.000,"epx":6.742,"epy":11.196,"epv":39.790,"track":0.0000,"speed":0.033,"climb":0.000,"eps":22.39}
$GNRMC,171947.00,A,4404.13910,N,12118.85369,W,0.029,,180315,,,A*70
$GNVTG,,T,,M,0.029,N,0.055,K,A*36
$GNGGA,171947.00,4404.13910,N,12118.85369,W,1,12,1.05,1139.6,M,-21.3,M,,*4F
$GNGSA,A,3,01,11,31,14,22,32,04,25,03,,,,2.02,1.05,1.73*1A
$GNGSA,A,3,67,83,76,82,,,,,,,,,2.02,1.05,1.73*1C
$GPGSV,4,1,13,01,53,279,35,03,30,301,19,04,55,222,37,08,39,166,25*7F
$GPGSV,4,2,13,11,40,245,29,12,05,033,,14,42,056,28,17,06,323,*7F
$GPGSV,4,3,13,22,24,112,29,23,08,249,,25,12,069,17,31,58,133,19*7E
$GPGSV,4,4,13,32,76,331,34*4D
$GLGSV,3,1,10,66,37,078,19,67,62,349,23,68,20,296,,75,04,018,*61
$GLGSV,3,2,10,76,43,057,26,77,43,139,19,78,04,176,,82,25,245,15*60
$GLGSV,3,3,10,83,27,309,31,84,01,353,*6A
{"class":"SKY","xdop":0.45,"ydop":0.75,"vdop":1.73,"tdop":0.88,"hdop":1.05,"gdop":1.79,"pdop":2.02,"satellites":[{"PRN":1,"el":53,"az":279,"ss":35,"used":true,"gnssid":0,"svid":1},{"PRN":3,"el":30,"az":301,"ss":19,"used":true,"gnssid":0,"svid":3},{"PRN":4,"el":55,"az":222,"ss":37,"used":true,"gnssid":0,"svid":4},{"PRN":8,"el":39,"az":166,"ss":25,"used":false,"gnssid":0,"svid":8},{"PRN":11,"el":40,"az":245,"ss":29,"used":true,"gnssid":0,"svid":11},{"PRN":12,"el":5,"az":33,"ss":0,"used":false,"gnssid":0,"svid":12},{"PRN":14,"el":42,"az":56,"ss":28,"used":true,"gnssid":0,"svid":14},{"PRN":17,"el":6,"az":323,"ss":0,"used":false,"gnssid":0,"svid":17},{"PRN":22,"el":24,"az":112,"ss":29,"used":true,"gnssid":0,"svid":22},{"PRN":23,"el":8,"az":249,"ss":0,"used":false,"gnssid":0,"svid":23},{"PRN":25,"el":12,"az":69,"ss":17,"used":true,"gnssid":0,"svid":25},{"PRN":31,"el":58,"az":133,"ss":19,"used":true,"gnssid":0,"svid":31},{"PRN":32,"el":76,"az":331,"ss":34,"used":true,"gnssid":0,"svid":32},{"PRN":66,"el":37,"az":78,"ss":19,"used":false,"gnssid":6,"svid":1},{"PRN":67,"el":62,"az":349,"ss":23,"used":true,"gnssid":6,"svid":2},{"PRN":68,"el":20,"az":296,"ss":0,"used":false,"gnssid":6,"svid":3},{"PRN":75,"el":4,"az":18,"ss":0,"used":false,"gnssid":6,"svid":10},{"PRN":76,"el":43,"az":57,"ss":26,"used":true,"gnssid":6,"svid":11},{"PRN":77,"el":43,"az":139,"ss":19,"used":false,"gnssid":6,"svid":12},{"PRN":78,"el":4,"az":176,"ss":0,"used":false,"gnssid":6,"svid":13},{"PRN":82,"el":25,"az":245,"ss":15,"used":true,"gnssid":6,"svid":17},{"PRN":83,"el":27,"az":309,"ss":31,"used":true,"gnssid":6,"svid":18},{"PRN":84,"el":1,"az":353,"ss":0,"used":false,"gnssid":6,"svid":19}]}
$GNGLL,4404.13910,N,12118.85369,W,171947.00,A,A*6C
{"class":"TPV","mode":3,"time":"2015-03-18T17:19:47.000Z","ept":0.005,"lat":44.068985000,"lon":-121.314228167,"alt":1139.600,"epx":6.742,"epy":11.196,"epv":39.790,"track":0.0000,"speed":0.015,"climb":0.000,"eps":22.39}
$GNRMC,171948.00,A,4404.13902,N,12118.85371,W,0.059,,180315,,,A*72
$GNVTG,,T,,M,0.059,N,0.109,K,A*39
$GNGGA,171948.00,4404.13902,N,12118.85371,W,1,12,1.05,1139.4,M,-21.3,M,,*48
