# Name: NaviLock NL-8002U
# Chipset = u-blox 8
# Firmware = SW 2.01 (75331),HW 00080000,PROTVER 15.00
# Date = 2015-10-10
# Submitter = Manfred Günzl <osb_mgu@gmx.de>
# Location = Schramberg Sulgen, DE, 48.2N 8.4E
# Notes: In a not moving car.
#        Plugged device
#        Started logging
#        Started driving at 9:15
#        Some kilometer on public road in black forest
#        Stopped car
#        Waited some minutes.
#        Stopped logging.
#        Long trailing sections have been removed to bring the test load
#        down to a reasonable size.
$GNTXT,01,01,02,u-blox AG - www.u-blox.com*4E
$GNTXT,01,01,02,HW UBX-M80xx 00080000 *43
$GNTXT,01,01,02,ROM CORE 2.01 (75331) Oct 29 2013 13:28:17*4A
$GNTXT,01,01,02,PROTVER 15.00*01
$GNTXT,01,01,02,GNSS OTP:  GPS GLO, SEL:  GPS GLO*67
$GNTXT,01,01,02,ANTSUPERV=AC SD PDoS SR*3E
$GNTXT,01,01,02,ANTSTATUS=OK*25
$GNTXT,01,01,02,LLC FFFFFFFF-FFFFFFED-FFFFFFFF-FFFFFFFF-FFFFFFE9*4D
$GNRMC,091232.000,A,4813.0535,N,00824.8697,E,0.00,0.00,101015,,,A,V*06
$GNVTG,0.00,T,,M,0.00,N,0.0,K,A*13
$GNGGA,091232.000,4813.0535,N,00824.8697,E,1,12,0.7,765.8,M,47.4,M,,0000*45
$GNGSA,A,3,18,21,26,27,16,20,22,29,,,,,1.3,0.7,1.1,1*31
$GNGSA,A,3,76,87,86,77,70,85,71,75,,,,,1.3,0.7,1.1,2*39
$GPGSV,3,1,12,07,06,336,17,08,05,281,25,10,51,291,39,16,70,279,37,0*69
$GPGSV,3,2,12,18,39,130,36,20,28,055,33,21,66,068,39,22,17,168,38,0*6E
$GPGSV,3,3,12,26,65,188,41,27,39,287,40,29,15,092,31,31,01,199,39,0*6D
$GLGSV,3,1,11,69,10,015,28,70,32,068,44,71,21,124,43,75,06,190,38,0*71
$GLGSV,3,2,11,76,43,231,42,77,39,310,40,78,01,347,18,85,28,066,43,0*73
$GLGSV,3,3,11,86,68,359,45,87,30,276,45,94,68,359,,0*45
$GNGLL,4813.0535,N,00824.8697,E,091232.000,A,A*4F
$GNZDA,091232.000,10,10,2015,,*45
$GNRMC,091233.000,A,4813.0535,N,00824.8697,E,0.00,0.00,101015,,,A,V*07
$GNVTG,0.00,T,,M,0.00,N,0.0,K,A*13
$GNGGA,091233.000,4813.0535,N,00824.8697,E,1,12,0.7,765.8,M,47.4,M,,0000*44
$GNGSA,A,3,18,21,26,27,16,20,22,29,,,,,1.3,0.7,1.1,1*31
$GNGSA,A,3,76,87,86,77,70,85,71,75,,,,,1.3,0.7,1.1,2*39
$GPGSV,3,1,12,07,06,336,16,08,05,281,25,10,51,291,39,16,70,279,37,0*68
$GPGSV,3,2,12,18,39,130,37,20,28,055,32,21,66,068,39,22,17,168,38,0*6E
$GPGSV,3,3,12,26,65,188,41,27,39,287,40,29,15,092,31,31,01,199,39,0*6D
$GLGSV,3,1,11,69,10,015,28,70,32,068,44,71,21,124,43,75,06,190,38,0*71
$GLGSV,3,2,11,76,43,231,42,77,39,310,40,78,01,347,19,85,28,066,43,0*72
$GLGSV,3,3,11,86,68,359,45,87,30,276,45,94,68,359,,0*45
$GNGLL,4813.0535,N,00824.8697,E,091233.000,A,A*4E
$GNZDA,091233.000,10,10,2015,,*44
# Started driving
$GNRMC,091503.000,A,4813.0509,N,00824.8699,E,6.56,175.87,101015,,,A,V*0B
$GNVTG,175.87,T,,M,6.56,N,12.1,K,A*28
$GNGGA,091503.000,4813.0509,N,00824.8699,E,1,12,0.7,766.2,M,47.4,M,,0000*48
$GNGSA,A,3,18,21,26,27,16,20,22,29,08,,,,1.2,0.7,1.0,1*39
$GNGSA,A,3,76,87,86,77,70,85,71,,,,,,1.2,0.7,1.0,2*3B
$GPGSV,3,1,12,07,06,335,13,08,06,281,33,10,52,292,40,16,70,276,38,0*64
$GPGSV,3,2,12,18,39,129,41,20,27,054,31,21,66,067,38,22,18,168,42,0*66
$GPGSV,3,3,12,26,64,187,40,27,39,287,36,29,15,092,26,31,01,199,28,0*65
$GLGSV,3,1,11,69,09,014,28,70,33,066,44,71,23,123,44,75,04,189,32,0*75
$GLGSV,3,2,11,76,41,230,40,77,40,308,39,78,03,347,18,85,27,067,44,0*70
$GLGSV,3,3,11,86,68,004,44,87,31,277,46,94,68,002,,0*41
$GNGLL,4813.0509,N,00824.8699,E,091503.000,A,A*4B
$GNZDA,091503.000,10,10,2015,,*40
$GNRMC,091504.000,A,4813.0486,N,00824.8700,E,8.44,179.32,101015,,,A,V*04
$GNVTG,179.32,T,,M,8.44,N,15.6,K,A*27
$GNGGA,091504.000,4813.0486,N,00824.8700,E,1,12,0.7,766.3,M,47.4,M,,0000*49
$GNGSA,A,3,18,21,26,27,16,20,22,29,,,,,1.3,0.7,1.1,1*31
$GNGSA,A,3,76,87,86,77,70,85,71,69,,,,,1.3,0.7,1.1,2*34
$GPGSV,3,1,12,07,06,335,,08,06,281,28,10,52,292,41,16,70,276,38,0*6D
$GPGSV,3,2,12,18,39,129,39,20,27,054,37,21,66,067,38,22,18,168,42,0*6F
$GPGSV,3,3,12,26,64,187,40,27,39,287,36,29,15,092,32,31,01,199,27,0*6F
$GLGSV,3,1,11,69,09,014,28,70,33,066,44,71,23,123,45,75,04,189,31,0*77
$GLGSV,3,2,11,76,41,230,40,77,40,308,39,78,03,347,17,85,27,067,44,0*7F
$GLGSV,3,3,11,86,68,004,45,87,31,277,47,94,68,002,,0*41
$GNGLL,4813.0486,N,00824.8700,E,091504.000,A,A*4B
$GNZDA,091504.000,10,10,2015,,*47
$GNRMC,091505.000,A,4813.0461,N,00824.8697,E,9.48,186.63,101015,,,A,V*0A
$GNVTG,186.63,T,,M,9.48,N,17.6,K,A*2C
$GNGGA,091505.000,4813.0461,N,00824.8697,E,1,12,0.7,766.4,M,47.4,M,,0000*49
$GNGSA,A,3,18,21,26,27,16,20,22,29,,,,,1.3,0.7,1.1,1*31
$GNGSA,A,3,76,87,86,77,70,85,71,69,,,,,1.3,0.7,1.1,2*34
$GPGSV,3,1,12,07,06,335,25,08,06,281,30,10,52,292,40,16,70,276,37,0*6D
$GPGSV,3,2,12,18,39,129,38,20,27,054,37,21,66,067,38,22,18,168,38,0*63
$GPGSV,3,3,12,26,64,187,40,27,39,287,38,29,15,092,33,31,01,199,28,0*6F
$GLGSV,3,1,11,69,09,014,28,70,33,066,44,71,23,123,45,75,04,189,33,0*75
$GLGSV,3,2,11,76,41,230,40,77,40,308,40,78,03,347,17,85,27,067,43,0*76
$GLGSV,3,3,11,86,68,004,45,87,31,277,46,94,68,004,,0*46
$GNGLL,4813.0461,N,00824.8697,E,091505.000,A,A*4C
$GNZDA,091505.000,10,10,2015,,*46
$GNRMC,091506.000,A,4813.0434,N,00824.8691,E,9.26,189.18,101015,,,A,V*04
$GNVTG,189.18,T,,M,9.26,N,17.2,K,A*23
$GNGGA,091506.000,4813.0434,N,00824.8691,E,1,12,0.7,766.4,M,47.4,M,,0000*4C
$GNGSA,A,3,18,21,26,27,16,20,22,29,,,,,1.3,0.7,1.1,1*31
$GNGSA,A,3,76,87,86,77,70,85,71,69,,,,,1.3,0.7,1.1,2*34
$GPGSV,3,1,12,07,06,335,23,08,06,281,32,10,52,292,39,16,70,276,37,0*67
$GPGSV,3,2,12,18,39,129,38,20,27,054,35,21,66,067,39,22,18,168,38,0*60
$GPGSV,3,3,12,26,64,187,40,27,39,287,39,29,15,092,32,31,01,199,30,0*66
$GLGSV,3,1,11,69,09,014,31,70,33,066,42,71,23,123,44,75,04,189,34,0*7D
$GLGSV,3,2,11,76,41,230,39,77,40,308,40,78,03,347,15,85,27,067,41,0*78
$GLGSV,3,3,11,86,68,004,45,87,31,277,47,94,68,004,,0*47
$GNGLL,4813.0434,N,00824.8691,E,091506.000,A,A*49
$GNZDA,091506.000,10,10,2015,,*45
$GNRMC,091507.000,A,4813.0407,N,00824.8685,E,10.09,187.74,101015,,,A,V*31
$GNVTG,187.74,T,,M,10.09,N,18.7,K,A*18
$GNGGA,091507.000,4813.0407,N,00824.8685,E,1,12,0.7,766.4,M,47.4,M,,0000*48
$GNGSA,A,3,18,21,26,27,16,20,22,29,,,,,1.3,0.7,1.1,1*31
$GNGSA,A,3,76,87,86,77,70,85,71,69,,,,,1.3,0.7,1.1,2*34
$GPGSV,3,1,12,07,06,335,22,08,06,281,32,10,52,292,39,16,70,276,37,0*66
$GPGSV,3,2,12,18,39,129,38,20,27,054,34,21,66,067,39,22,18,168,38,0*61
$GPGSV,3,3,12,26,64,187,40,27,39,287,39,29,15,092,31,31,01,199,31,0*64
$GLGSV,3,1,11,69,09,014,32,70,33,066,44,71,23,123,44,75,04,189,35,0*79
$GLGSV,3,2,11,76,41,230,39,77,40,308,40,78,03,347,15,85,27,067,43,0*7A
$GLGSV,3,3,11,86,68,004,45,87,31,277,47,94,68,004,,0*47
$GNGLL,4813.0407,N,00824.8685,E,091507.000,A,A*4D
$GNZDA,091507.000,10,10,2015,,*44
# Stopped car
$GNRMC,093452.000,A,4813.2480,N,00825.3129,E,0.00,281.08,101015,,,A,V*02
$GNVTG,281.08,T,,M,0.00,N,0.0,K,A*10
$GNGGA,093452.000,4813.2480,N,00825.3129,E,1,12,0.6,723.7,M,47.4,M,,0000*4E
$GNGSA,A,3,18,21,26,27,16,22,07,08,,,,,1.3,0.6,1.1,1*36
$GNGSA,A,3,78,76,87,85,86,77,70,71,,,,,1.3,0.6,1.1,2*35
$GPGSV,4,1,13,07,10,329,38,08,13,286,38,10,61,297,38,13,02,038,,0*60
$GPGSV,4,2,13,15,04,069,29,16,72,246,37,18,45,120,36,20,22,048,16,0*64
$GPGSV,4,3,13,21,58,063,37,22,26,166,34,26,54,182,43,27,47,293,42,0*6C
$GPGSV,4,4,13,29,08,098,30,0*56
$GLGSV,3,1,11,69,02,009,25,70,33,054,42,71,31,116,39,72,02,157,,0*74
$GLGSV,3,2,11,76,31,223,38,77,42,294,36,78,10,343,31,85,19,074,40,0*75
$GLGSV,3,3,11,86,64,029,44,87,39,287,44,94,64,029,,0*42
$GNGLL,4813.2480,N,00825.3129,E,093452.000,A,A*48
$GNZDA,093452.000,10,10,2015,,*47
$GNRMC,093453.000,A,4813.2480,N,00825.3129,E,0.00,281.08,101015,,,A,V*03
$GNVTG,281.08,T,,M,0.00,N,0.0,K,A*10
$GNGGA,093453.000,4813.2480,N,00825.3129,E,1,12,0.6,723.7,M,47.4,M,,0000*4F
$GNGSA,A,3,18,21,26,27,16,22,07,08,,,,,1.3,0.6,1.1,1*36
$GNGSA,A,3,78,76,87,85,86,77,70,71,,,,,1.3,0.6,1.1,2*35
$GPGSV,4,1,13,07,10,329,38,08,13,286,38,10,61,297,38,13,02,038,,0*60
$GPGSV,4,2,13,15,04,069,30,16,72,246,37,18,45,120,36,20,22,048,17,0*6D
$GPGSV,4,3,13,21,58,063,37,22,26,166,34,26,54,182,43,27,47,293,43,0*6D
$GPGSV,4,4,13,29,08,098,30,0*56
$GLGSV,3,1,11,69,02,009,25,70,33,054,42,71,31,116,39,72,02,157,,0*74
$GLGSV,3,2,11,76,31,223,38,77,42,294,35,78,10,343,30,85,19,074,41,0*76
$GLGSV,3,3,11,86,64,029,45,87,39,287,44,94,64,029,,0*43
$GNGLL,4813.2480,N,00825.3129,E,093453.000,A,A*49
$GNZDA,093453.000,10,10,2015,,*46
