$GPTXT,01,01,02,u-blox ag - www.u-blox.com*50
$GPTXT,01,01,02,HW  UBX-G5xxx  00040005 *1B
$GPTXT,01,01,02,EXT CORE 5.00 (28483) Jun  6 2008 14:42:32*5F
$GPTXT,01,01,02,ROM BASE 4.00*12
$GPTXT,01,01,02,MOD LEA-5H-0*2E
$GPTXT,01,01,02,ANTSUPERV=AC SD PDoS SR*20
$GPTXT,01,01,02,ANTSTATUS=OK*3B
$GPRMC,104706.000,A,5405.6081,N,01049.4791,E,0.24,18.02,240709,,,A*53
{"class":"TPV","mode":2,"time":"2009-07-24T10:47:06.000Z","ept":0.005,"lat":54.093468333,"lon":10.824651667,"track":18.0200,"speed":0.123}
$GPVTG,18.02,T,,M,0.24,N,0.4,K,A*34
$GPGGA,104706.000,5405.6081,N,01049.4791,E,1,08,1.1,40.8,M,43.6,M,,0000*61
{"class":"TPV","mode":3,"time":"2009-07-24T10:47:06.000Z","ept":0.005,"lat":54.093468333,"lon":10.824651667,"alt":40.800,"track":18.0200,"speed":0.123}
$GPGSA,A,3,28,18,27,19,08,09,10,15,,,,,1.7,1.1,1.3*3C
{"class":"TPV","mode":3,"time":"2009-07-24T10:47:06.000Z","ept":0.005,"lat":54.093468333,"lon":10.824651667,"alt":40.800,"epv":29.900,"track":18.0200,"speed":0.123,"climb":0.000}
$GPGSV,3,1,12,08,30,075,25,09,20,262,32,10,16,194,27,15,74,263,46*77
$GPGSV,3,2,12,17,14,127,19,18,22,315,27,19,05,014,27,21,00,284,*7F
$GPGSV,3,3,12,22,00,337,19,26,03,304,,27,41,264,26,28,58,081,30*7C
{"class":"SKY","xdop":0.62,"ydop":0.71,"vdop":1.30,"tdop":0.79,"hdop":1.10,"gdop":1.80,"pdop":1.70,"satellites":[{"PRN":8,"el":30,"az":75,"ss":25,"used":true,"gnssid":0,"svid":8},{"PRN":9,"el":20,"az":262,"ss":32,"used":true,"gnssid":0,"svid":9},{"PRN":10,"el":16,"az":194,"ss":27,"used":true,"gnssid":0,"svid":10},{"PRN":15,"el":74,"az":263,"ss":46,"used":true,"gnssid":0,"svid":15},{"PRN":17,"el":14,"az":127,"ss":19,"used":false,"gnssid":0,"svid":17},{"PRN":18,"el":22,"az":315,"ss":27,"used":true,"gnssid":0,"svid":18},{"PRN":19,"el":5,"az":14,"ss":27,"used":true,"gnssid":0,"svid":19},{"PRN":21,"el":0,"az":284,"ss":0,"used":false,"gnssid":0,"svid":21},{"PRN":22,"el":0,"az":337,"ss":19,"used":false,"gnssid":0,"svid":22},{"PRN":26,"el":3,"az":304,"ss":0,"used":false,"gnssid":0,"svid":26},{"PRN":27,"el":41,"az":264,"ss":26,"used":true,"gnssid":0,"svid":27},{"PRN":28,"el":58,"az":81,"ss":30,"used":true,"gnssid":0,"svid":28}]}
$GPGLL,5405.6081,N,01049.4791,E,104706.000,A,A*51
{"class":"TPV","mode":3,"time":"2009-07-24T10:47:06.000Z","ept":0.005,"lat":54.093468333,"lon":10.824651667,"alt":40.800,"epx":9.255,"epy":10.588,"epv":29.900,"track":18.0200,"speed":0.123,"climb":0.000}
$GPRMC,104707.000,A,5405.6083,N,01049.4822,E,0.50,19.27,240709,,,A*52
$GPVTG,19.27,T,,M,0.50,N,0.9,K,A*3C
$GPGGA,104707.000,5405.6083,N,01049.4822,E,1,08,1.0,40.6,M,43.6,M,,0000*6A
$GPGSA,A,3,28,18,27,19,08,09,10,15,,,,,1.6,1.0,1.3*3C
$GPGSV,3,1,12,08,30,075,22,09,20,262,31,10,16,194,27,15,74,263,46*73
$GPGSV,3,2,12,17,14,127,17,18,22,315,27,19,05,014,26,21,00,284,*70
$GPGSV,3,3,12,22,00,337,17,26,03,304,,27,41,264,27,28,58,081,30*73
{"class":"SKY","xdop":0.62,"ydop":0.71,"vdop":1.30,"tdop":0.79,"hdop":1.00,"gdop":1.80,"pdop":1.60,"satellites":[{"PRN":8,"el":30,"az":75,"ss":22,"used":true,"gnssid":0,"svid":8},{"PRN":9,"el":20,"az":262,"ss":31,"used":true,"gnssid":0,"svid":9},{"PRN":10,"el":16,"az":194,"ss":27,"used":true,"gnssid":0,"svid":10},{"PRN":15,"el":74,"az":263,"ss":46,"used":true,"gnssid":0,"svid":15},{"PRN":17,"el":14,"az":127,"ss":17,"used":false,"gnssid":0,"svid":17},{"PRN":18,"el":22,"az":315,"ss":27,"used":true,"gnssid":0,"svid":18},{"PRN":19,"el":5,"az":14,"ss":26,"used":true,"gnssid":0,"svid":19},{"PRN":21,"el":0,"az":284,"ss":0,"used":false,"gnssid":0,"svid":21},{"PRN":22,"el":0,"az":337,"ss":17,"used":false,"gnssid":0,"svid":22},{"PRN":26,"el":3,"az":304,"ss":0,"used":false,"gnssid":0,"svid":26},{"PRN":27,"el":41,"az":264,"ss":27,"used":true,"gnssid":0,"svid":27},{"PRN":28,"el":58,"az":81,"ss":30,"used":true,"gnssid":0,"svid":28}]}
$GPGLL,5405.6083,N,01049.4822,E,104707.000,A,A*55
{"class":"TPV","mode":3,"time":"2009-07-24T10:47:07.000Z","ept":0.005,"lat":54.093471667,"lon":10.824703333,"alt":40.600,"epx":9.255,"epy":10.588,"epv":29.900,"track":19.2700,"speed":0.257,"climb":0.000,"eps":21.18}
$GPRMC,104708.000,A,5405.6082,N,01049.4856,E,0.32,19.19,240709,,,A*56
$GPVTG,19.19,T,,M,0.32,N,0.6,K,A*3A
$GPGGA,104708.000,5405.6082,N,01049.4856,E,1,08,0.9,40.0,M,43.6,M,,0000*69
$GPGSA,A,3,28,18,27,19,08,09,10,15,,,,,1.6,0.9,1.3*34
$GPGSV,3,1,12,08,30,075,23,09,20,262,32,10,16,194,26,15,74,263,45*73
$GPGSV,3,2,12,17,14,127,15,18,22,315,26,19,05,014,26,21,00,284,*73
$GPGSV,3,3,12,22,00,337,15,26,03,304,,27,41,264,28,28,58,081,30*7E
{"class":"SKY","xdop":0.62,"ydop":0.71,"vdop":1.30,"tdop":0.79,"hdop":0.90,"gdop":1.80,"pdop":1.60,"satellites":[{"PRN":8,"el":30,"az":75,"ss":23,"used":true,"gnssid":0,"svid":8},{"PRN":9,"el":20,"az":262,"ss":32,"used":true,"gnssid":0,"svid":9},{"PRN":10,"el":16,"az":194,"ss":26,"used":true,"gnssid":0,"svid":10},{"PRN":15,"el":74,"az":263,"ss":45,"used":true,"gnssid":0,"svid":15},{"PRN":17,"el":14,"az":127,"ss":15,"used":false,"gnssid":0,"svid":17},{"PRN":18,"el":22,"az":315,"ss":26,"used":true,"gnssid":0,"svid":18},{"PRN":19,"el":5,"az":14,"ss":26,"used":true,"gnssid":0,"svid":19},{"PRN":21,"el":0,"az":284,"ss":0,"used":false,"gnssid":0,"svid":21},{"PRN":22,"el":0,"az":337,"ss":15,"used":false,"gnssid":0,"svid":22},{"PRN":26,"el":3,"az":304,"ss":0,"used":false,"gnssid":0,"svid":26},{"PRN":27,"el":41,"az":264,"ss":28,"used":true,"gnssid":0,"svid":27},{"PRN":28,"el":58,"az":81,"ss":30,"used":true,"gnssid":0,"svid":28}]}
$GPGLL,5405.6082,N,01049.4856,E,104708.000,A,A*58
{"class":"TPV","mode":3,"time":"2009-07-24T10:47:08.000Z","ept":0.005,"lat":54.093470000,"lon":10.824760000,"alt":40.000,"epx":9.255,"epy":10.588,"epv":29.900,"track":19.1900,"speed":0.165,"climb":0.000,"eps":21.18}
$GPRMC,104709.000,A,5405.6083,N,01049.4868,E,0.37,21.29,240709,,,A*56
$GPVTG,21.29,T,,M,0.37,N,0.7,K,A*36
$GPGGA,104709.000,5405.6083,N,01049.4868,E,1,08,0.9,40.6,M,43.6,M,,0000*62
$GPGSA,A,3,28,18,27,19,08,09,10,15,,,,,1.6,0.9,1.3*34
$GPGSV,3,1,12,08,30,075,24,09,20,262,31,10,16,194,25,15,74,263,44*75
$GPGSV,3,2,12,17,14,127,14,18,22,315,25,19,05,014,26,21,00,284,*71
$GPGSV,3,3,12,22,00,337,16,26,03,304,,27,41,264,26,28,58,081,29*7B
{"class":"SKY","xdop":0.62,"ydop":0.71,"vdop":1.30,"tdop":0.79,"hdop":0.90,"gdop":1.80,"pdop":1.60,"satellites":[{"PRN":8,"el":30,"az":75,"ss":24,"used":true,"gnssid":0,"svid":8},{"PRN":9,"el":20,"az":262,"ss":31,"used":true,"gnssid":0,"svid":9},{"PRN":10,"el":16,"az":194,"ss":25,"used":true,"gnssid":0,"svid":10},{"PRN":15,"el":74,"az":263,"ss":44,"used":true,"gnssid":0,"svid":15},{"PRN":17,"el":14,"az":127,"ss":14,"used":false,"gnssid":0,"svid":17},{"PRN":18,"el":22,"az":315,"ss":25,"used":true,"gnssid":0,"svid":18},{"PRN":19,"el":5,"az":14,"ss":26,"used":true,"gnssid":0,"svid":19},{"PRN":21,"el":0,"az":284,"ss":0,"used":false,"gnssid":0,"svid":21},{"PRN":22,"el":0,"az":337,"ss":16,"used":false,"gnssid":0,"svid":22},{"PRN":26,"el":3,"az":304,"ss":0,"used":false,"gnssid":0,"svid":26},{"PRN":27,"el":41,"az":264,"ss":26,"used":true,"gnssid":0,"svid":27},{"PRN":28,"el":58,"az":81,"ss":29,"used":true,"gnssid":0,"svid":28}]}
$GPGLL,5405.6083,N,01049.4868,E,104709.000,A,A*55
{"class":"TPV","mode":3,"time":"2009-07-24T10:47:09.000Z","ept":0.005,"lat":54.093471667,"lon":10.824780000,"alt":40.600,"epx":9.255,"epy":10.588,"epv":29.900,"track":21.2900,"speed":0.190,"climb":0.000,"eps":21.18}
$GPRMC,104710.000,A,5405.6081,N,01049.4876,E,0.94,27.15,240709,,,A*53
$GPVTG,27.15,T,,M,0.94,N,1.8,K,A*38
$GPGGA,104710.000,5405.6081,N,01049.4876,E,1,08,0.9,40.4,M,43.6,M,,0000*65
$GPGSA,A,3,28,18,27,19,08,09,10,15,,,,,1.6,0.9,1.3*34
$GPGSV,3,1,12,08,30,075,24,09,20,262,30,10,16,194,25,15,74,263,44*74
$GPGSV,3,2,12,17,14,127,14,18,22,315,24,19,05,014,26,21,00,284,*70
$GPGSV,3,3,12,22,00,337,16,26,03,304,,27,41,264,25,28,58,081,30*70
{"class":"SKY","xdop":0.62,"ydop":0.71,"vdop":1.30,"tdop":0.79,"hdop":0.90,"gdop":1.80,"pdop":1.60,"satellites":[{"PRN":8,"el":30,"az":75,"ss":24,"used":true,"gnssid":0,"svid":8},{"PRN":9,"el":20,"az":262,"ss":30,"used":true,"gnssid":0,"svid":9},{"PRN":10,"el":16,"az":194,"ss":25,"used":true,"gnssid":0,"svid":10},{"PRN":15,"el":74,"az":263,"ss":44,"used":true,"gnssid":0,"svid":15},{"PRN":17,"el":14,"az":127,"ss":14,"used":false,"gnssid":0,"svid":17},{"PRN":18,"el":22,"az":315,"ss":24,"used":true,"gnssid":0,"svid":18},{"PRN":19,"el":5,"az":14,"ss":26,"used":true,"gnssid":0,"svid":19},{"PRN":21,"el":0,"az":284,"ss":0,"used":false,"gnssid":0,"svid":21},{"PRN":22,"el":0,"az":337,"ss":16,"used":false,"gnssid":0,"svid":22},{"PRN":26,"el":3,"az":304,"ss":0,"used":false,"gnssid":0,"svid":26},{"PRN":27,"el":41,"az":264,"ss":25,"used":true,"gnssid":0,"svid":27},{"PRN":28,"el":58,"az":81,"ss":30,"used":true,"gnssid":0,"svid":28}]}
$GPGLL,5405.6081,N,01049.4876,E,104710.000,A,A*50
{"class":"TPV","mode":3,"time":"2009-07-24T10:47:10.000Z","ept":0.005,"lat":54.093468333,"lon":10.824793333,"alt":40.400,"epx":9.255,"epy":10.588,"epv":29.900,"track":27.1500,"speed":0.484,"climb":0.000,"eps":21.18}
$GPRMC,104711.000,A,5405.6083,N,01049.4879,E,0.63,28.37,240709,,,A*58
$GPVTG,28.37,T,,M,0.63,N,1.2,K,A*35
$GPGGA,104711.000,5405.6083,N,01049.4879,E,1,08,1.0,39.8,M,43.6,M,,0000*63
$GPGSA,A,3,28,18,27,19,08,09,10,15,,,,,1.6,1.0,1.3*3C
$GPGSV,3,1,12,08,30,075,24,09,20,262,30,10,16,194,24,15,74,263,44*75
$GPGSV,3,2,12,17,14,127,,18,22,315,22,19,05,014,26,21,00,284,*73
$GPGSV,3,3,12,22,00,337,,26,03,304,,27,41,264,28,28,58,081,30*7A
{"class":"SKY","xdop":0.62,"ydop":0.71,"vdop":1.30,"tdop":0.79,"hdop":1.00,"gdop":1.80,"pdop":1.60,"satellites":[{"PRN":8,"el":30,"az":75,"ss":24,"used":true,"gnssid":0,"svid":8},{"PRN":9,"el":20,"az":262,"ss":30,"used":true,"gnssid":0,"svid":9},{"PRN":10,"el":16,"az":194,"ss":24,"used":true,"gnssid":0,"svid":10},{"PRN":15,"el":74,"az":263,"ss":44,"used":true,"gnssid":0,"svid":15},{"PRN":17,"el":14,"az":127,"ss":0,"used":false,"gnssid":0,"svid":17},{"PRN":18,"el":22,"az":315,"ss":22,"used":true,"gnssid":0,"svid":18},{"PRN":19,"el":5,"az":14,"ss":26,"used":true,"gnssid":0,"svid":19},{"PRN":21,"el":0,"az":284,"ss":0,"used":false,"gnssid":0,"svid":21},{"PRN":22,"el":0,"az":337,"ss":0,"used":false,"gnssid":0,"svid":22},{"PRN":26,"el":3,"az":304,"ss":0,"used":false,"gnssid":0,"svid":26},{"PRN":27,"el":41,"az":264,"ss":28,"used":true,"gnssid":0,"svid":27},{"PRN":28,"el":58,"az":81,"ss":30,"used":true,"gnssid":0,"svid":28}]}
$GPGLL,5405.6083,N,01049.4879,E,104711.000,A,A*5C
{"class":"TPV","mode":3,"time":"2009-07-24T10:47:11.000Z","ept":0.005,"lat":54.093471667,"lon":10.824798333,"alt":39.800,"epx":9.255,"epy":10.588,"epv":29.900,"track":28.3700,"speed":0.324,"climb":0.000,"eps":21.18}
$GPRMC,104712.000,A,5405.6086,N,01049.4879,E,1.23,24.74,240709,,,A*50
$GPVTG,24.74,T,,M,1.23,N,2.3,K,A*39
$GPGGA,104712.000,5405.6086,N,01049.4879,E,1,08,1.0,39.2,M,43.6,M,,0000*6F
$GPGSA,A,3,28,18,27,19,08,09,10,15,,,,,1.6,1.0,1.3*3C
$GPGSV,3,1,12,08,30,075,23,09,20,262,29,10,16,194,22,15,74,263,42*7A
$GPGSV,3,2,12,17,14,127,,18,22,315,18,19,05,014,26,21,00,284,*7A
$GPGSV,3,3,12,22,00,337,,26,03,304,,27,41,264,29,28,58,081,29*73
{"class":"SKY","xdop":0.62,"ydop":0.71,"vdop":1.30,"tdop":0.79,"hdop":1.00,"gdop":1.80,"pdop":1.60,"satellites":[{"PRN":8,"el":30,"az":75,"ss":23,"used":true,"gnssid":0,"svid":8},{"PRN":9,"el":20,"az":262,"ss":29,"used":true,"gnssid":0,"svid":9},{"PRN":10,"el":16,"az":194,"ss":22,"used":true,"gnssid":0,"svid":10},{"PRN":15,"el":74,"az":263,"ss":42,"used":true,"gnssid":0,"svid":15},{"PRN":17,"el":14,"az":127,"ss":0,"used":false,"gnssid":0,"svid":17},{"PRN":18,"el":22,"az":315,"ss":18,"used":true,"gnssid":0,"svid":18},{"PRN":19,"el":5,"az":14,"ss":26,"used":true,"gnssid":0,"svid":19},{"PRN":21,"el":0,"az":284,"ss":0,"used":false,"gnssid":0,"svid":21},{"PRN":22,"el":0,"az":337,"ss":0,"used":false,"gnssid":0,"svid":22},{"PRN":26,"el":3,"az":304,"ss":0,"used":false,"gnssid":0,"svid":26},{"PRN":27,"el":41,"az":264,"ss":29,"used":true,"gnssid":0,"svid":27},{"PRN":28,"el":58,"az":81,"ss":29,"used":true,"gnssid":0,"svid":28}]}
$GPGLL,5405.6086,N,01049.4879,E,104712.000,A,A*5A
{"class":"TPV","mode":3,"time":"2009-07-24T10:47:12.000Z","ept":0.005,"lat":54.093476667,"lon":10.824798333,"alt":39.200,"epx":9.255,"epy":10.588,"epv":29.900,"track":24.7400,"speed":0.633,"climb":0.000,"eps":21.18}
$GPRMC,104713.000,A,5405.6087,N,01049.4885,E,0.19,24.74,240709,,,A*5B
$GPVTG,24.74,T,,M,0.19,N,0.4,K,A*34
$GPGGA,104713.000,5405.6087,N,01049.4885,E,1,08,1.0,39.0,M,43.6,M,,0000*6E
$GPGSA,A,3,28,18,27,19,08,09,10,15,,,,,1.6,1.0,1.3*3C
$GPGSV,3,1,12,08,30,075,25,09,20,262,29,10,16,194,23,15,74,263,43*7C
$GPGSV,3,2,12,17,14,127,,18,22,315,19,19,05,014,27,21,00,284,*7A
$GPGSV,3,3,12,22,00,337,,26,03,304,,27,41,264,31,28,58,081,29*7A
{"class":"SKY","xdop":0.62,"ydop":0.71,"vdop":1.30,"tdop":0.79,"hdop":1.00,"gdop":1.80,"pdop":1.60,"satellites":[{"PRN":8,"el":30,"az":75,"ss":25,"used":true,"gnssid":0,"svid":8},{"PRN":9,"el":20,"az":262,"ss":29,"used":true,"gnssid":0,"svid":9},{"PRN":10,"el":16,"az":194,"ss":23,"used":true,"gnssid":0,"svid":10},{"PRN":15,"el":74,"az":263,"ss":43,"used":true,"gnssid":0,"svid":15},{"PRN":17,"el":14,"az":127,"ss":0,"used":false,"gnssid":0,"svid":17},{"PRN":18,"el":22,"az":315,"ss":19,"used":true,"gnssid":0,"svid":18},{"PRN":19,"el":5,"az":14,"ss":27,"used":true,"gnssid":0,"svid":19},{"PRN":21,"el":0,"az":284,"ss":0,"used":false,"gnssid":0,"svid":21},{"PRN":22,"el":0,"az":337,"ss":0,"used":false,"gnssid":0,"svid":22},{"PRN":26,"el":3,"az":304,"ss":0,"used":false,"gnssid":0,"svid":26},{"PRN":27,"el":41,"az":264,"ss":31,"used":true,"gnssid":0,"svid":27},{"PRN":28,"el":58,"az":81,"ss":29,"used":true,"gnssid":0,"svid":28}]}
$GPGLL,5405.6087,N,01049.4885,E,104713.000,A,A*59
{"class":"TPV","mode":3,"time":"2009-07-24T10:47:13.000Z","ept":0.005,"lat":54.093478333,"lon":10.824808333,"alt":39.000,"epx":9.255,"epy":10.588,"epv":29.900,"track":24.7400,"speed":0.098,"climb":0.000,"eps":21.18}
$GPRMC,104714.000,A,5405.6087,N,01049.4885,E,0.25,14.12,240709,,,A*50
$GPVTG,14.12,T,,M,0.25,N,0.5,K,A*39
$GPGGA,104714.000,5405.6087,N,01049.4885,E,1,08,1.0,38.8,M,43.6,M,,0000*60
$GPGSA,A,3,28,18,27,19,08,09,10,15,,,,,1.6,1.0,1.3*3C
$GPGSV,3,1,12,08,30,075,25,09,20,262,31,10,16,194,23,15,74,263,44*72
$GPGSV,3,2,12,17,14,127,,18,22,315,20,19,05,014,27,21,00,284,*70
$GPGSV,3,3,12,22,00,337,,26,03,304,19,27,41,264,31,28,58,081,29*72
{"class":"SKY","xdop":0.62,"ydop":0.71,"vdop":1.30,"tdop":0.79,"hdop":1.00,"gdop":1.80,"pdop":1.60,"satellites":[{"PRN":8,"el":30,"az":75,"ss":25,"used":true,"gnssid":0,"svid":8},{"PRN":9,"el":20,"az":262,"ss":31,"used":true,"gnssid":0,"svid":9},{"PRN":10,"el":16,"az":194,"ss":23,"used":true,"gnssid":0,"svid":10},{"PRN":15,"el":74,"az":263,"ss":44,"used":true,"gnssid":0,"svid":15},{"PRN":17,"el":14,"az":127,"ss":0,"used":false,"gnssid":0,"svid":17},{"PRN":18,"el":22,"az":315,"ss":20,"used":true,"gnssid":0,"svid":18},{"PRN":19,"el":5,"az":14,"ss":27,"used":true,"gnssid":0,"svid":19},{"PRN":21,"el":0,"az":284,"ss":0,"used":false,"gnssid":0,"svid":21},{"PRN":22,"el":0,"az":337,"ss":0,"used":false,"gnssid":0,"svid":22},{"PRN":26,"el":3,"az":304,"ss":19,"used":false,"gnssid":0,"svid":26},{"PRN":27,"el":41,"az":264,"ss":31,"used":true,"gnssid":0,"svid":27},{"PRN":28,"el":58,"az":81,"ss":29,"used":true,"gnssid":0,"svid":28}]}
$GPGLL,5405.6087,N,01049.4885,E,104714.000,A,A*5E
{"class":"TPV","mode":3,"time":"2009-07-24T10:47:14.000Z","ept":0.005,"lat":54.093478333,"lon":10.824808333,"alt":38.800,"epx":9.255,"epy":10.588,"epv":29.900,"track":14.1200,"speed":0.129,"climb":0.000,"eps":21.18}
