$GPGGA,080315.000,6503.0241,N,02528.3627,E,1,07,1.2,9.9,M,21.6,M,,0000*58
{"class":"TPV","mode":3,"lat":65.050401667,"lon":25.472711667,"alt":9.900}
$GPGSA,A,3,29,12,30,23,04,31,16,,,,,,2.2,1.2,1.9*32
{"class":"TPV","mode":3,"lat":65.050401667,"lon":25.472711667,"alt":9.900,"epv":43.700}
$GPGSV,3,1,11,29,65,214,25,30,52,154,23,31,45,272,32,02,41,068,*7A
$GPGSV,3,2,11,12,23,132,25,23,18,348,13,10,16,098,15,04,12,040,24*7E
$GPGSV,3,3,11,05,11,110,23,16,07,296,33,13,07,020,26*43
{"class":"SKY","xdop":0.71,"ydop":0.95,"vdop":1.90,"tdop":1.04,"hdop":1.20,"gdop":2.46,"pdop":2.20,"satellites":[{"PRN":29,"el":65,"az":214,"ss":25,"used":true,"gnssid":0,"svid":29},{"PRN":30,"el":52,"az":154,"ss":23,"used":true,"gnssid":0,"svid":30},{"PRN":31,"el":45,"az":272,"ss":32,"used":true,"gnssid":0,"svid":31},{"PRN":2,"el":41,"az":68,"ss":0,"used":false,"gnssid":0,"svid":2},{"PRN":12,"el":23,"az":132,"ss":25,"used":true,"gnssid":0,"svid":12},{"PRN":23,"el":18,"az":348,"ss":13,"used":true,"gnssid":0,"svid":23},{"PRN":10,"el":16,"az":98,"ss":15,"used":false,"gnssid":0,"svid":10},{"PRN":4,"el":12,"az":40,"ss":24,"used":true,"gnssid":0,"svid":4},{"PRN":5,"el":11,"az":110,"ss":23,"used":false,"gnssid":0,"svid":5},{"PRN":16,"el":7,"az":296,"ss":33,"used":true,"gnssid":0,"svid":16},{"PRN":13,"el":7,"az":20,"ss":26,"used":false,"gnssid":0,"svid":13}]}
$GPRMC,080315.000,A,6503.0241,N,02528.3627,E,0.95,25.69,051209,,,A*50
{"class":"TPV","mode":3,"time":"2009-12-05T08:03:15.000Z","ept":0.005,"lat":65.050401667,"lon":25.472711667,"alt":9.900,"epx":10.674,"epy":14.254,"epv":43.700,"track":25.6900,"speed":0.489}
$GPGGA,080316.000,6503.0241,N,02528.3625,E,1,07,1.2,10.4,M,21.6,M,,0000*6C
$GPGSA,A,3,29,12,30,23,04,31,16,,,,,,2.2,1.2,1.9*32
$GPRMC,080316.000,A,6503.0241,N,02528.3625,E,0.56,33.07,051209,,,A*51
{"class":"TPV","mode":3,"time":"2009-12-05T08:03:16.000Z","ept":0.005,"lat":65.050401667,"lon":25.472708333,"alt":10.400,"epx":10.674,"epy":14.254,"epv":43.700,"track":33.0700,"speed":0.288,"climb":0.500,"eps":28.51,"epc":87.40}
$GPGGA,080317.000,6503.0239,N,02528.3621,E,1,07,1.2,10.3,M,21.6,M,,0000*61
$GPGSA,A,3,29,12,30,23,04,31,16,,,,,,2.2,1.2,1.9*32
$GPRMC,080317.000,A,6503.0239,N,02528.3621,E,0.74,18.23,051209,,,A*54
{"class":"TPV","mode":3,"time":"2009-12-05T08:03:17.000Z","ept":0.005,"lat":65.050398333,"lon":25.472701667,"alt":10.300,"epx":10.674,"epy":14.254,"epv":43.700,"track":18.2300,"speed":0.381,"climb":-0.100,"eps":28.51,"epc":87.40}
$GPGGA,080318.000,6503.0236,N,02528.3617,E,1,07,1.2,10.2,M,21.6,M,,0000*65
$GPGSA,A,3,29,12,30,23,04,31,16,,,,,,2.2,1.2,1.9*32
$GPRMC,080318.000,A,6503.0236,N,02528.3617,E,0.36,37.53,051209,,,A*5D
{"class":"TPV","mode":3,"time":"2009-12-05T08:03:18.000Z","ept":0.005,"lat":65.050393333,"lon":25.472695000,"alt":10.200,"epx":10.674,"epy":14.254,"epv":43.700,"track":37.5300,"speed":0.185,"climb":-0.100,"eps":28.51,"epc":87.40}
$GPGGA,080319.000,6503.0235,N,02528.3611,E,1,07,1.2,10.3,M,21.6,M,,0000*60
$GPGSA,A,3,29,12,30,23,04,31,16,,,,,,2.2,1.2,1.9*32
$GPRMC,080319.000,A,6503.0235,N,02528.3611,E,0.34,8.27,051209,,,A*64
{"class":"TPV","mode":3,"time":"2009-12-05T08:03:19.000Z","ept":0.005,"lat":65.050391667,"lon":25.472685000,"alt":10.300,"epx":10.674,"epy":14.254,"epv":43.700,"track":8.2700,"speed":0.175,"climb":0.100,"eps":28.51,"epc":87.40}
$GPGGA,080320.000,6503.0233,N,02528.3606,E,1,07,1.2,10.9,M,21.6,M,,0000*60
$GPGSA,A,3,29,12,30,23,04,31,16,,,,,,2.2,1.2,1.9*32
$GPGSV,3,1,11,29,66,214,24,30,52,154,24,31,45,272,32,02,41,068,*7F
$GPGSV,3,2,11,12,23,132,26,23,18,348,16,10,16,098,,04,12,040,25*7D
$GPGSV,3,3,11,05,12,110,23,16,07,296,33,13,07,020,25*43
{"class":"SKY","xdop":0.71,"ydop":0.95,"vdop":1.90,"tdop":1.04,"hdop":1.20,"gdop":2.44,"pdop":2.20,"satellites":[{"PRN":29,"el":66,"az":214,"ss":24,"used":true,"gnssid":0,"svid":29},{"PRN":30,"el":52,"az":154,"ss":24,"used":true,"gnssid":0,"svid":30},{"PRN":31,"el":45,"az":272,"ss":32,"used":true,"gnssid":0,"svid":31},{"PRN":2,"el":41,"az":68,"ss":0,"used":false,"gnssid":0,"svid":2},{"PRN":12,"el":23,"az":132,"ss":26,"used":true,"gnssid":0,"svid":12},{"PRN":23,"el":18,"az":348,"ss":16,"used":true,"gnssid":0,"svid":23},{"PRN":10,"el":16,"az":98,"ss":0,"used":false,"gnssid":0,"svid":10},{"PRN":4,"el":12,"az":40,"ss":25,"used":true,"gnssid":0,"svid":4},{"PRN":5,"el":12,"az":110,"ss":23,"used":false,"gnssid":0,"svid":5},{"PRN":16,"el":7,"az":296,"ss":33,"used":true,"gnssid":0,"svid":16},{"PRN":13,"el":7,"az":20,"ss":25,"used":false,"gnssid":0,"svid":13}]}
$GPRMC,080320.000,A,6503.0233,N,02528.3606,E,0.11,349.73,051209,,,A*6E
{"class":"TPV","mode":3,"time":"2009-12-05T08:03:20.000Z","ept":0.005,"lat":65.050388333,"lon":25.472676667,"alt":10.900,"epx":10.674,"epy":14.254,"epv":43.700,"track":349.7300,"speed":0.057,"climb":0.600,"eps":28.51,"epc":87.40}
$GPGGA,080321.000,6503.0229,N,02528.3601,E,1,07,1.2,10.2,M,21.6,M,,0000*66
$GPGSA,A,3,29,12,30,23,04,31,16,,,,,,2.2,1.2,1.9*32
$GPRMC,080321.000,A,6503.0229,N,02528.3601,E,0.17,185.36,051209,,,A*66
{"class":"TPV","mode":3,"time":"2009-12-05T08:03:21.000Z","ept":0.005,"lat":65.050381667,"lon":25.472668333,"alt":10.200,"epx":10.681,"epy":14.219,"epv":43.700,"track":185.3600,"speed":0.087,"climb":-0.700,"eps":28.47,"epc":87.40}
$GPGGA,080322.000,6503.0225,N,02528.3596,E,1,07,1.2,9.1,M,21.6,M,,0000*5F
$GPGSA,A,3,29,12,30,23,04,31,16,,,,,,2.2,1.2,1.9*32
$GPRMC,080322.000,A,6503.0225,N,02528.3596,E,0.15,191.14,051209,,,A*63
{"class":"TPV","mode":3,"time":"2009-12-05T08:03:22.000Z","ept":0.005,"lat":65.050375000,"lon":25.472660000,"alt":9.100,"epx":10.681,"epy":14.219,"epv":43.700,"track":191.1400,"speed":0.077,"climb":-1.100,"eps":28.44,"epc":87.40}
$GPGGA,080323.000,6503.0221,N,02528.3588,E,1,07,1.2,8.0,M,21.6,M,,0000*55
$GPGSA,A,3,29,12,30,23,04,31,16,,,,,,2.2,1.2,1.9*32
$GPRMC,080323.000,A,6503.0221,N,02528.3588,E,0.23,195.46,051209,,,A*6F
{"class":"TPV","mode":3,"time":"2009-12-05T08:03:23.000Z","ept":0.005,"lat":65.050368333,"lon":25.472646667,"alt":8.000,"epx":10.681,"epy":14.219,"epv":43.700,"track":195.4600,"speed":0.118,"climb":-1.100,"eps":28.44,"epc":87.40}
$GPGGA,080324.000,6503.0219,N,02528.3584,E,1,07,1.2,8.1,M,21.6,M,,0000*54
$GPGSA,A,3,29,12,30,23,04,31,16,,,,,,2.2,1.2,1.9*32
$GPRMC,080324.000,A,6503.0219,N,02528.3584,E,0.07,83.00,051209,,,A*5D
{"class":"TPV","mode":3,"time":"2009-12-05T08:03:24.000Z","ept":0.005,"lat":65.050365000,"lon":25.472640000,"alt":8.100,"epx":10.681,"epy":14.219,"epv":43.700,"track":83.0000,"speed":0.036,"climb":0.100,"eps":28.44,"epc":87.40}
$GPGGA,080325.000,6503.0216,N,02528.3580,E,1,08,1.0,8.0,M,21.6,M,,0000*52
$GPGSA,A,3,29,12,30,23,04,31,02,16,,,,,2.0,1.0,1.7*3E
$GPGSV,3,1,11,29,66,214,24,30,52,154,25,31,45,272,32,02,41,068,17*78
$GPGSV,3,2,11,12,23,132,26,23,18,348,18,10,16,098,,04,12,040,25*73
$GPGSV,3,3,11,05,12,110,23,16,07,296,32,13,07,020,25*42
{"class":"SKY","xdop":0.61,"ydop":0.85,"vdop":1.70,"tdop":0.99,"hdop":1.00,"gdop":2.21,"pdop":2.00,"satellites":[{"PRN":29,"el":66,"az":214,"ss":24,"used":true,"gnssid":0,"svid":29},{"PRN":30,"el":52,"az":154,"ss":25,"used":true,"gnssid":0,"svid":30},{"PRN":31,"el":45,"az":272,"ss":32,"used":true,"gnssid":0,"svid":31},{"PRN":2,"el":41,"az":68,"ss":17,"used":true,"gnssid":0,"svid":2},{"PRN":12,"el":23,"az":132,"ss":26,"used":true,"gnssid":0,"svid":12},{"PRN":23,"el":18,"az":348,"ss":18,"used":true,"gnssid":0,"svid":23},{"PRN":10,"el":16,"az":98,"ss":0,"used":false,"gnssid":0,"svid":10},{"PRN":4,"el":12,"az":40,"ss":25,"used":true,"gnssid":0,"svid":4},{"PRN":5,"el":12,"az":110,"ss":23,"used":false,"gnssid":0,"svid":5},{"PRN":16,"el":7,"az":296,"ss":32,"used":true,"gnssid":0,"svid":16},{"PRN":13,"el":7,"az":20,"ss":25,"used":false,"gnssid":0,"svid":13}]}
$GPRMC,080325.000,A,6503.0216,N,02528.3580,E,0.12,86.47,051209,,,A*55
{"class":"TPV","mode":3,"time":"2009-12-05T08:03:25.000Z","ept":0.005,"lat":65.050360000,"lon":25.472633333,"alt":8.000,"epx":10.681,"epy":14.219,"epv":43.700,"track":86.4700,"speed":0.062,"climb":-0.100,"eps":28.44,"epc":87.40}
$GPGGA,080326.000,6503.0215,N,02528.3576,E,1,06,1.4,8.6,M,21.6,M,,0000*57
$GPGSA,A,3,29,12,30,04,31,16,,,,,,,2.4,1.4,1.9*33
$GPRMC,080326.000,A,6503.0215,N,02528.3576,E,0.06,1.14,051209,,,A*60
{"class":"TPV","mode":3,"time":"2009-12-05T08:03:26.000Z","ept":0.005,"lat":65.050358333,"lon":25.472626667,"alt":8.600,"epx":9.123,"epy":12.723,"epv":39.100,"track":1.1400,"speed":0.031,"climb":0.600,"eps":26.94,"epc":82.80}
$GPGGA,080327.000,6503.0214,N,02528.3571,E,1,08,1.0,8.9,M,21.6,M,,0000*55
$GPGSA,A,3,29,12,30,23,04,31,02,16,,,,,2.0,1.0,1.7*3E
$GPRMC,080327.000,A,6503.0214,N,02528.3571,E,0.32,1.13,051209,,,A*67
{"class":"TPV","mode":3,"time":"2009-12-05T08:03:27.000Z","ept":0.005,"lat":65.050356667,"lon":25.472618333,"alt":8.900,"epx":9.123,"epy":12.723,"epv":43.700,"track":1.1300,"speed":0.165,"climb":0.300,"eps":25.45,"epc":82.80}
$GPGGA,080328.000,6503.0211,N,02528.3568,E,1,08,1.0,7.5,M,21.6,M,,0000*54
$GPGSA,A,3,29,12,30,23,04,31,02,16,,,,,2.0,1.0,1.7*3E
$GPRMC,080328.000,A,6503.0211,N,02528.3568,E,0.19,97.48,051209,,,A*5D
{"class":"TPV","mode":3,"time":"2009-12-05T08:03:28.000Z","ept":0.005,"lat":65.050351667,"lon":25.472613333,"alt":7.500,"epx":9.123,"epy":12.723,"epv":39.100,"track":97.4800,"speed":0.098,"climb":-1.400,"eps":25.45,"epc":82.80}
$GPGGA,080329.000,6503.0208,N,02528.3565,E,1,08,1.0,6.8,M,21.6,M,,0000*5C
$GPGSA,A,3,29,12,30,23,04,31,02,16,,,,,2.0,1.0,1.7*3E
$GPRMC,080329.000,A,6503.0208,N,02528.3565,E,0.25,72.57,051209,,,A*53
{"class":"TPV","mode":3,"time":"2009-12-05T08:03:29.000Z","ept":0.005,"lat":65.050346667,"lon":25.472608333,"alt":6.800,"epx":9.123,"epy":12.723,"epv":39.100,"track":72.5700,"speed":0.129,"climb":-0.700,"eps":25.45,"epc":78.20}
$GPGGA,080330.000,6503.0205,N,02528.3561,E,1,08,1.0,5.7,M,21.6,M,,0000*51
$GPGSA,A,3,29,12,30,23,04,31,02,16,,,,,2.0,1.0,1.7*3E
$GPGSV,3,1,11,29,66,214,23,30,52,154,26,31,45,272,32,02,41,068,17*7C
$GPGSV,3,2,11,12,23,132,25,23,18,348,20,10,16,098,,04,12,040,25*7B
$GPGSV,3,3,11,05,12,110,24,16,07,296,32,13,07,020,23*43
{"class":"SKY","xdop":0.61,"ydop":0.85,"vdop":1.70,"tdop":0.99,"hdop":1.00,"gdop":2.21,"pdop":2.00,"satellites":[{"PRN":29,"el":66,"az":214,"ss":23,"used":true,"gnssid":0,"svid":29},{"PRN":30,"el":52,"az":154,"ss":26,"used":true,"gnssid":0,"svid":30},{"PRN":31,"el":45,"az":272,"ss":32,"used":true,"gnssid":0,"svid":31},{"PRN":2,"el":41,"az":68,"ss":17,"used":true,"gnssid":0,"svid":2},{"PRN":12,"el":23,"az":132,"ss":25,"used":true,"gnssid":0,"svid":12},{"PRN":23,"el":18,"az":348,"ss":20,"used":true,"gnssid":0,"svid":23},{"PRN":10,"el":16,"az":98,"ss":0,"used":false,"gnssid":0,"svid":10},{"PRN":4,"el":12,"az":40,"ss":25,"used":true,"gnssid":0,"svid":4},{"PRN":5,"el":12,"az":110,"ss":24,"used":false,"gnssid":0,"svid":5},{"PRN":16,"el":7,"az":296,"ss":32,"used":true,"gnssid":0,"svid":16},{"PRN":13,"el":7,"az":20,"ss":23,"used":false,"gnssid":0,"svid":13}]}
$GPRMC,080330.000,A,6503.0205,N,02528.3561,E,0.14,181.62,051209,,,A*6B
{"class":"TPV","mode":3,"time":"2009-12-05T08:03:30.000Z","ept":0.005,"lat":65.050341667,"lon":25.472601667,"alt":5.700,"epx":9.123,"epy":12.723,"epv":39.100,"track":181.6200,"speed":0.072,"climb":-1.100,"eps":25.45,"epc":78.20}
$GPGGA,080331.000,6503.0202,N,02528.3556,E,1,08,1.0,5.3,M,21.6,M,,0000*57
$GPGSA,A,3,29,12,30,23,04,31,02,16,,,,,2.0,1.0,1.7*3E
$GPRMC,080331.000,A,6503.0202,N,02528.3556,E,0.20,209.92,051209,,,A*62
{"class":"TPV","mode":3,"time":"2009-12-05T08:03:31.000Z","ept":0.005,"lat":65.050336667,"lon":25.472593333,"alt":5.300,"epx":9.123,"epy":12.723,"epv":39.100,"track":209.9200,"speed":0.103,"climb":-0.400,"eps":25.45,"epc":78.20}
$GPGGA,080332.000,6503.0200,N,02528.3552,E,1,08,1.0,4.6,M,21.6,M,,0000*56
$GPGSA,A,3,29,12,30,23,04,31,02,16,,,,,2.0,1.0,1.7*3E
$GPRMC,080332.000,A,6503.0200,N,02528.3552,E,0.36,228.63,051209,,,A*6D
{"class":"TPV","mode":3,"time":"2009-12-05T08:03:32.000Z","ept":0.005,"lat":65.050333333,"lon":25.472586667,"alt":4.600,"epx":9.123,"epy":12.723,"epv":39.100,"track":228.6300,"speed":0.185,"climb":-0.700,"eps":25.45,"epc":78.20}
$GPGGA,080333.000,6503.0196,N,02528.3548,E,1,07,1.2,3.5,M,21.6,M,,0000*59
$GPGSA,A,3,29,12,30,23,04,31,16,,,,,,2.2,1.2,1.9*32
$GPRMC,080333.000,A,6503.0196,N,02528.3548,E,0.21,93.12,051209,,,A*59
{"class":"TPV","mode":3,"time":"2009-12-05T08:03:33.000Z","ept":0.005,"lat":65.050326667,"lon":25.472580000,"alt":3.500,"epx":9.123,"epy":12.723,"epv":39.100,"track":93.1200,"speed":0.108,"climb":-1.100,"eps":25.45,"epc":78.20}
