# Name: Saab AIS-GPS R4 Positioning System
# Description: product description (optional)
# Submitter: vwf@julkor.net
# Date: 2011-06-01

!AIVDM,1,1,,B,13aGhtw0R<OJf=6LgQ?Ad1FF05`L,0*24
$PFEC,AIcmd,0,35,A,01062011,130711*05
!AIVDO,1,1,,B,13`kvwO005wJnb0Lfo:@7P8F05`L,0*5B
$GPZDA,130711,01,06,2011,01,00*49
$GPGLL,5012.790800,N,00806.879600,W,130711,A,D*5B
$GPGGA,130711,5012.790800,N,00806.879600,W,2,,,,,,,*6A
$GPVTG,3.0,T,,,0.50,N,,,D*16
$GPRMC,130711.00,A,5012.790800,N,00806.879600,W,0.5,3.0,010611,,A*6A
$GPDTM,W84,C*52
$HEHDT,4.0,T*2B
$HEROT,0.0,A*2B
$PFEC,AIcmd,0,35,A,01062011,130712*06
!AIVDO,1,1,,B,13`kvwO005wJnb0Lfo:P7h8H05`L,0*7D
$GPZDA,130712,01,06,2011,01,00*4A
$GPGLL,5012.791400,N,00806.879600,W,130712,A,D*55
$GPGGA,130712,5012.791400,N,00806.879600,W,2,,,,,,,*64
$GPVTG,3.1,T,,,0.50,N,,,D*17
$GPRMC,130712.00,A,5012.791400,N,00806.879600,W,0.5,3.1,010611,,A*65
$GPDTM,W84,C*52
$HEHDT,4.0,T*2B
$HEROT,0.0,A*2B
$PFEC,AIcmd,0,35,A,01062011,130713*07
!AIVDO,1,1,,B,13`kvwO005wJnb0Lfo;07h8J05`L,0*1E
$GPZDA,130713,01,06,2011,01,00*4B
$GPGLL,5012.791400,N,00806.879600,W,130713,A,D*54
$GPGGA,130713,5012.791400,N,00806.879600,W,2,,,,,,,*65
$GPVTG,3.1,T,,,0.50,N,,,D*17
$GPRMC,130713.00,A,5012.791400,N,00806.879600,W,0.5,3.1,010611,,A*64
$GPDTM,W84,C*52
$HEHDT,4.0,T*2B
$HEROT,0.0,A*2B
$PFEC,AIcmd,0,35,A,01062011,130714*00
!AIVDO,1,1,,B,13`kvwO005wJnb0Lfo;@7@8L05`L,0*40
$GPZDA,130714,01,06,2011,01,00*4C
$GPGLL,5012.791400,N,00806.879600,W,130714,A,D*53
$GPGGA,130714,5012.791400,N,00806.879600,W,2,,,,,,,*62
$GPVTG,2.9,T,,,0.50,N,,,D*1E
$GPRMC,130714.00,A,5012.791400,N,00806.879600,W,0.5,2.9,010611,,A*6A
$GPDTM,W84,C*52
$HEHDT,4.0,T*2B
$HEROT,0.0,A*2B
$PFEC,AIcmd,0,35,A,01062011,130715*01
!AIVDO,1,1,,B,13`kvwO005wJnb0Lfo;h7@8N05`L,0*6A
$GPZDA,130715,01,06,2011,01,00*4D
$GPGLL,5012.791400,N,00806.879600,W,130715,A,D*52
$GPGGA,130715,5012.791400,N,00806.879600,W,2,,,,,,,*63
$GPVTG,2.9,T,,,0.50,N,,,D*1E
$GPRMC,130715.00,A,5012.791400,N,00806.879600,W,0.5,2.9,010611,,A*6B
$GPDTM,W84,C*52
$HEHDT,4.0,T*2B
$HEROT,0.0,A*2B
$PFEC,AIcmd,0,35,A,01062011,130716*02
!AIVDO,1,1,,B,13`kvwO005wJnb0Lfo<07P8P05`L,0*3B
$GPZDA,130716,01,06,2011,01,00*4E
$GPGLL,5012.792000,N,00806.879600,W,130716,A,D*56
$GPGGA,130716,5012.792000,N,00806.879600,W,2,,,,,,,*67
$GPVTG,3.0,T,,,0.50,N,,,D*16
$GPRMC,130716.00,A,5012.792000,N,00806.879600,W,0.5,3.0,010611,,A*67
$GPDTM,W84,C*52
$HEHDT,4.1,T*2A
$HEROT,0.0,A*2B
!AIVDM,1,1,,B,13aGhtw0B<OJfDpLgQqQd1FR05`L,0*41
$PFEC,AIcmd,0,35,A,01062011,130717*03
!AIVDO,1,1,,B,13`kvwO005wJnb2Lfo<P708R05`L,0*3B
$GPZDA,130717,01,06,2011,01,00*4F
$GPGLL,5012.792000,N,00806.879600,W,130717,A,D*57
$GPGGA,130717,5012.792000,N,00806.879600,W,2,,,,,,,*66
$GPVTG,2.8,T,,,0.50,N,,,D*1F
$GPRMC,130717.00,A,5012.792000,N,00806.879600,W,0.5,2.8,010611,,A*6F
$GPDTM,W84,C*52
$HEHDT,4.1,T*2A
$HEROT,0.0,A*2B
$PFEC,AIcmd,0,35,A,01062011,130718*0C
!AIVDO,1,1,,B,13`kvwO005wJnb2Lfo<h6@8T05`L,0*74
$GPZDA,130718,01,06,2011,01,00*40
$GPGLL,5012.792000,N,00806.879600,W,130718,A,D*58
$GPGGA,130718,5012.792000,N,00806.879600,W,2,,,,,,,*69
$GPVTG,2.5,T,,,0.50,N,,,D*12
$GPRMC,130718.00,A,5012.792000,N,00806.879600,W,0.5,2.5,010611,,A*6D
$GPDTM,W84,C*52
$HEHDT,4.1,T*2A
$HEROT,0.0,A*2B
$PFEC,AIcmd,0,35,A,01062011,130719*0D
!AIVDO,1,1,,B,13`kvwO005wJnb2Lfo=@6@8V05`L,0*5F
$GPZDA,130719,01,06,2011,01,00*41
$GPGLL,5012.792000,N,00806.879600,W,130719,A,D*59
$GPGGA,130719,5012.792000,N,00806.879600,W,2,,,,,,,*68
$GPVTG,2.5,T,,,0.50,N,,,D*12
$GPRMC,130719.00,A,5012.792000,N,00806.879600,W,0.5,2.5,010611,,A*6C
$GPDTM,W84,C*52
$HEHDT,4.1,T*2A
$HEROT,0.0,A*2B
$PFEC,AIcmd,0,35,A,01062011,130720*07
!AIVDO,1,1,,B,13`kvwO005wJnb2Lfo=P6@8`05`L,0*79
$GPZDA,130720,01,06,2011,01,00*4B
$GPGLL,5012.792600,N,00806.879600,W,130720,A,D*55
$GPGGA,130720,5012.792600,N,00806.879600,W,2,,,,,,,*64
$GPVTG,2.5,T,,,0.50,N,,,D*12
$GPRMC,130720.00,A,5012.792600,N,00806.879600,W,0.5,2.5,010611,,A*60
$GPDTM,W84,C*52
$HEHDT,4.1,T*2A
$HEROT,0.0,A*2B
$PFEC,AIcmd,0,35,A,01062011,130721*06
!AIVDO,1,1,,B,13`kvwO005wJnb2Lfo>05P8b05`L,0*0B
$GPZDA,130721,01,06,2011,01,00*4A
$GPGLL,5012.792600,N,00806.879600,W,130721,A,D*54
$GPGGA,130721,5012.792600,N,00806.879600,W,2,,,,,,,*65
$GPVTG,2.2,T,,,0.50,N,,,D*15
$GPRMC,130721.00,A,5012.792600,N,00806.879600,W,0.5,2.2,010611,,A*66
$GPDTM,W84,C*52
$HEHDT,4.1,T*2A
$HEROT,0.0,A*2B
$PFEC,AIcmd,0,35,A,01062011,130722*05
!AIVDO,1,1,,B,13`kvwO005wJnb2Lfo>@6@8d05`L,0*6E
$GPZDA,130722,01,06,2011,01,00*49
$GPGLL,5012.792600,N,00806.879600,W,130722,A,D*57
$GPGGA,130722,5012.792600,N,00806.879600,W,2,,,,,,,*66
$GPVTG,2.5,T,,,0.50,N,,,D*12
$GPRMC,130722.00,A,5012.792600,N,00806.879600,W,0.5,2.5,010611,,A*62
$GPDTM,W84,C*52
$HEHDT,4.1,T*2A
$HEROT,0.0,A*2B
