$GPGSV,6,1,23,25,67,225,29,29,61,312,28,05,53,108,26,12,42,167,39*70
$GPGSV,6,2,23,02,41,056,25,31,17,294,00,21,14,244,00,06,09,057,00*7D
$GPGSV,6,3,23,193,29,146,00,04,02,044,00,09,01,033,00,68,31,111,26*49
$GPGSV,6,4,23,83,54,034,00,74,43,295,22,84,43,293,00,73,39,229,26*7D
$GPGSV,6,5,23,67,27,048,00,82,13,071,00,75,07,340,00,69,06,154,26*72
$GPGSV,6,6,23,135,38,196,39,138,37,160,31,133,39,191,29*72
{"class":"SKY","time":"2019-04-24T02:17:13.000Z","xdop":1.61,"ydop":1.09,"vdop":5.34,"tdop":4.34,"hdop":1.95,"gdop":7.15,"pdop":5.68,"satellites":[{"PRN":25,"el":66.7,"az":224.7,"ss":28.6,"used":true,"gnssid":0,"svid":25},{"PRN":29,"el":60.6,"az":312.0,"ss":27.5,"used":true,"gnssid":0,"svid":29},{"PRN":5,"el":52.7,"az":107.7,"ss":26.4,"used":true,"gnssid":0,"svid":5},{"PRN":12,"el":41.9,"az":166.6,"ss":38.8,"used":true,"gnssid":0,"svid":12},{"PRN":2,"el":41.3,"az":56.1,"ss":24.6,"used":true,"gnssid":0,"svid":2},{"PRN":31,"el":17.3,"az":293.8,"ss":0.0,"used":false,"gnssid":0,"svid":31},{"PRN":21,"el":14.0,"az":243.6,"ss":0.0,"used":false,"gnssid":0,"svid":21},{"PRN":6,"el":9.4,"az":56.8,"ss":0.0,"used":false,"gnssid":0,"svid":6},{"PRN":193,"el":29.4,"az":146.1,"ss":0.0,"used":false,"gnssid":5,"svid":1},{"PRN":4,"el":2.3,"az":43.5,"ss":0.0,"used":false,"gnssid":0,"svid":4},{"PRN":9,"el":1.2,"az":32.7,"ss":0.0,"used":false,"gnssid":0,"svid":9},{"PRN":68,"el":30.8,"az":110.7,"ss":26.2,"used":true,"gnssid":6,"svid":4},{"PRN":83,"el":53.6,"az":33.8,"ss":0.0,"used":false,"gnssid":6,"svid":19},{"PRN":74,"el":43.1,"az":295.3,"ss":21.7,"used":false,"gnssid":6,"svid":10},{"PRN":84,"el":43.0,"az":293.4,"ss":0.0,"used":false,"gnssid":6,"svid":20},{"PRN":73,"el":39.4,"az":228.9,"ss":26.2,"used":false,"gnssid":6,"svid":9},{"PRN":67,"el":27.1,"az":47.7,"ss":0.0,"used":false,"gnssid":6,"svid":3},{"PRN":82,"el":13.2,"az":71.0,"ss":0.0,"used":false,"gnssid":6,"svid":18},{"PRN":75,"el":6.9,"az":340.3,"ss":0.0,"used":false,"gnssid":6,"svid":11},{"PRN":69,"el":5.6,"az":153.9,"ss":25.9,"used":false,"gnssid":6,"svid":5},{"PRN":135,"el":37.8,"az":196.5,"ss":38.9,"used":false,"gnssid":1,"svid":135},{"PRN":138,"el":37.3,"az":160.1,"ss":31.2,"used":false,"gnssid":1,"svid":138},{"PRN":133,"el":38.6,"az":191.1,"ss":29.1,"used":false,"gnssid":1,"svid":133}]}
$GPZDA,021713.00,24,04,2019,00,00*68
$GPGGA,021713.00,4404.1257,N,12118.8483,W,1,00,1.80,1142.96,M,-22.155,M,,*6D
$GPRMC,021713.00,A,4404.1257,N,12118.8483,W,0.0000,0.000,240419,14.4,E*4E
$GPGSA,A,3,25,29,5,12,2,68,,,,,,,5.7,1.8,5.3*39
$GPGBS,021713.00,24.191,16.321,122.792,,,,*42
{"class":"TPV","mode":3,"time":"2019-04-24T02:17:13.000Z","ept":0.005,"lat":44.068762281,"lon":-121.314137599,"altHAE":1120.809,"altMSL":1142.963,"epx":24.191,"epy":16.321,"epv":122.792,"track":0.0000,"magtrack":14.4184,"magvar":14.4,"speed":0.000,"climb":0.000,"ecefx":-2386065.00,"ecefy":-3922207.00,"ecefz":4414364.00,"ecefvx":0.00,"ecefvy":0.00,"ecefvz":0.00,"velN":0.000,"velE":0.000,"velD":-0.000,"geoidSep":-22.155,"eph":34.200,"sep":107.962}
$GPZDA,021715.00,24,04,2019,00,00*6E
$GPGGA,021715.00,4404.1259,N,12118.8485,W,1,00,1.80,1140.83,M,-22.155,M,,*65
$GPRMC,021715.00,A,4404.1259,N,12118.8485,W,0.0000,125.780,240419,14.4,E*49
$GPGSA,A,3,25,29,5,12,2,68,,,,,,,5.6,1.8,5.4*3F
$GPGBS,021715.00,24.191,16.321,15.130,,,,*7F
{"class":"TPV","mode":3,"time":"2019-04-24T02:17:15.000Z","leapseconds":18,"ept":0.005,"lat":44.068764400,"lon":-121.314141300,"altHAE":1121.200,"altMSL":1140.830,"epx":24.191,"epy":16.321,"epv":15.130,"track":125.7800,"magtrack":14.4184,"magvar":14.4,"speed":0.000,"climb":0.000,"epd":0.0000,"eps":0.01,"epc":68.96,"ecefx":-2386065.00,"ecefy":-3922207.00,"ecefz":4414364.00,"ecefvx":0.00,"ecefvy":0.00,"ecefvz":0.00,"velN":0.000,"velE":0.000,"velD":-0.000,"geoidSep":-22.155,"eph":34.200,"sep":107.962,"datum":"WGS84"}
$GPGSV,6,1,23,25,67,225,29,29,61,312,28,05,53,108,27,12,42,167,39*71
$GPGSV,6,2,23,02,41,056,25,31,17,294,00,21,14,244,00,06,09,057,00*7D
$GPGSV,6,3,23,193,29,146,00,04,02,044,00,09,01,033,00,68,31,111,26*49
$GPGSV,6,4,23,83,54,034,00,74,43,295,22,84,43,293,00,73,39,229,26*7D
$GPGSV,6,5,23,67,27,048,00,82,13,071,00,75,07,340,00,69,06,154,26*72
$GPGSV,6,6,23,135,38,196,39,138,37,160,31,133,39,191,29*72
{"class":"SKY","time":"2019-04-24T02:17:15.000Z","xdop":1.61,"ydop":1.09,"vdop":5.40,"tdop":4.40,"hdop":1.80,"gdop":7.20,"pdop":5.60,"satellites":[{"PRN":25,"el":66.7,"az":224.7,"ss":28.6,"used":true,"gnssid":0,"svid":25},{"PRN":29,"el":60.6,"az":312.0,"ss":27.5,"used":true,"gnssid":0,"svid":29},{"PRN":5,"el":52.7,"az":107.7,"ss":26.7,"used":true,"gnssid":0,"svid":5},{"PRN":12,"el":41.9,"az":166.6,"ss":38.8,"used":true,"gnssid":0,"svid":12},{"PRN":2,"el":41.3,"az":56.1,"ss":24.6,"used":true,"gnssid":0,"svid":2},{"PRN":31,"el":17.3,"az":293.8,"ss":0.0,"used":false,"gnssid":0,"svid":31},{"PRN":21,"el":14.0,"az":243.6,"ss":0.0,"used":false,"gnssid":0,"svid":21},{"PRN":6,"el":9.4,"az":56.8,"ss":0.0,"used":false,"gnssid":0,"svid":6},{"PRN":193,"el":29.4,"az":146.1,"ss":0.0,"used":false,"gnssid":5,"svid":1},{"PRN":4,"el":2.3,"az":43.5,"ss":0.0,"used":false,"gnssid":0,"svid":4},{"PRN":9,"el":1.2,"az":32.7,"ss":0.0,"used":false,"gnssid":0,"svid":9},{"PRN":68,"el":30.8,"az":110.7,"ss":26.2,"used":true,"gnssid":6,"svid":4},{"PRN":83,"el":53.6,"az":33.8,"ss":0.0,"used":false,"gnssid":6,"svid":19},{"PRN":74,"el":43.1,"az":295.3,"ss":21.5,"used":false,"gnssid":6,"svid":10},{"PRN":84,"el":43.0,"az":293.4,"ss":0.0,"used":false,"gnssid":6,"svid":20},{"PRN":73,"el":39.4,"az":228.9,"ss":26.1,"used":false,"gnssid":6,"svid":9},{"PRN":67,"el":27.1,"az":47.7,"ss":0.0,"used":false,"gnssid":6,"svid":3},{"PRN":82,"el":13.2,"az":71.0,"ss":0.0,"used":false,"gnssid":6,"svid":18},{"PRN":75,"el":6.9,"az":340.3,"ss":0.0,"used":false,"gnssid":6,"svid":11},{"PRN":69,"el":5.6,"az":153.9,"ss":25.8,"used":false,"gnssid":6,"svid":5},{"PRN":135,"el":37.8,"az":196.5,"ss":38.9,"used":false,"gnssid":1,"svid":135},{"PRN":138,"el":37.3,"az":160.1,"ss":31.3,"used":false,"gnssid":1,"svid":138},{"PRN":133,"el":38.6,"az":191.1,"ss":29.1,"used":false,"gnssid":1,"svid":133}]}
$GPZDA,021715.00,24,04,2019,00,00*6E
$GPGGA,021715.00,4404.1257,N,12118.8483,W,1,00,1.80,1142.96,M,-22.155,M,,*6B
$GPRMC,021715.00,A,4404.1257,N,12118.8483,W,0.0000,0.000,240419,14.4,E*48
$GPGSA,A,3,25,29,5,12,2,68,,,,,,,5.6,1.8,5.4*3F
$GPGBS,021715.00,24.191,16.321,124.200,,,,*4C
{"class":"TPV","mode":3,"time":"2019-04-24T02:17:15.000Z","leapseconds":18,"ept":0.005,"lat":44.068762281,"lon":-121.314137599,"altHAE":1120.809,"altMSL":1142.963,"epx":24.191,"epy":16.321,"epv":124.200,"track":0.0000,"magtrack":14.4184,"magvar":14.4,"speed":0.000,"climb":0.000,"eps":48.38,"epc":139.33,"ecefx":-2386065.00,"ecefy":-3922207.00,"ecefz":4414364.00,"ecefvx":0.00,"ecefvy":0.00,"ecefvz":0.00,"velN":0.000,"velE":0.000,"velD":-0.000,"geoidSep":-22.155,"eph":34.200,"sep":106.400}
$GPZDA,021716.00,24,04,2019,00,00*6D
$GPGGA,021716.00,4404.1258,N,12118.8485,W,1,00,1.80,1140.74,M,-22.155,M,,*6F
$GPRMC,021716.00,A,4404.1258,N,12118.8485,W,0.1361,125.780,240419,14.4,E*4E
$GPGSA,A,3,25,29,5,12,2,68,,,,,,,5.6,1.8,5.4*3F
$GPGBS,021716.00,24.191,16.321,15.210,,,,*7D
{"class":"TPV","mode":3,"time":"2019-04-24T02:17:16.000Z","leapseconds":18,"ept":0.005,"lat":44.068762900,"lon":-121.314141500,"altHAE":1121.110,"altMSL":1140.740,"epx":24.191,"epy":16.321,"epv":15.210,"track":125.7800,"magtrack":14.4184,"magvar":14.4,"speed":0.070,"climb":0.000,"epd":0.0000,"eps":0.29,"epc":139.33,"ecefx":-2386065.00,"ecefy":-3922207.00,"ecefz":4414364.00,"ecefvx":0.00,"ecefvy":0.00,"ecefvz":0.00,"velN":0.000,"velE":0.000,"velD":-0.000,"geoidSep":-22.155,"eph":34.200,"sep":106.400,"datum":"WGS84"}
$GPGSV,6,1,23,25,67,225,26,29,61,312,27,05,53,108,27,12,42,167,39*71
$GPGSV,6,2,23,02,41,056,23,31,17,294,20,21,14,244,18,06,09,057,00*70
$GPGSV,6,3,23,193,29,146,00,04,02,044,00,09,01,033,00,68,31,111,26*49
$GPGSV,6,4,23,83,54,034,16,74,43,295,14,84,43,293,00,73,39,229,24*7D
$GPGSV,6,5,23,67,27,048,00,82,13,071,00,75,07,340,00,69,06,154,26*72
$GPGSV,6,6,23,135,38,196,39,138,37,160,29,133,39,191,28*7A
{"class":"SKY","time":"2019-04-24T02:17:16.000Z","xdop":1.61,"ydop":1.09,"vdop":5.40,"tdop":4.40,"hdop":1.80,"gdop":7.20,"pdop":5.60,"satellites":[{"PRN":25,"el":66.7,"az":224.7,"ss":26.1,"used":true,"gnssid":0,"svid":25},{"PRN":29,"el":60.6,"az":312.0,"ss":27.3,"used":true,"gnssid":0,"svid":29},{"PRN":5,"el":52.7,"az":107.7,"ss":27.0,"used":true,"gnssid":0,"svid":5},{"PRN":12,"el":41.9,"az":166.6,"ss":38.6,"used":true,"gnssid":0,"svid":12},{"PRN":2,"el":41.3,"az":56.1,"ss":22.7,"used":false,"gnssid":0,"svid":2},{"PRN":31,"el":17.3,"az":293.8,"ss":19.6,"used":false,"gnssid":0,"svid":31},{"PRN":21,"el":14.0,"az":243.6,"ss":17.9,"used":false,"gnssid":0,"svid":21},{"PRN":6,"el":9.4,"az":56.8,"ss":0.0,"used":false,"gnssid":0,"svid":6},{"PRN":193,"el":29.4,"az":146.1,"ss":0.0,"used":false,"gnssid":5,"svid":1},{"PRN":4,"el":2.3,"az":43.5,"ss":0.0,"used":false,"gnssid":0,"svid":4},{"PRN":9,"el":1.2,"az":32.7,"ss":0.0,"used":false,"gnssid":0,"svid":9},{"PRN":68,"el":30.8,"az":110.7,"ss":26.1,"used":true,"gnssid":6,"svid":4},{"PRN":83,"el":53.6,"az":33.8,"ss":16.0,"used":false,"gnssid":6,"svid":19},{"PRN":74,"el":43.1,"az":295.3,"ss":14.5,"used":false,"gnssid":6,"svid":10},{"PRN":84,"el":43.0,"az":293.4,"ss":0.0,"used":false,"gnssid":6,"svid":20},{"PRN":73,"el":39.4,"az":228.9,"ss":23.6,"used":false,"gnssid":6,"svid":9},{"PRN":67,"el":27.1,"az":47.7,"ss":0.0,"used":false,"gnssid":6,"svid":3},{"PRN":82,"el":13.2,"az":71.0,"ss":0.0,"used":false,"gnssid":6,"svid":18},{"PRN":75,"el":6.9,"az":340.3,"ss":0.0,"used":false,"gnssid":6,"svid":11},{"PRN":69,"el":5.6,"az":153.9,"ss":25.9,"used":false,"gnssid":6,"svid":5},{"PRN":135,"el":37.8,"az":196.5,"ss":38.9,"used":false,"gnssid":1,"svid":135},{"PRN":138,"el":37.3,"az":160.1,"ss":28.7,"used":false,"gnssid":1,"svid":138},{"PRN":133,"el":38.6,"az":191.1,"ss":28.4,"used":false,"gnssid":1,"svid":133}]}
$GPZDA,021716.00,24,04,2019,00,00*6D
$GPGGA,021716.00,4404.1255,N,12118.8489,W,1,00,2.20,1143.34,M,-22.155,M,,*60
$GPRMC,021716.00,A,4404.1255,N,12118.8489,W,0.3386,279.613,240419,14.4,E*45
$GPGSA,A,3,25,29,5,12,68,,,,,,,,5.6,2.2,5.4*04
$GPGBS,021716.00,24.191,16.321,124.200,,,,*4F
{"class":"TPV","mode":3,"time":"2019-04-24T02:17:16.000Z","leapseconds":18,"ept":0.005,"lat":44.068759028,"lon":-121.314148261,"altHAE":1121.182,"altMSL":1143.337,"epx":24.191,"epy":16.321,"epv":124.200,"track":279.6128,"magtrack":294.0313,"magvar":14.4,"speed":0.174,"climb":-0.030,"eps":48.38,"epc":139.41,"ecefx":-2386066.00,"ecefy":-3922207.00,"ecefz":4414364.00,"ecefvx":-0.12,"ecefvy":0.12,"ecefvz":0.00,"velN":0.029,"velE":-0.172,"velD":0.030,"geoidSep":-22.155,"eph":41.800,"sep":106.400}
$GPZDA,021717.00,24,04,2019,00,00*6C
$GPGGA,021717.00,4404.1257,N,12118.8486,W,1,00,2.20,1140.62,M,-22.155,M,,*6C
$GPRMC,021717.00,A,4404.1257,N,12118.8486,W,0.3110,125.780,240419,14.4,E*45
$GPGSA,A,3,25,29,5,12,68,,,,,,,,5.8,2.2,5.4*0A
$GPGBS,021717.00,24.191,16.321,14.530,,,,*78
{"class":"TPV","mode":3,"time":"2019-04-24T02:17:17.000Z","leapseconds":18,"ept":0.005,"lat":44.068761300,"lon":-121.314143600,"altHAE":1120.980,"altMSL":1140.620,"epx":24.191,"epy":16.321,"epv":14.530,"track":125.7800,"magtrack":294.0313,"magvar":14.4,"speed":0.160,"climb":-0.040,"epd":0.0000,"eps":0.40,"epc":139.41,"ecefx":-2386066.00,"ecefy":-3922207.00,"ecefz":4414364.00,"ecefvx":-0.12,"ecefvy":0.12,"ecefvz":0.00,"velN":0.029,"velE":-0.172,"velD":0.030,"geoidSep":-22.155,"eph":41.800,"sep":106.400,"datum":"WGS84"}
$GPGSV,6,1,23,25,67,225,22,29,61,312,25,05,53,108,27,12,42,167,30*7E
$GPGSV,6,2,23,02,41,056,17,31,17,294,00,21,14,244,18,06,09,057,00*75
$GPGSV,6,3,23,193,29,146,00,04,02,044,00,09,01,033,00,68,31,111,26*49
$GPGSV,6,4,23,83,54,034,18,74,43,295,14,84,43,293,00,73,39,229,21*76
$GPGSV,6,5,23,67,27,048,00,82,13,071,00,75,07,340,00,69,06,154,26*72
$GPGSV,6,6,23,135,38,196,39,138,37,160,27,133,39,191,26*7A
{"class":"SKY","time":"2019-04-24T02:17:17.000Z","xdop":1.61,"ydop":1.09,"vdop":5.40,"tdop":4.40,"hdop":2.20,"gdop":7.40,"pdop":5.80,"satellites":[{"PRN":25,"el":66.7,"az":224.7,"ss":22.3,"used":true,"gnssid":0,"svid":25},{"PRN":29,"el":60.6,"az":312.0,"ss":25.3,"used":false,"gnssid":0,"svid":29},{"PRN":5,"el":52.7,"az":107.7,"ss":26.9,"used":true,"gnssid":0,"svid":5},{"PRN":12,"el":41.9,"az":166.6,"ss":29.7,"used":true,"gnssid":0,"svid":12},{"PRN":2,"el":41.3,"az":56.1,"ss":17.4,"used":true,"gnssid":0,"svid":2},{"PRN":31,"el":17.3,"az":293.8,"ss":0.0,"used":false,"gnssid":0,"svid":31},{"PRN":21,"el":14.0,"az":243.6,"ss":18.1,"used":false,"gnssid":0,"svid":21},{"PRN":6,"el":9.4,"az":56.8,"ss":0.0,"used":false,"gnssid":0,"svid":6},{"PRN":193,"el":29.4,"az":146.1,"ss":0.0,"used":false,"gnssid":5,"svid":1},{"PRN":4,"el":2.3,"az":43.5,"ss":0.0,"used":false,"gnssid":0,"svid":4},{"PRN":9,"el":1.2,"az":32.7,"ss":0.0,"used":false,"gnssid":0,"svid":9},{"PRN":68,"el":30.8,"az":110.7,"ss":25.9,"used":true,"gnssid":6,"svid":4},{"PRN":83,"el":53.6,"az":33.8,"ss":17.7,"used":false,"gnssid":6,"svid":19},{"PRN":74,"el":43.1,"az":295.3,"ss":13.6,"used":false,"gnssid":6,"svid":10},{"PRN":84,"el":43.0,"az":293.4,"ss":0.0,"used":false,"gnssid":6,"svid":20},{"PRN":73,"el":39.4,"az":228.9,"ss":20.6,"used":false,"gnssid":6,"svid":9},{"PRN":67,"el":27.1,"az":47.7,"ss":0.0,"used":false,"gnssid":6,"svid":3},{"PRN":82,"el":13.2,"az":71.0,"ss":0.0,"used":false,"gnssid":6,"svid":18},{"PRN":75,"el":6.9,"az":340.3,"ss":0.0,"used":false,"gnssid":6,"svid":11},{"PRN":69,"el":5.6,"az":153.9,"ss":25.6,"used":false,"gnssid":6,"svid":5},{"PRN":135,"el":37.8,"az":196.5,"ss":38.9,"used":false,"gnssid":1,"svid":135},{"PRN":138,"el":37.3,"az":160.1,"ss":27.2,"used":false,"gnssid":1,"svid":138},{"PRN":133,"el":38.6,"az":191.1,"ss":26.2,"used":false,"gnssid":1,"svid":133}]}
$GPZDA,021717.00,24,04,2019,00,00*6C
$GPGGA,021717.00,4404.1255,N,12118.8489,W,1,00,2.60,1143.34,M,-22.155,M,,*65
$GPRMC,021717.00,A,4404.1255,N,12118.8489,W,0.8757,271.653,240419,14.4,E*4B
$GPGSA,A,3,25,5,12,2,68,,,,,,,,5.8,2.6,5.4*37
$GPGBS,021717.00,24.191,16.321,124.200,,,,*4E
{"class":"TPV","mode":3,"time":"2019-04-24T02:17:17.000Z","leapseconds":18,"ept":0.005,"lat":44.068759028,"lon":-121.314148261,"altHAE":1121.182,"altMSL":1143.337,"epx":24.191,"epy":16.321,"epv":124.200,"track":271.6530,"magtrack":286.0714,"magvar":14.4,"speed":0.450,"climb":-0.013,"eps":48.38,"epc":138.73,"ecefx":-2386066.00,"ecefy":-3922207.00,"ecefz":4414364.00,"ecefvx":-0.38,"ecefvy":0.25,"ecefvz":0.00,"velN":0.013,"velE":-0.450,"velD":0.013,"geoidSep":-22.155,"eph":49.400,"sep":110.200}
$GPZDA,021718.00,24,04,2019,00,00*63
$GPGGA,021718.00,4404.1256,N,12118.8490,W,1,00,2.60,1140.47,M,-22.155,M,,*66
$GPRMC,021718.00,A,4404.1256,N,12118.8490,W,0.8164,197.840,240419,14.4,E*4E
$GPGSA,A,3,25,5,12,2,68,,,,,,,,6.4,2.6,5.8*34
$GPGBS,021718.00,24.191,16.321,12.820,,,,*7D
{"class":"TPV","mode":3,"time":"2019-04-24T02:17:18.000Z","leapseconds":18,"ept":0.005,"lat":44.068759300,"lon":-121.314149900,"altHAE":1120.840,"altMSL":1140.470,"epx":24.191,"epy":16.321,"epv":12.820,"track":197.8400,"magtrack":286.0714,"magvar":14.4,"speed":0.420,"climb":-0.050,"epd":0.0000,"eps":0.47,"epc":138.73,"ecefx":-2386066.00,"ecefy":-3922207.00,"ecefz":4414364.00,"ecefvx":-0.38,"ecefvy":0.25,"ecefvz":0.00,"velN":0.013,"velE":-0.450,"velD":0.013,"geoidSep":-22.155,"eph":49.400,"sep":110.200,"datum":"WGS84"}
$GPGSV,6,1,23,25,67,225,20,29,61,312,16,05,53,108,19,12,42,167,26*76
$GPGSV,6,2,23,02,41,056,16,31,17,294,00,21,14,244,00,06,09,057,00*7D
$GPGSV,6,3,23,193,29,146,00,04,02,044,00,09,01,033,00,68,31,111,20*4F
$GPGSV,6,4,23,83,54,034,00,74,43,295,14,84,43,293,00,73,39,229,20*7E
$GPGSV,6,5,23,67,27,048,00,82,13,071,00,75,07,340,00,69,06,154,26*72
$GPGSV,6,6,23,135,38,196,39,138,37,160,25,133,39,191,25*7B
{"class":"SKY","time":"2019-04-24T02:17:18.000Z","xdop":1.61,"ydop":1.09,"vdop":5.80,"tdop":5.00,"hdop":2.60,"gdop":8.20,"pdop":6.40,"satellites":[{"PRN":25,"el":66.7,"az":224.7,"ss":20.2,"used":true,"gnssid":0,"svid":25},{"PRN":29,"el":60.6,"az":312.0,"ss":15.7,"used":true,"gnssid":0,"svid":29},{"PRN":5,"el":52.7,"az":107.7,"ss":18.9,"used":true,"gnssid":0,"svid":5},{"PRN":12,"el":41.9,"az":166.6,"ss":26.3,"used":true,"gnssid":0,"svid":12},{"PRN":2,"el":41.3,"az":56.1,"ss":16.1,"used":true,"gnssid":0,"svid":2},{"PRN":31,"el":17.3,"az":293.8,"ss":0.0,"used":false,"gnssid":0,"svid":31},{"PRN":21,"el":14.0,"az":243.6,"ss":0.0,"used":false,"gnssid":0,"svid":21},{"PRN":6,"el":9.4,"az":56.8,"ss":0.0,"used":false,"gnssid":0,"svid":6},{"PRN":193,"el":29.4,"az":146.1,"ss":0.0,"used":false,"gnssid":5,"svid":1},{"PRN":4,"el":2.3,"az":43.5,"ss":0.0,"used":false,"gnssid":0,"svid":4},{"PRN":9,"el":1.2,"az":32.7,"ss":0.0,"used":false,"gnssid":0,"svid":9},{"PRN":68,"el":30.8,"az":110.7,"ss":20.2,"used":true,"gnssid":6,"svid":4},{"PRN":83,"el":53.6,"az":33.8,"ss":0.0,"used":false,"gnssid":6,"svid":19},{"PRN":74,"el":43.1,"az":295.3,"ss":13.8,"used":false,"gnssid":6,"svid":10},{"PRN":84,"el":43.0,"az":293.4,"ss":0.0,"used":false,"gnssid":6,"svid":20},{"PRN":73,"el":39.4,"az":228.9,"ss":20.4,"used":false,"gnssid":6,"svid":9},{"PRN":67,"el":27.1,"az":47.7,"ss":0.0,"used":false,"gnssid":6,"svid":3},{"PRN":82,"el":13.2,"az":71.0,"ss":0.0,"used":false,"gnssid":6,"svid":18},{"PRN":75,"el":6.9,"az":340.3,"ss":0.0,"used":false,"gnssid":6,"svid":11},{"PRN":69,"el":5.6,"az":153.9,"ss":25.5,"used":false,"gnssid":6,"svid":5},{"PRN":135,"el":37.8,"az":196.5,"ss":38.9,"used":false,"gnssid":1,"svid":135},{"PRN":138,"el":37.3,"az":160.1,"ss":25.2,"used":false,"gnssid":1,"svid":138},{"PRN":133,"el":38.6,"az":191.1,"ss":24.9,"used":false,"gnssid":1,"svid":133}]}
$GPZDA,021718.00,24,04,2019,00,00*63
$GPGGA,021718.00,4404.1257,N,12118.8499,W,1,00,1.80,1143.10,M,-22.155,M,,*62
$GPRMC,021718.00,A,4404.1257,N,12118.8499,W,1.0847,266.693,240419,14.4,E*4A
$GPGSA,A,3,25,29,5,12,2,68,,,,,,,6.4,1.8,5.8*32
$GPGBS,021718.00,24.191,16.321,133.400,,,,*41
{"class":"TPV","mode":3,"time":"2019-04-24T02:17:18.000Z","leapseconds":18,"ept":0.005,"lat":44.068761122,"lon":-121.314165410,"altHAE":1120.942,"altMSL":1143.096,"epx":24.191,"epy":16.321,"epv":133.400,"track":266.6930,"magtrack":281.1114,"magvar":14.4,"speed":0.558,"climb":0.033,"eps":48.38,"epc":146.22,"ecefx":-2386067.00,"ecefy":-3922206.00,"ecefz":4414364.00,"ecefvx":-0.50,"ecefvy":0.25,"ecefvz":0.00,"velN":-0.032,"velE":-0.557,"velD":-0.033,"geoidSep":-22.155,"eph":34.200,"sep":121.600}
$GPZDA,021719.00,24,04,2019,00,00*62
$GPGGA,021719.00,4404.1254,N,12118.8495,W,1,00,1.80,1140.34,M,-22.155,M,,*69
$GPRMC,021719.00,A,4404.1254,N,12118.8495,W,1.1080,258.300,240419,14.4,E*44
$GPGSA,A,3,25,29,5,12,2,68,,,,,,,5.6,1.8,5.4*3F
$GPGBS,021719.00,24.191,16.321,12.660,,,,*76
{"class":"TPV","mode":3,"time":"2019-04-24T02:17:19.000Z","leapseconds":18,"ept":0.005,"lat":44.068757400,"lon":-121.314158000,"altHAE":1120.700,"altMSL":1140.340,"epx":24.191,"epy":16.321,"epv":12.660,"track":258.3000,"magtrack":281.1114,"magvar":14.4,"speed":0.570,"climb":-0.050,"epd":0.0000,"eps":0.56,"epc":146.22,"ecefx":-2386067.00,"ecefy":-3922206.00,"ecefz":4414364.00,"ecefvx":-0.50,"ecefvy":0.25,"ecefvz":0.00,"velN":-0.032,"velE":-0.557,"velD":-0.033,"geoidSep":-22.155,"eph":34.200,"sep":121.600,"datum":"WGS84"}
$GPGSV,6,1,23,25,67,225,20,29,61,312,18,05,53,108,20,12,42,167,28*7C
$GPGSV,6,2,23,02,41,056,17,31,17,294,00,21,14,244,00,06,09,057,00*7C
$GPGSV,6,3,23,193,29,146,00,04,02,044,00,09,01,033,00,68,31,111,22*4D
$GPGSV,6,4,23,83,54,034,00,74,43,295,13,84,43,293,00,73,39,229,21*78
$GPGSV,6,5,23,67,27,048,00,82,13,071,00,75,07,340,20,69,06,154,26*70
$GPGSV,6,6,23,135,38,196,39,138,37,160,25,133,39,191,25*7B
{"class":"SKY","time":"2019-04-24T02:17:19.000Z","xdop":1.61,"ydop":1.09,"vdop":5.40,"tdop":4.40,"hdop":1.80,"gdop":7.20,"pdop":5.60,"satellites":[{"PRN":25,"el":66.7,"az":224.7,"ss":19.8,"used":true,"gnssid":0,"svid":25},{"PRN":29,"el":60.6,"az":312.0,"ss":17.5,"used":true,"gnssid":0,"svid":29},{"PRN":5,"el":52.7,"az":107.7,"ss":20.4,"used":true,"gnssid":0,"svid":5},{"PRN":12,"el":41.9,"az":166.6,"ss":28.3,"used":true,"gnssid":0,"svid":12},{"PRN":2,"el":41.3,"az":56.1,"ss":17.4,"used":true,"gnssid":0,"svid":2},{"PRN":31,"el":17.3,"az":293.8,"ss":0.0,"used":false,"gnssid":0,"svid":31},{"PRN":21,"el":14.0,"az":243.6,"ss":0.0,"used":false,"gnssid":0,"svid":21},{"PRN":6,"el":9.4,"az":56.8,"ss":0.0,"used":false,"gnssid":0,"svid":6},{"PRN":193,"el":29.4,"az":146.1,"ss":0.0,"used":false,"gnssid":5,"svid":1},{"PRN":4,"el":2.3,"az":43.5,"ss":0.0,"used":false,"gnssid":0,"svid":4},{"PRN":9,"el":1.2,"az":32.7,"ss":0.0,"used":false,"gnssid":0,"svid":9},{"PRN":68,"el":30.8,"az":110.7,"ss":22.4,"used":true,"gnssid":6,"svid":4},{"PRN":83,"el":53.6,"az":33.8,"ss":0.0,"used":false,"gnssid":6,"svid":19},{"PRN":74,"el":43.1,"az":295.3,"ss":13.3,"used":false,"gnssid":6,"svid":10},{"PRN":84,"el":43.0,"az":293.4,"ss":0.0,"used":false,"gnssid":6,"svid":20},{"PRN":73,"el":39.4,"az":228.9,"ss":20.7,"used":false,"gnssid":6,"svid":9},{"PRN":67,"el":27.1,"az":47.7,"ss":0.0,"used":false,"gnssid":6,"svid":3},{"PRN":82,"el":13.2,"az":71.0,"ss":0.0,"used":false,"gnssid":6,"svid":18},{"PRN":75,"el":6.9,"az":340.3,"ss":20.0,"used":false,"gnssid":6,"svid":11},{"PRN":69,"el":5.6,"az":153.9,"ss":25.9,"used":false,"gnssid":6,"svid":5},{"PRN":135,"el":37.8,"az":196.5,"ss":38.9,"used":false,"gnssid":1,"svid":135},{"PRN":138,"el":37.3,"az":160.1,"ss":25.0,"used":false,"gnssid":1,"svid":138},{"PRN":133,"el":38.6,"az":191.1,"ss":25.2,"used":false,"gnssid":1,"svid":133}]}
$GPZDA,021719.00,24,04,2019,00,00*62
$GPGGA,021719.00,4404.1253,N,12118.8499,W,1,00,1.80,1142.40,M,-22.155,M,,*63
$GPRMC,021719.00,A,4404.1253,N,12118.8499,W,1.0847,266.693,240419,14.4,E*4F
$GPGSA,A,3,25,29,5,12,2,68,,,,,,,5.6,1.8,5.4*3F
$GPGBS,021719.00,24.191,16.321,124.200,,,,*40
{"class":"TPV","mode":3,"time":"2019-04-24T02:17:19.000Z","leapseconds":18,"ept":0.005,"lat":44.068754657,"lon":-121.314165410,"altHAE":1120.246,"altMSL":1142.401,"epx":24.191,"epy":16.321,"epv":124.200,"track":266.6930,"magtrack":281.1114,"magvar":14.4,"speed":0.558,"climb":0.033,"eps":48.38,"epc":136.86,"ecefx":-2386067.00,"ecefy":-3922206.00,"ecefz":4414363.00,"ecefvx":-0.50,"ecefvy":0.25,"ecefvz":0.00,"velN":-0.032,"velE":-0.557,"velD":-0.033,"geoidSep":-22.155,"eph":34.200,"sep":106.400}
$GPZDA,021720.00,24,04,2019,00,00*68
$GPGGA,021720.00,4404.1253,N,12118.8500,W,1,00,1.80,1140.21,M,-22.155,M,,*6D
$GPRMC,021720.00,A,4404.1253,N,12118.8500,W,1.2635,263.140,240419,14.4,E*41
$GPGSA,A,3,25,29,5,12,2,68,,,,,,,5.6,1.8,5.4*3F
$GPGBS,021720.00,24.191,16.321,13.480,,,,*71
{"class":"TPV","mode":3,"time":"2019-04-24T02:17:20.000Z","leapseconds":18,"ept":0.005,"lat":44.068755700,"lon":-121.314166900,"altHAE":1120.570,"altMSL":1140.210,"epx":24.191,"epy":16.321,"epv":13.480,"track":263.1400,"magtrack":281.1114,"magvar":14.4,"speed":0.650,"climb":-0.050,"epd":0.0000,"eps":0.64,"epc":136.86,"ecefx":-2386067.00,"ecefy":-3922206.00,"ecefz":4414363.00,"ecefvx":-0.50,"ecefvy":0.25,"ecefvz":0.00,"velN":-0.032,"velE":-0.557,"velD":-0.033,"geoidSep":-22.155,"eph":34.200,"sep":106.400,"datum":"WGS84"}
$GPGSV,6,1,23,25,67,225,20,29,61,312,18,05,53,108,20,12,42,167,27*73
$GPGSV,6,2,23,02,41,056,17,31,17,294,00,21,14,244,00,06,09,057,00*7C
$GPGSV,6,3,23,193,29,146,00,04,02,044,00,09,01,033,00,68,31,111,23*4C
$GPGSV,6,4,23,83,54,034,00,74,43,295,14,84,43,293,15,73,39,229,20*7A
$GPGSV,6,5,23,67,27,048,00,82,13,071,00,75,07,340,18,69,06,154,26*7B
$GPGSV,6,6,23,135,38,196,39,138,37,160,26,133,39,191,24*79
{"class":"SKY","time":"2019-04-24T02:17:20.000Z","xdop":1.61,"ydop":1.09,"vdop":5.40,"tdop":4.40,"hdop":1.80,"gdop":7.20,"pdop":5.60,"satellites":[{"PRN":25,"el":66.7,"az":224.7,"ss":19.5,"used":true,"gnssid":0,"svid":25},{"PRN":29,"el":60.6,"az":312.0,"ss":17.6,"used":true,"gnssid":0,"svid":29},{"PRN":5,"el":52.7,"az":107.7,"ss":19.8,"used":true,"gnssid":0,"svid":5},{"PRN":12,"el":41.9,"az":166.6,"ss":27.2,"used":true,"gnssid":0,"svid":12},{"PRN":2,"el":41.3,"az":56.1,"ss":17.4,"used":true,"gnssid":0,"svid":2},{"PRN":31,"el":17.3,"az":293.8,"ss":0.0,"used":false,"gnssid":0,"svid":31},{"PRN":21,"el":14.0,"az":243.6,"ss":0.0,"used":false,"gnssid":0,"svid":21},{"PRN":6,"el":9.4,"az":56.8,"ss":0.0,"used":false,"gnssid":0,"svid":6},{"PRN":193,"el":29.4,"az":146.1,"ss":0.0,"used":false,"gnssid":5,"svid":1},{"PRN":4,"el":2.3,"az":43.5,"ss":0.0,"used":false,"gnssid":0,"svid":4},{"PRN":9,"el":1.2,"az":32.7,"ss":0.0,"used":false,"gnssid":0,"svid":9},{"PRN":68,"el":30.8,"az":110.7,"ss":22.7,"used":true,"gnssid":6,"svid":4},{"PRN":83,"el":53.6,"az":33.8,"ss":0.0,"used":false,"gnssid":6,"svid":19},{"PRN":74,"el":43.1,"az":295.3,"ss":13.6,"used":false,"gnssid":6,"svid":10},{"PRN":84,"el":43.0,"az":293.4,"ss":14.8,"used":false,"gnssid":6,"svid":20},{"PRN":73,"el":39.4,"az":228.9,"ss":20.4,"used":false,"gnssid":6,"svid":9},{"PRN":67,"el":27.1,"az":47.7,"ss":0.0,"used":false,"gnssid":6,"svid":3},{"PRN":82,"el":13.2,"az":71.0,"ss":0.0,"used":false,"gnssid":6,"svid":18},{"PRN":75,"el":6.9,"az":340.3,"ss":18.2,"used":false,"gnssid":6,"svid":11},{"PRN":69,"el":5.6,"az":153.9,"ss":26.0,"used":false,"gnssid":6,"svid":5},{"PRN":135,"el":37.8,"az":196.5,"ss":38.9,"used":false,"gnssid":1,"svid":135},{"PRN":138,"el":37.3,"az":160.1,"ss":26.1,"used":false,"gnssid":1,"svid":138},{"PRN":133,"el":38.6,"az":191.1,"ss":24.0,"used":false,"gnssid":1,"svid":133}]}
$GPZDA,021720.00,24,04,2019,00,00*68
$GPGGA,021720.00,4404.1251,N,12118.8506,W,1,00,1.80,1142.77,M,-22.155,M,,*68
$GPRMC,021720.00,A,4404.1251,N,12118.8506,W,1.0159,279.613,240419,14.4,E*40
$GPGSA,A,3,25,29,5,12,2,68,,,,,,,5.6,1.8,5.4*3F
$GPGBS,021720.00,24.191,16.321,124.200,,,,*4A
{"class":"TPV","mode":3,"time":"2019-04-24T02:17:20.000Z","leapseconds":18,"ept":0.005,"lat":44.068751404,"lon":-121.314176072,"altHAE":1120.620,"altMSL":1142.774,"epx":24.191,"epy":16.321,"epv":124.200,"track":279.6128,"magtrack":294.0312,"magvar":14.4,"speed":0.523,"climb":-0.090,"eps":48.38,"epc":137.68,"ecefx":-2386068.00,"ecefy":-3922206.00,"ecefz":4414363.00,"ecefvx":-0.38,"ecefvy":0.38,"ecefvz":0.00,"velN":0.087,"velE":-0.515,"velD":0.090,"geoidSep":-22.155,"eph":34.200,"sep":106.400}
$GPZDA,021721.00,24,04,2019,00,00*69
$GPGGA,021721.00,4404.1253,N,12118.8505,W,1,00,1.80,1140.07,M,-22.155,M,,*6D
$GPRMC,021721.00,A,4404.1253,N,12118.8505,W,1.1469,267.470,240419,14.4,E*4F
$GPGSA,A,3,25,29,5,12,2,68,,,,,,,5.6,1.8,5.4*3F
$GPGBS,021721.00,24.191,16.321,13.430,,,,*7B
{"class":"TPV","mode":3,"time":"2019-04-24T02:17:21.000Z","leapseconds":18,"ept":0.005,"lat":44.068755100,"lon":-121.314174900,"altHAE":1120.440,"altMSL":1140.070,"epx":24.191,"epy":16.321,"epv":13.430,"track":267.4700,"magtrack":294.0312,"magvar":14.4,"speed":0.590,"climb":-0.050,"epd":0.0000,"eps":0.77,"epc":137.68,"ecefx":-2386068.00,"ecefy":-3922206.00,"ecefz":4414363.00,"ecefvx":-0.38,"ecefvy":0.38,"ecefvz":0.00,"velN":0.087,"velE":-0.515,"velD":0.090,"geoidSep":-22.155,"eph":34.200,"sep":106.400,"datum":"WGS84"}
$GPGSV,6,1,23,25,67,225,19,29,61,312,18,05,53,108,20,12,42,167,27*79
$GPGSV,6,2,23,02,41,056,17,31,17,294,00,21,14,244,00,06,09,057,00*7C
$GPGSV,6,3,23,193,29,146,00,04,02,044,00,09,01,033,00,68,31,111,20*4F
$GPGSV,6,4,23,83,54,034,00,74,43,295,14,84,43,293,16,73,39,229,20*79
$GPGSV,6,5,23,67,27,048,00,82,13,071,00,75,07,340,18,69,06,154,16*78
$GPGSV,6,6,23,135,38,196,39,138,37,160,26,133,39,191,22*7F
{"class":"SKY","time":"2019-04-24T02:17:21.000Z","xdop":1.61,"ydop":1.09,"vdop":5.40,"tdop":4.40,"hdop":1.80,"gdop":7.20,"pdop":5.60,"satellites":[{"PRN":25,"el":66.7,"az":224.7,"ss":19.1,"used":true,"gnssid":0,"svid":25},{"PRN":29,"el":60.6,"az":312.0,"ss":18.3,"used":true,"gnssid":0,"svid":29},{"PRN":5,"el":52.7,"az":107.7,"ss":20.3,"used":true,"gnssid":0,"svid":5},{"PRN":12,"el":41.9,"az":166.6,"ss":26.9,"used":true,"gnssid":0,"svid":12},{"PRN":2,"el":41.3,"az":56.1,"ss":16.9,"used":true,"gnssid":0,"svid":2},{"PRN":31,"el":17.3,"az":293.8,"ss":0.0,"used":false,"gnssid":0,"svid":31},{"PRN":21,"el":14.0,"az":243.6,"ss":0.0,"used":false,"gnssid":0,"svid":21},{"PRN":6,"el":9.4,"az":56.8,"ss":0.0,"used":false,"gnssid":0,"svid":6},{"PRN":193,"el":29.4,"az":146.1,"ss":0.0,"used":false,"gnssid":5,"svid":1},{"PRN":4,"el":2.3,"az":43.5,"ss":0.0,"used":false,"gnssid":0,"svid":4},{"PRN":9,"el":1.2,"az":32.7,"ss":0.0,"used":false,"gnssid":0,"svid":9},{"PRN":68,"el":30.8,"az":110.7,"ss":20.3,"used":true,"gnssid":6,"svid":4},{"PRN":83,"el":53.6,"az":33.8,"ss":0.0,"used":false,"gnssid":6,"svid":19},{"PRN":74,"el":43.1,"az":295.3,"ss":13.5,"used":false,"gnssid":6,"svid":10},{"PRN":84,"el":43.0,"az":293.4,"ss":16.3,"used":false,"gnssid":6,"svid":20},{"PRN":73,"el":39.4,"az":228.9,"ss":20.0,"used":false,"gnssid":6,"svid":9},{"PRN":67,"el":27.1,"az":47.7,"ss":0.0,"used":false,"gnssid":6,"svid":3},{"PRN":82,"el":13.2,"az":71.0,"ss":0.0,"used":false,"gnssid":6,"svid":18},{"PRN":75,"el":6.9,"az":340.3,"ss":17.6,"used":false,"gnssid":6,"svid":11},{"PRN":69,"el":5.6,"az":153.9,"ss":16.5,"used":false,"gnssid":6,"svid":5},{"PRN":135,"el":37.8,"az":196.5,"ss":38.9,"used":false,"gnssid":1,"svid":135},{"PRN":138,"el":37.3,"az":160.1,"ss":26.5,"used":false,"gnssid":1,"svid":138},{"PRN":133,"el":38.6,"az":191.1,"ss":21.7,"used":false,"gnssid":1,"svid":133}]}
$GPZDA,021721.00,24,04,2019,00,00*69
$GPGGA,021721.00,4404.1254,N,12118.8510,W,1,00,1.80,1142.16,M,-22.155,M,,*6C
$GPRMC,021721.00,A,4404.1254,N,12118.8510,W,0.8757,271.653,240419,14.4,E*4E
$GPGSA,A,3,25,29,5,12,2,68,,,,,,,5.6,1.8,5.4*3F
$GPGBS,021721.00,24.191,16.321,124.200,,,,*4B
{"class":"TPV","mode":3,"time":"2019-04-24T02:17:21.000Z","leapseconds":18,"ept":0.005,"lat":44.068756751,"lon":-121.314182558,"altHAE":1120.006,"altMSL":1142.161,"epx":24.191,"epy":16.321,"epv":124.200,"track":271.6530,"magtrack":286.0714,"magvar":14.4,"speed":0.450,"climb":-0.013,"eps":48.38,"epc":137.63,"ecefx":-2386068.00,"ecefy":-3922205.00,"ecefz":4414363.00,"ecefvx":-0.38,"ecefvy":0.25,"ecefvz":0.00,"velN":0.013,"velE":-0.450,"velD":0.013,"geoidSep":-22.155,"eph":34.200,"sep":106.400}
$GPZDA,021722.00,24,04,2019,00,00*6A
$GPGGA,021722.00,4404.1253,N,12118.8509,W,1,00,1.80,1139.94,M,-22.155,M,,*66
$GPRMC,021722.00,A,4404.1253,N,12118.8509,W,0.9914,269.770,240419,14.4,E*43
$GPGSA,A,3,25,29,5,12,2,68,,,,,,,5.6,1.8,5.4*3F
$GPGBS,021722.00,24.191,16.321,13.090,,,,*76
{"class":"TPV","mode":3,"time":"2019-04-24T02:17:22.000Z","leapseconds":18,"ept":0.005,"lat":44.068754600,"lon":-121.314181700,"altHAE":1120.300,"altMSL":1139.940,"epx":24.191,"epy":16.321,"epv":13.090,"track":269.7700,"magtrack":286.0714,"magvar":14.4,"speed":0.510,"climb":-0.050,"epd":0.0000,"eps":0.99,"epc":137.63,"ecefx":-2386068.00,"ecefy":-3922205.00,"ecefz":4414363.00,"ecefvx":-0.38,"ecefvy":0.25,"ecefvz":0.00,"velN":0.013,"velE":-0.450,"velD":0.013,"geoidSep":-22.155,"eph":34.200,"sep":106.400,"datum":"WGS84"}
$GPGSV,6,1,23,25,67,225,19,29,61,312,19,05,53,108,21,12,42,167,27*79
$GPGSV,6,2,23,02,41,056,17,31,17,294,00,21,14,244,00,06,09,057,00*7C
$GPGSV,6,3,23,193,29,146,00,04,02,044,00,09,01,033,00,68,31,111,22*4D
$GPGSV,6,4,23,83,54,034,00,74,43,295,13,84,43,293,16,73,39,229,20*7E
$GPGSV,6,5,23,67,27,048,00,82,13,071,00,75,07,340,17,69,06,154,16*77
$GPGSV,6,6,23,135,38,196,39,138,37,160,28,133,39,191,21*72
{"class":"SKY","time":"2019-04-24T02:17:22.000Z","xdop":1.61,"ydop":1.09,"vdop":5.40,"tdop":4.40,"hdop":1.80,"gdop":7.20,"pdop":5.60,"satellites":[{"PRN":25,"el":66.7,"az":224.7,"ss":18.8,"used":true,"gnssid":0,"svid":25},{"PRN":29,"el":60.6,"az":312.0,"ss":18.8,"used":true,"gnssid":0,"svid":29},{"PRN":5,"el":52.7,"az":107.7,"ss":20.7,"used":true,"gnssid":0,"svid":5},{"PRN":12,"el":41.9,"az":166.6,"ss":27.3,"used":true,"gnssid":0,"svid":12},{"PRN":2,"el":41.3,"az":56.1,"ss":16.6,"used":true,"gnssid":0,"svid":2},{"PRN":31,"el":17.3,"az":293.8,"ss":0.0,"used":false,"gnssid":0,"svid":31},{"PRN":21,"el":14.0,"az":243.6,"ss":0.0,"used":false,"gnssid":0,"svid":21},{"PRN":6,"el":9.4,"az":56.8,"ss":0.0,"used":false,"gnssid":0,"svid":6},{"PRN":193,"el":29.4,"az":146.1,"ss":0.0,"used":false,"gnssid":5,"svid":1},{"PRN":4,"el":2.3,"az":43.5,"ss":0.0,"used":false,"gnssid":0,"svid":4},{"PRN":9,"el":1.2,"az":32.7,"ss":0.0,"used":false,"gnssid":0,"svid":9},{"PRN":68,"el":30.8,"az":110.7,"ss":21.6,"used":true,"gnssid":6,"svid":4},{"PRN":83,"el":53.6,"az":33.8,"ss":0.0,"used":false,"gnssid":6,"svid":19},{"PRN":74,"el":43.1,"az":295.3,"ss":13.1,"used":false,"gnssid":6,"svid":10},{"PRN":84,"el":43.0,"az":293.4,"ss":15.9,"used":false,"gnssid":6,"svid":20},{"PRN":73,"el":39.4,"az":228.9,"ss":20.0,"used":false,"gnssid":6,"svid":9},{"PRN":67,"el":27.1,"az":47.7,"ss":0.0,"used":false,"gnssid":6,"svid":3},{"PRN":82,"el":13.2,"az":71.0,"ss":0.0,"used":false,"gnssid":6,"svid":18},{"PRN":75,"el":6.9,"az":340.3,"ss":16.8,"used":false,"gnssid":6,"svid":11},{"PRN":69,"el":5.6,"az":153.9,"ss":16.1,"used":false,"gnssid":6,"svid":5},{"PRN":135,"el":37.8,"az":196.5,"ss":38.9,"used":false,"gnssid":1,"svid":135},{"PRN":138,"el":37.3,"az":160.1,"ss":28.1,"used":false,"gnssid":1,"svid":138},{"PRN":133,"el":38.6,"az":191.1,"ss":21.0,"used":false,"gnssid":1,"svid":133}]}
$GPZDA,021722.00,24,04,2019,00,00*6A
$GPGGA,021722.00,4404.1254,N,12118.8510,W,1,00,1.80,1142.16,M,-22.155,M,,*6F
$GPRMC,021722.00,A,4404.1254,N,12118.8510,W,0.9040,298.552,240419,14.4,E*48
$GPGSA,A,3,25,29,5,12,2,68,,,,,,,5.6,1.8,5.4*3F
$GPGBS,021722.00,24.191,16.321,124.200,,,,*48
{"class":"TPV","mode":3,"time":"2019-04-24T02:17:22.000Z","leapseconds":18,"ept":0.005,"lat":44.068756751,"lon":-121.314182558,"altHAE":1120.006,"altMSL":1142.161,"epx":24.191,"epy":16.321,"epv":124.200,"track":298.5522,"magtrack":312.9706,"magvar":14.4,"speed":0.465,"climb":-0.050,"eps":48.38,"epc":137.29,"ecefx":-2386068.00,"ecefy":-3922205.00,"ecefz":4414363.00,"ecefvx":-0.25,"ecefvy":0.38,"ecefvz":0.12,"velN":0.222,"velE":-0.408,"velD":0.050,"geoidSep":-22.155,"eph":34.200,"sep":106.400}
$GPZDA,021723.00,24,04,2019,00,00*6B
$GPGGA,021723.00,4404.1253,N,12118.8513,W,1,00,1.80,1139.81,M,-22.155,M,,*68
$GPRMC,021723.00,A,4404.1253,N,12118.8513,W,0.9719,274.770,240419,14.4,E*46
$GPGSA,A,3,25,29,5,12,2,68,,,,,,,5.6,1.8,5.4*3F
$GPGBS,021723.00,24.191,16.321,13.420,,,,*78
{"class":"TPV","mode":3,"time":"2019-04-24T02:17:23.000Z","leapseconds":18,"ept":0.005,"lat":44.068755700,"lon":-121.314188100,"altHAE":1120.180,"altMSL":1139.810,"epx":24.191,"epy":16.321,"epv":13.420,"track":274.7700,"magtrack":312.9706,"magvar":14.4,"speed":0.500,"climb":-0.050,"epd":0.0000,"eps":1.23,"epc":137.29,"ecefx":-2386068.00,"ecefy":-3922205.00,"ecefz":4414363.00,"ecefvx":-0.25,"ecefvy":0.38,"ecefvz":0.12,"velN":0.222,"velE":-0.408,"velD":0.050,"geoidSep":-22.155,"eph":34.200,"sep":106.400,"datum":"WGS84"}
$GPGSV,6,1,23,25,67,225,18,29,61,312,19,05,53,108,21,12,42,167,27*78
$GPGSV,6,2,23,02,41,056,16,31,17,294,00,21,14,244,18,06,09,057,00*74
$GPGSV,6,3,23,193,29,146,00,04,02,044,00,09,01,033,00,68,31,111,23*4C
$GPGSV,6,4,23,83,54,034,00,74,43,295,13,84,43,293,16,73,39,229,23*7D
$GPGSV,6,5,23,67,27,048,00,82,13,071,00,75,07,340,17,69,06,154,18*79
$GPGSV,6,6,23,135,38,196,39,138,37,160,25,133,39,191,20*7E
{"class":"SKY","time":"2019-04-24T02:17:23.000Z","xdop":1.61,"ydop":1.09,"vdop":5.40,"tdop":4.40,"hdop":1.80,"gdop":7.20,"pdop":5.60,"satellites":[{"PRN":25,"el":66.7,"az":224.7,"ss":18.5,"used":true,"gnssid":0,"svid":25},{"PRN":29,"el":60.6,"az":312.0,"ss":18.9,"used":true,"gnssid":0,"svid":29},{"PRN":5,"el":52.7,"az":107.7,"ss":20.9,"used":true,"gnssid":0,"svid":5},{"PRN":12,"el":41.9,"az":166.6,"ss":27.3,"used":true,"gnssid":0,"svid":12},{"PRN":2,"el":41.3,"az":56.1,"ss":16.4,"used":true,"gnssid":0,"svid":2},{"PRN":31,"el":17.3,"az":293.8,"ss":0.0,"used":false,"gnssid":0,"svid":31},{"PRN":21,"el":14.0,"az":243.6,"ss":18.1,"used":false,"gnssid":0,"svid":21},{"PRN":6,"el":9.4,"az":56.8,"ss":0.0,"used":false,"gnssid":0,"svid":6},{"PRN":193,"el":29.4,"az":146.1,"ss":0.0,"used":false,"gnssid":5,"svid":1},{"PRN":4,"el":2.3,"az":43.5,"ss":0.0,"used":false,"gnssid":0,"svid":4},{"PRN":9,"el":1.2,"az":32.7,"ss":0.0,"used":false,"gnssid":0,"svid":9},{"PRN":68,"el":30.8,"az":110.7,"ss":22.7,"used":true,"gnssid":6,"svid":4},{"PRN":83,"el":53.6,"az":33.8,"ss":0.0,"used":false,"gnssid":6,"svid":19},{"PRN":74,"el":43.1,"az":295.3,"ss":12.8,"used":false,"gnssid":6,"svid":10},{"PRN":84,"el":43.0,"az":293.4,"ss":15.8,"used":false,"gnssid":6,"svid":20},{"PRN":73,"el":39.4,"az":228.9,"ss":22.9,"used":false,"gnssid":6,"svid":9},{"PRN":67,"el":27.1,"az":47.7,"ss":0.0,"used":false,"gnssid":6,"svid":3},{"PRN":82,"el":13.2,"az":71.0,"ss":0.0,"used":false,"gnssid":6,"svid":18},{"PRN":75,"el":6.9,"az":340.3,"ss":16.7,"used":false,"gnssid":6,"svid":11},{"PRN":69,"el":5.6,"az":153.9,"ss":17.6,"used":false,"gnssid":6,"svid":5},{"PRN":135,"el":37.8,"az":196.5,"ss":38.9,"used":false,"gnssid":1,"svid":135},{"PRN":138,"el":37.3,"az":160.1,"ss":24.7,"used":false,"gnssid":1,"svid":138},{"PRN":133,"el":38.6,"az":191.1,"ss":20.4,"used":false,"gnssid":1,"svid":133}]}
$GPZDA,021723.00,24,04,2019,00,00*6B
$GPGGA,021723.00,4404.1255,N,12118.8520,W,1,00,1.80,1141.92,M,-22.155,M,,*63
$GPRMC,021723.00,A,4404.1255,N,12118.8520,W,1.3943,286.704,240419,14.4,E*44
$GPGSA,A,3,25,29,5,12,2,68,,,,,,,5.6,1.8,5.4*3F
$GPGBS,021723.00,24.191,16.321,124.200,,,,*49
{"class":"TPV","mode":3,"time":"2019-04-24T02:17:23.000Z","leapseconds":18,"ept":0.005,"lat":44.068758845,"lon":-121.314199706,"altHAE":1119.765,"altMSL":1141.920,"epx":24.191,"epy":16.321,"epv":124.200,"track":286.7042,"magtrack":301.1226,"magvar":14.4,"speed":0.717,"climb":-0.033,"eps":48.38,"epc":137.62,"ecefx":-2386069.00,"ecefy":-3922204.00,"ecefz":4414363.00,"ecefvx":-0.50,"ecefvy":0.50,"ecefvz":0.12,"velN":0.206,"velE":-0.687,"velD":0.033,"geoidSep":-22.155,"eph":34.200,"sep":106.400}
$GPZDA,021724.00,24,04,2019,00,00*6C
$GPGGA,021724.00,4404.1254,N,12118.8519,W,1,00,1.80,1139.69,M,-22.155,M,,*64
$GPRMC,021724.00,A,4404.1254,N,12118.8519,W,1.3996,277.400,240419,14.4,E*49
$GPGSA,A,3,25,29,5,12,2,68,,,,,,,5.6,1.8,5.4*3F
$GPGBS,021724.00,24.191,16.321,13.500,,,,*7C
{"class":"TPV","mode":3,"time":"2019-04-24T02:17:24.000Z","leapseconds":18,"ept":0.005,"lat":44.068756100,"lon":-121.314198400,"altHAE":1120.050,"altMSL":1139.690,"epx":24.191,"epy":16.321,"epv":13.500,"track":277.4000,"magtrack":301.1226,"magvar":14.4,"speed":0.720,"climb":-0.050,"epd":0.0000,"eps":1.45,"epc":137.62,"ecefx":-2386069.00,"ecefy":-3922204.00,"ecefz":4414363.00,"ecefvx":-0.50,"ecefvy":0.50,"ecefvz":0.12,"velN":0.206,"velE":-0.687,"velD":0.033,"geoidSep":-22.155,"eph":34.200,"sep":106.400,"datum":"WGS84"}
$GPGSV,6,1,23,25,67,225,16,29,61,312,19,05,53,108,21,12,42,167,27*76
$GPGSV,6,2,23,02,41,056,16,31,17,294,00,21,14,244,19,06,09,057,00*75
$GPGSV,6,3,23,193,29,146,00,04,02,044,00,09,01,033,00,68,31,111,22*4D
$GPGSV,6,4,23,83,54,034,00,74,43,295,13,84,43,293,15,73,39,229,20*7D
$GPGSV,6,5,23,67,27,048,00,82,13,071,00,75,07,340,17,69,06,154,18*79
$GPGSV,6,6,23,135,38,196,39,138,37,160,25,133,39,191,21*7F
{"class":"SKY","time":"2019-04-24T02:17:24.000Z","xdop":1.61,"ydop":1.09,"vdop":5.40,"tdop":4.40,"hdop":1.80,"gdop":7.20,"pdop":5.60,"satellites":[{"PRN":25,"el":66.7,"az":224.7,"ss":15.5,"used":false,"gnssid":0,"svid":25},{"PRN":29,"el":60.6,"az":312.0,"ss":18.8,"used":true,"gnssid":0,"svid":29},{"PRN":5,"el":52.7,"az":107.7,"ss":20.9,"used":true,"gnssid":0,"svid":5},{"PRN":12,"el":41.9,"az":166.6,"ss":26.8,"used":true,"gnssid":0,"svid":12},{"PRN":2,"el":41.3,"az":56.1,"ss":16.2,"used":true,"gnssid":0,"svid":2},{"PRN":31,"el":17.3,"az":293.8,"ss":0.0,"used":false,"gnssid":0,"svid":31},{"PRN":21,"el":14.0,"az":243.6,"ss":18.6,"used":false,"gnssid":0,"svid":21},{"PRN":6,"el":9.4,"az":56.8,"ss":0.0,"used":false,"gnssid":0,"svid":6},{"PRN":193,"el":29.4,"az":146.1,"ss":0.0,"used":false,"gnssid":5,"svid":1},{"PRN":4,"el":2.3,"az":43.5,"ss":0.0,"used":false,"gnssid":0,"svid":4},{"PRN":9,"el":1.2,"az":32.7,"ss":0.0,"used":false,"gnssid":0,"svid":9},{"PRN":68,"el":30.8,"az":110.7,"ss":22.0,"used":true,"gnssid":6,"svid":4},{"PRN":83,"el":53.6,"az":33.8,"ss":0.0,"used":false,"gnssid":6,"svid":19},{"PRN":74,"el":43.1,"az":295.3,"ss":12.9,"used":false,"gnssid":6,"svid":10},{"PRN":84,"el":43.0,"az":293.4,"ss":15.3,"used":false,"gnssid":6,"svid":20},{"PRN":73,"el":39.4,"az":228.9,"ss":20.4,"used":false,"gnssid":6,"svid":9},{"PRN":67,"el":27.1,"az":47.7,"ss":0.0,"used":false,"gnssid":6,"svid":3},{"PRN":82,"el":13.2,"az":71.0,"ss":0.0,"used":false,"gnssid":6,"svid":18},{"PRN":75,"el":6.9,"az":340.3,"ss":16.7,"used":false,"gnssid":6,"svid":11},{"PRN":69,"el":5.6,"az":153.9,"ss":18.4,"used":false,"gnssid":6,"svid":5},{"PRN":135,"el":37.8,"az":196.5,"ss":38.9,"used":false,"gnssid":1,"svid":135},{"PRN":138,"el":37.3,"az":160.1,"ss":25.2,"used":false,"gnssid":1,"svid":138},{"PRN":133,"el":38.6,"az":191.1,"ss":21.3,"used":false,"gnssid":1,"svid":133}]}
$GPZDA,021724.00,24,04,2019,00,00*6C
$GPGGA,021724.00,4404.1253,N,12118.8526,W,1,00,2.00,1142.29,M,-22.155,M,,*6C
$GPRMC,021724.00,A,4404.1253,N,12118.8526,W,1.4168,269.756,240419,14.4,E*43
$GPGSA,A,3,29,5,12,2,68,,,,,,,,5.6,2.0,5.4*33
$GPGBS,021724.00,24.191,16.321,124.200,,,,*4E
{"class":"TPV","mode":3,"time":"2019-04-24T02:17:24.000Z","leapseconds":18,"ept":0.005,"lat":44.068755592,"lon":-121.314210368,"altHAE":1120.139,"altMSL":1142.294,"epx":24.191,"epy":16.321,"epv":124.200,"track":269.7563,"magtrack":284.1747,"magvar":14.4,"speed":0.729,"climb":0.003,"eps":48.38,"epc":137.70,"ecefx":-2386070.00,"ecefy":-3922204.00,"ecefz":4414363.00,"ecefvx":-0.62,"ecefvy":0.38,"ecefvz":0.00,"velN":-0.003,"velE":-0.729,"velD":-0.003,"geoidSep":-22.155,"eph":38.000,"sep":106.400}
$GPZDA,021725.00,24,04,2019,00,00*6D
$GPGGA,021725.00,4404.1253,N,12118.8526,W,1,00,2.00,1139.56,M,-22.155,M,,*69
$GPRMC,021725.00,A,4404.1253,N,12118.8526,W,1.5940,275.900,240419,14.4,E*41
$GPGSA,A,3,29,5,12,2,68,,,,,,,,6.2,2.0,5.8*38
$GPGBS,021725.00,24.191,16.321,13.440,,,,*78
{"class":"TPV","mode":3,"time":"2019-04-24T02:17:25.000Z","leapseconds":18,"ept":0.005,"lat":44.068755500,"lon":-121.314209800,"altHAE":1119.930,"altMSL":1139.560,"epx":24.191,"epy":16.321,"epv":13.440,"track":275.9000,"magtrack":284.1747,"magvar":14.4,"speed":0.820,"climb":-0.050,"epd":0.0000,"eps":4.81,"epc":137.70,"ecefx":-2386070.00,"ecefy":-3922204.00,"ecefz":4414363.00,"ecefvx":-0.62,"ecefvy":0.38,"ecefvz":0.00,"velN":-0.003,"velE":-0.729,"velD":-0.003,"geoidSep":-22.155,"eph":38.000,"sep":106.400,"datum":"WGS84"}
$GPGSV,6,1,23,25,67,225,15,29,61,312,18,05,53,108,21,12,42,167,12*72
$GPGSV,6,2,23,02,41,056,16,31,17,294,00,21,14,244,16,06,09,057,00*7A
$GPGSV,6,3,23,193,29,146,00,04,02,044,00,09,01,033,00,68,31,111,22*4D
$GPGSV,6,4,23,83,54,034,00,74,43,295,12,84,43,293,15,73,39,229,20*7C
$GPGSV,6,5,23,67,27,048,00,82,13,071,00,75,07,340,16,69,06,154,18*78
$GPGSV,6,6,23,135,38,196,39,138,37,160,23,133,39,191,42*7C
{"class":"SKY","time":"2019-04-24T02:17:25.000Z","xdop":1.61,"ydop":1.09,"vdop":5.80,"tdop":4.60,"hdop":2.00,"gdop":7.80,"pdop":6.20,"satellites":[{"PRN":25,"el":66.7,"az":224.7,"ss":15.1,"used":false,"gnssid":0,"svid":25},{"PRN":29,"el":60.6,"az":312.0,"ss":18.5,"used":true,"gnssid":0,"svid":29},{"PRN":5,"el":52.7,"az":107.7,"ss":20.9,"used":true,"gnssid":0,"svid":5},{"PRN":12,"el":41.9,"az":166.6,"ss":12.0,"used":true,"gnssid":0,"svid":12},{"PRN":2,"el":41.3,"az":56.1,"ss":15.9,"used":true,"gnssid":0,"svid":2},{"PRN":31,"el":17.3,"az":293.8,"ss":0.0,"used":false,"gnssid":0,"svid":31},{"PRN":21,"el":14.0,"az":243.6,"ss":16.5,"used":false,"gnssid":0,"svid":21},{"PRN":6,"el":9.4,"az":56.8,"ss":0.0,"used":false,"gnssid":0,"svid":6},{"PRN":193,"el":29.4,"az":146.1,"ss":0.0,"used":false,"gnssid":5,"svid":1},{"PRN":4,"el":2.3,"az":43.5,"ss":0.0,"used":false,"gnssid":0,"svid":4},{"PRN":9,"el":1.2,"az":32.7,"ss":0.0,"used":false,"gnssid":0,"svid":9},{"PRN":68,"el":30.8,"az":110.7,"ss":21.5,"used":true,"gnssid":6,"svid":4},{"PRN":83,"el":53.6,"az":33.8,"ss":0.0,"used":false,"gnssid":6,"svid":19},{"PRN":74,"el":43.1,"az":295.3,"ss":12.4,"used":false,"gnssid":6,"svid":10},{"PRN":84,"el":43.0,"az":293.4,"ss":15.0,"used":false,"gnssid":6,"svid":20},{"PRN":73,"el":39.4,"az":228.9,"ss":19.6,"used":false,"gnssid":6,"svid":9},{"PRN":67,"el":27.1,"az":47.7,"ss":0.0,"used":false,"gnssid":6,"svid":3},{"PRN":82,"el":13.2,"az":71.0,"ss":0.0,"used":false,"gnssid":6,"svid":18},{"PRN":75,"el":6.9,"az":340.3,"ss":16.4,"used":false,"gnssid":6,"svid":11},{"PRN":69,"el":5.6,"az":153.9,"ss":17.8,"used":false,"gnssid":6,"svid":5},{"PRN":135,"el":37.8,"az":196.5,"ss":38.9,"used":false,"gnssid":1,"svid":135},{"PRN":138,"el":37.3,"az":160.1,"ss":23.2,"used":false,"gnssid":1,"svid":138},{"PRN":133,"el":38.6,"az":191.1,"ss":41.5,"used":false,"gnssid":1,"svid":133}]}
$GPZDA,021725.00,24,04,2019,00,00*6D
$GPGGA,021725.00,4404.1255,N,12118.8537,W,1,00,2.00,1142.05,M,-22.155,M,,*65
$GPRMC,021725.00,A,4404.1255,N,12118.8537,W,1.7514,271.653,240419,14.4,E*45
$GPGSA,A,3,29,5,12,2,68,,,,,,,,6.2,2.0,5.8*38
$GPGBS,021725.00,24.191,16.321,133.400,,,,*4F
{"class":"TPV","mode":3,"time":"2019-04-24T02:17:25.000Z","leapseconds":18,"ept":0.005,"lat":44.068757686,"lon":-121.314227517,"altHAE":1119.898,"altMSL":1142.053,"epx":24.191,"epy":16.321,"epv":133.400,"track":271.6529,"magtrack":286.0714,"magvar":14.4,"speed":0.901,"climb":-0.027,"eps":48.38,"epc":146.84,"ecefx":-2386071.00,"ecefy":-3922203.00,"ecefz":4414363.00,"ecefvx":-0.75,"ecefvy":0.50,"ecefvz":0.00,"velN":0.026,"velE":-0.901,"velD":0.027,"geoidSep":-22.155,"eph":38.000,"sep":117.800}
$GPZDA,021726.00,24,04,2019,00,00*6E
$GPGGA,021726.00,4404.1253,N,12118.8534,W,1,00,2.00,1139.43,M,-22.155,M,,*6D
$GPRMC,021726.00,A,4404.1253,N,12118.8534,W,1.7883,274.280,240419,14.4,E*4F
$GPGSA,A,3,29,5,12,2,68,,,,,,,,6.2,2.0,5.8*38
$GPGBS,021726.00,24.191,16.321,11.850,,,,*74
{"class":"TPV","mode":3,"time":"2019-04-24T02:17:26.000Z","leapseconds":18,"ept":0.005,"lat":44.068754900,"lon":-121.314222600,"altHAE":1119.800,"altMSL":1139.430,"epx":24.191,"epy":16.321,"epv":11.850,"track":274.2800,"magtrack":286.0714,"magvar":14.4,"speed":0.920,"climb":-0.050,"epd":0.0000,"eps":0.50,"epc":146.84,"ecefx":-2386071.00,"ecefy":-3922203.00,"ecefz":4414363.00,"ecefvx":-0.75,"ecefvy":0.50,"ecefvz":0.00,"velN":0.026,"velE":-0.901,"velD":0.027,"geoidSep":-22.155,"eph":38.000,"sep":117.800,"datum":"WGS84"}
$GPGSV,6,1,23,25,67,225,15,29,61,312,12,05,53,108,20,12,42,167,12*79
$GPGSV,6,2,23,02,41,056,15,31,17,294,00,21,14,244,15,06,09,057,00*7A
$GPGSV,6,3,23,193,29,146,00,04,02,044,00,09,01,033,00,68,31,111,20*4F
$GPGSV,6,4,23,83,54,034,00,74,43,295,12,84,43,293,00,73,39,229,19*72
$GPGSV,6,5,23,67,27,048,00,82,13,071,00,75,07,340,16,69,06,154,17*77
$GPGSV,6,6,23,135,38,196,39,138,37,160,00,133,39,191,42*7D
{"class":"SKY","time":"2019-04-24T02:17:26.000Z","xdop":1.61,"ydop":1.09,"vdop":5.80,"tdop":4.60,"hdop":2.00,"gdop":7.80,"pdop":6.20,"satellites":[{"PRN":25,"el":66.7,"az":224.7,"ss":14.6,"used":false,"gnssid":0,"svid":25},{"PRN":29,"el":60.6,"az":312.0,"ss":12.3,"used":false,"gnssid":0,"svid":29},{"PRN":5,"el":52.7,"az":107.7,"ss":20.5,"used":true,"gnssid":0,"svid":5},{"PRN":12,"el":41.9,"az":166.6,"ss":12.4,"used":true,"gnssid":0,"svid":12},{"PRN":2,"el":41.3,"az":56.1,"ss":15.4,"used":true,"gnssid":0,"svid":2},{"PRN":31,"el":17.3,"az":293.8,"ss":0.0,"used":false,"gnssid":0,"svid":31},{"PRN":21,"el":14.0,"az":243.6,"ss":15.2,"used":false,"gnssid":0,"svid":21},{"PRN":6,"el":9.4,"az":56.8,"ss":0.0,"used":false,"gnssid":0,"svid":6},{"PRN":193,"el":29.4,"az":146.1,"ss":0.0,"used":false,"gnssid":5,"svid":1},{"PRN":4,"el":2.3,"az":43.5,"ss":0.0,"used":false,"gnssid":0,"svid":4},{"PRN":9,"el":1.2,"az":32.7,"ss":0.0,"used":false,"gnssid":0,"svid":9},{"PRN":68,"el":30.8,"az":110.7,"ss":19.8,"used":true,"gnssid":6,"svid":4},{"PRN":83,"el":53.6,"az":33.8,"ss":0.0,"used":false,"gnssid":6,"svid":19},{"PRN":74,"el":43.1,"az":295.3,"ss":12.2,"used":false,"gnssid":6,"svid":10},{"PRN":84,"el":43.0,"az":293.4,"ss":0.0,"used":false,"gnssid":6,"svid":20},{"PRN":73,"el":39.4,"az":228.9,"ss":18.7,"used":false,"gnssid":6,"svid":9},{"PRN":67,"el":27.1,"az":47.7,"ss":0.0,"used":false,"gnssid":6,"svid":3},{"PRN":82,"el":13.2,"az":71.0,"ss":0.0,"used":false,"gnssid":6,"svid":18},{"PRN":75,"el":6.9,"az":340.3,"ss":16.4,"used":false,"gnssid":6,"svid":11},{"PRN":69,"el":5.6,"az":153.9,"ss":17.1,"used":false,"gnssid":6,"svid":5},{"PRN":135,"el":37.8,"az":196.5,"ss":38.9,"used":false,"gnssid":1,"svid":135},{"PRN":138,"el":37.3,"az":160.1,"ss":0.0,"used":false,"gnssid":1,"svid":138},{"PRN":133,"el":38.6,"az":191.1,"ss":41.5,"used":false,"gnssid":1,"svid":133}]}
$GPZDA,021726.00,24,04,2019,00,00*6E
$GPGGA,021726.00,4404.1253,N,12118.8543,W,1,00,3.40,1142.43,M,-22.155,M,,*64
$GPRMC,021726.00,A,4404.1253,N,12118.8543,W,1.7514,271.653,240419,14.4,E*43
$GPGSA,A,3,5,12,2,68,,,,,,,,,6.2,3.4,5.8*36
$GPGBS,021726.00,24.191,16.321,133.400,,,,*4C
{"class":"TPV","mode":3,"time":"2019-04-24T02:17:26.000Z","leapseconds":18,"ept":0.005,"lat":44.068754433,"lon":-121.314238179,"altHAE":1120.272,"altMSL":1142.427,"epx":24.191,"epy":16.321,"epv":133.400,"track":271.6529,"magtrack":286.0714,"magvar":14.4,"speed":0.901,"climb":-0.027,"eps":48.38,"epc":145.25,"ecefx":-2386072.00,"ecefy":-3922203.00,"ecefz":4414363.00,"ecefvx":-0.75,"ecefvy":0.50,"ecefvz":0.00,"velN":0.026,"velE":-0.901,"velD":0.027,"geoidSep":-22.155,"eph":64.600,"sep":117.800}
$GPZDA,021727.00,24,04,2019,00,00*6F
$GPGGA,021727.00,4404.1252,N,12118.8542,W,1,00,3.40,1139.30,M,-22.155,M,,*6D
$GPRMC,021727.00,A,4404.1252,N,12118.8542,W,1.9050,271.970,240419,14.4,E*47
$GPGSA,A,3,5,12,2,68,,,,,,,,,6.8,3.4,5.8*3C
$GPGBS,021727.00,24.191,16.321,11.430,,,,*7F
{"class":"TPV","mode":3,"time":"2019-04-24T02:17:27.000Z","leapseconds":18,"ept":0.005,"lat":44.068753900,"lon":-121.314235900,"altHAE":1119.670,"altMSL":1139.300,"epx":24.191,"epy":16.321,"epv":11.430,"track":271.9700,"magtrack":286.0714,"magvar":14.4,"speed":0.980,"climb":-0.050,"epd":0.0000,"eps":0.37,"epc":145.25,"ecefx":-2386072.00,"ecefy":-3922203.00,"ecefz":4414363.00,"ecefvx":-0.75,"ecefvy":0.50,"ecefvz":0.00,"velN":0.026,"velE":-0.901,"velD":0.027,"geoidSep":-22.155,"eph":64.600,"sep":117.800,"datum":"WGS84"}
$GPGSV,6,1,23,25,67,225,11,29,61,312,10,05,53,108,12,12,42,167,14*78
$GPGSV,6,2,23,02,41,056,15,31,17,294,00,21,14,244,14,06,09,057,00*7B
$GPGSV,6,3,23,193,29,146,00,04,02,044,00,09,01,033,00,68,31,111,16*4A
$GPGSV,6,4,23,83,54,034,00,74,43,295,12,84,43,293,00,73,39,229,18*73
$GPGSV,6,5,23,67,27,048,00,82,13,071,00,75,07,340,16,69,06,154,16*76
$GPGSV,6,6,23,135,38,196,39,138,37,160,00,133,39,191,42*7D
{"class":"SKY","time":"2019-04-24T02:17:27.000Z","xdop":1.61,"ydop":1.09,"vdop":5.80,"tdop":5.00,"hdop":3.40,"gdop":8.60,"pdop":6.80,"satellites":[{"PRN":25,"el":66.7,"az":224.7,"ss":11.1,"used":false,"gnssid":0,"svid":25},{"PRN":29,"el":60.6,"az":312.0,"ss":9.9,"used":true,"gnssid":0,"svid":29},{"PRN":5,"el":52.7,"az":107.7,"ss":12.5,"used":false,"gnssid":0,"svid":5},{"PRN":12,"el":41.9,"az":166.6,"ss":13.7,"used":true,"gnssid":0,"svid":12},{"PRN":2,"el":41.3,"az":56.1,"ss":14.9,"used":true,"gnssid":0,"svid":2},{"PRN":31,"el":17.3,"az":293.8,"ss":0.0,"used":false,"gnssid":0,"svid":31},{"PRN":21,"el":14.0,"az":243.6,"ss":14.3,"used":false,"gnssid":0,"svid":21},{"PRN":6,"el":9.4,"az":56.8,"ss":0.0,"used":false,"gnssid":0,"svid":6},{"PRN":193,"el":29.4,"az":146.1,"ss":0.0,"used":false,"gnssid":5,"svid":1},{"PRN":4,"el":2.3,"az":43.5,"ss":0.0,"used":false,"gnssid":0,"svid":4},{"PRN":9,"el":1.2,"az":32.7,"ss":0.0,"used":false,"gnssid":0,"svid":9},{"PRN":68,"el":30.8,"az":110.7,"ss":16.4,"used":true,"gnssid":6,"svid":4},{"PRN":83,"el":53.6,"az":33.8,"ss":0.0,"used":false,"gnssid":6,"svid":19},{"PRN":74,"el":43.1,"az":295.3,"ss":12.0,"used":false,"gnssid":6,"svid":10},{"PRN":84,"el":43.0,"az":293.4,"ss":0.0,"used":false,"gnssid":6,"svid":20},{"PRN":73,"el":39.4,"az":228.9,"ss":17.8,"used":false,"gnssid":6,"svid":9},{"PRN":67,"el":27.1,"az":47.7,"ss":0.0,"used":false,"gnssid":6,"svid":3},{"PRN":82,"el":13.2,"az":71.0,"ss":0.0,"used":false,"gnssid":6,"svid":18},{"PRN":75,"el":6.9,"az":340.3,"ss":16.1,"used":false,"gnssid":6,"svid":11},{"PRN":69,"el":5.6,"az":153.9,"ss":16.5,"used":false,"gnssid":6,"svid":5},{"PRN":135,"el":37.8,"az":196.5,"ss":38.9,"used":false,"gnssid":1,"svid":135},{"PRN":138,"el":37.3,"az":160.1,"ss":0.0,"used":false,"gnssid":1,"svid":138},{"PRN":133,"el":38.6,"az":191.1,"ss":41.5,"used":false,"gnssid":1,"svid":133}]}
$GPZDA,021727.00,24,04,2019,00,00*6F
$GPGGA,021727.00,4404.1250,N,12118.8553,W,1,00,1.60,1141.49,M,-22.155,M,,*6E
$GPRMC,021727.00,A,4404.1250,N,12118.8553,W,1.7514,271.653,240419,14.4,E*40
$GPGSA,A,3,29,12,2,68,,,,,,,,,6.8,1.6,5.8*02
$GPGBS,021727.00,24.191,16.321,133.400,,,,*4D
{"class":"TPV","mode":3,"time":"2019-04-24T02:17:27.000Z","leapseconds":18,"ept":0.005,"lat":44.068750062,"lon":-121.314255327,"altHAE":1119.336,"altMSL":1141.491,"epx":24.191,"epy":16.321,"epv":133.400,"track":271.6529,"magtrack":286.0714,"magvar":14.4,"speed":0.901,"climb":-0.027,"eps":48.38,"epc":144.83,"ecefx":-2386073.00,"ecefy":-3922202.00,"ecefz":4414362.00,"ecefvx":-0.75,"ecefvy":0.50,"ecefvz":0.00,"velN":0.026,"velE":-0.901,"velD":0.027,"geoidSep":-22.155,"eph":30.400,"sep":129.200}
$GPZDA,021728.00,24,04,2019,00,00*60
$GPGGA,021728.00,4404.1252,N,12118.8549,W,1,00,1.60,1139.21,M,-22.155,M,,*69
$GPRMC,021728.00,A,4404.1252,N,12118.8549,W,1.9244,270.440,240419,14.4,E*4B
$GPGSA,A,3,29,12,2,68,,,,,,,,,3.6,1.6,3.0*07
$GPGBS,021728.00,24.191,16.321,9.460,,,,*4C
{"class":"TPV","mode":3,"time":"2019-04-24T02:17:28.000Z","leapseconds":18,"ept":0.005,"lat":44.068753300,"lon":-121.314249100,"altHAE":1119.580,"altMSL":1139.210,"epx":24.191,"epy":16.321,"epv":9.460,"track":270.4400,"magtrack":286.0714,"magvar":14.4,"speed":0.990,"climb":-0.040,"epd":0.0000,"eps":0.27,"epc":144.83,"ecefx":-2386073.00,"ecefy":-3922202.00,"ecefz":4414362.00,"ecefvx":-0.75,"ecefvy":0.50,"ecefvz":0.00,"velN":0.026,"velE":-0.901,"velD":0.027,"geoidSep":-22.155,"eph":30.400,"sep":129.200,"datum":"WGS84"}
$GPGSV,6,1,23,25,67,225,04,29,61,312,11,05,53,108,08,12,42,167,14*76
$GPGSV,6,2,23,02,41,056,14,31,17,294,00,21,14,244,13,06,09,057,00*7D
$GPGSV,6,3,23,193,29,146,00,04,02,044,00,09,01,033,00,68,31,111,15*49
$GPGSV,6,4,23,83,54,034,00,74,43,295,12,84,43,293,00,73,39,229,17*7C
$GPGSV,6,5,23,67,27,048,00,82,13,071,00,75,07,340,00,69,06,154,16*71
$GPGSV,6,6,23,135,38,196,39,138,37,160,00,133,39,191,42*7D
{"class":"SKY","time":"2019-04-24T02:17:28.000Z","xdop":1.61,"ydop":1.09,"vdop":3.00,"tdop":2.40,"hdop":1.60,"gdop":4.20,"pdop":3.60,"satellites":[{"PRN":25,"el":66.7,"az":224.7,"ss":4.5,"used":false,"gnssid":0,"svid":25},{"PRN":29,"el":60.6,"az":312.0,"ss":11.0,"used":true,"gnssid":0,"svid":29},{"PRN":5,"el":52.7,"az":107.7,"ss":7.7,"used":false,"gnssid":0,"svid":5},{"PRN":12,"el":41.9,"az":166.6,"ss":14.2,"used":true,"gnssid":0,"svid":12},{"PRN":2,"el":41.3,"az":56.1,"ss":14.3,"used":true,"gnssid":0,"svid":2},{"PRN":31,"el":17.3,"az":293.8,"ss":0.0,"used":false,"gnssid":0,"svid":31},{"PRN":21,"el":14.0,"az":243.6,"ss":13.4,"used":false,"gnssid":0,"svid":21},{"PRN":6,"el":9.4,"az":56.8,"ss":0.0,"used":false,"gnssid":0,"svid":6},{"PRN":193,"el":29.4,"az":146.1,"ss":0.0,"used":false,"gnssid":5,"svid":1},{"PRN":4,"el":2.3,"az":43.5,"ss":0.0,"used":false,"gnssid":0,"svid":4},{"PRN":9,"el":1.2,"az":32.7,"ss":0.0,"used":false,"gnssid":0,"svid":9},{"PRN":68,"el":30.8,"az":110.7,"ss":15.0,"used":true,"gnssid":6,"svid":4},{"PRN":83,"el":53.6,"az":33.8,"ss":0.0,"used":false,"gnssid":6,"svid":19},{"PRN":74,"el":43.1,"az":295.3,"ss":12.0,"used":false,"gnssid":6,"svid":10},{"PRN":84,"el":43.0,"az":293.4,"ss":0.0,"used":false,"gnssid":6,"svid":20},{"PRN":73,"el":39.4,"az":228.9,"ss":17.0,"used":false,"gnssid":6,"svid":9},{"PRN":67,"el":27.1,"az":47.7,"ss":0.0,"used":false,"gnssid":6,"svid":3},{"PRN":82,"el":13.2,"az":71.0,"ss":0.0,"used":false,"gnssid":6,"svid":18},{"PRN":75,"el":6.9,"az":340.3,"ss":0.0,"used":false,"gnssid":6,"svid":11},{"PRN":69,"el":5.6,"az":153.9,"ss":16.3,"used":false,"gnssid":6,"svid":5},{"PRN":135,"el":37.8,"az":196.5,"ss":38.9,"used":false,"gnssid":1,"svid":135},{"PRN":138,"el":37.3,"az":160.1,"ss":0.0,"used":false,"gnssid":1,"svid":138},{"PRN":133,"el":38.6,"az":191.1,"ss":41.5,"used":false,"gnssid":1,"svid":133}]}
$GPZDA,021728.00,24,04,2019,00,00*60
$GPGGA,021728.00,4404.1250,N,12118.8553,W,1,00,1.60,1141.49,M,-22.155,M,,*61
$GPRMC,021728.00,A,4404.1250,N,12118.8553,W,1.6271,266.693,240419,14.4,E*40
$GPGSA,A,3,29,12,2,68,,,,,,,,,3.6,1.6,3.0*07
$GPGBS,021728.00,24.191,16.321,69.000,,,,*78
{"class":"TPV","mode":3,"time":"2019-04-24T02:17:28.000Z","leapseconds":18,"ept":0.005,"lat":44.068750062,"lon":-121.314255327,"altHAE":1119.336,"altMSL":1141.491,"epx":24.191,"epy":16.321,"epv":69.000,"track":266.6929,"magtrack":281.1114,"magvar":14.4,"speed":0.837,"climb":0.050,"eps":48.38,"epc":78.46,"ecefx":-2386073.00,"ecefy":-3922202.00,"ecefz":4414362.00,"ecefvx":-0.75,"ecefvy":0.38,"ecefvz":0.00,"velN":-0.048,"velE":-0.836,"velD":-0.050,"geoidSep":-22.155,"eph":30.400,"sep":68.400}
$GPZDA,021729.00,24,04,2019,00,00*61
$GPGGA,021729.00,4404.1251,N,12118.8557,W,1,00,1.60,1139.15,M,-22.155,M,,*63
$GPRMC,021729.00,A,4404.1251,N,12118.8557,W,1.8467,268.460,240419,14.4,E*4B
$GPGSA,A,3,29,12,2,68,,,,,,,,,3.6,1.6,3.0*07
$GPGBS,021729.00,24.191,16.321,8.790,,,,*40
{"class":"TPV","mode":3,"time":"2019-04-24T02:17:29.000Z","leapseconds":18,"ept":0.005,"lat":44.068752300,"lon":-121.314261400,"altHAE":1119.510,"altMSL":1139.150,"epx":24.191,"epy":16.321,"epv":8.790,"track":268.4600,"magtrack":281.1114,"magvar":14.4,"speed":0.950,"climb":-0.020,"epd":0.0000,"eps":1.22,"epc":78.46,"ecefx":-2386073.00,"ecefy":-3922202.00,"ecefz":4414362.00,"ecefvx":-0.75,"ecefvy":0.38,"ecefvz":0.00,"velN":-0.048,"velE":-0.836,"velD":-0.050,"geoidSep":-22.155,"eph":30.400,"sep":68.400,"datum":"WGS84"}
$GPGSV,6,1,23,25,67,225,10,29,61,312,10,05,53,108,05,12,42,167,14*7F
$GPGSV,6,2,23,02,41,056,14,31,17,294,00,21,14,244,13,06,09,057,00*7D
$GPGSV,6,3,23,193,29,146,00,04,02,044,00,09,01,033,00,68,31,111,15*49
$GPGSV,6,4,23,83,54,034,00,74,43,295,12,84,43,293,00,73,39,229,16*7D
$GPGSV,6,5,23,67,27,048,00,82,13,071,00,75,07,340,00,69,06,154,00*76
$GPGSV,6,6,23,135,38,196,39,138,37,160,00,133,39,191,42*7D
