$GPGSV,6,1,23,25,66,224,29,29,60,312,28,05,52,107,26,12,41,166,39*7D
$GPGSV,6,2,23,02,41,056,25,31,17,293,00,21,14,243,00,06,09,056,00*7C
$GPGSV,6,3,23,193,29,146,00,04,02,043,00,09,01,032,00,68,30,110,26*4F
$GPGSV,6,4,23,83,53,033,00,74,43,295,22,84,43,293,00,73,39,228,26*7C
$GPGSV,6,5,23,67,27,047,00,82,13,071,00,75,06,340,00,69,05,153,26*78
$GPGSV,6,6,23,135,37,196,39,138,37,160,31,133,38,191,29*7C
{"class":"SKY","time":"2019-04-24T02:17:13.000Z","xdop":1.58,"ydop":1.08,"vdop":5.24,"tdop":4.23,"hdop":1.92,"gdop":7.00,"pdop":5.58,"satellites":[{"PRN":25,"el":66,"az":224,"ss":29,"used":true,"gnssid":0,"svid":25},{"PRN":29,"el":60,"az":312,"ss":28,"used":true,"gnssid":0,"svid":29},{"PRN":5,"el":52,"az":107,"ss":26,"used":true,"gnssid":0,"svid":5},{"PRN":12,"el":41,"az":166,"ss":39,"used":true,"gnssid":0,"svid":12},{"PRN":2,"el":41,"az":56,"ss":25,"used":true,"gnssid":0,"svid":2},{"PRN":31,"el":17,"az":293,"ss":0,"used":false,"gnssid":0,"svid":31},{"PRN":21,"el":14,"az":243,"ss":0,"used":false,"gnssid":0,"svid":21},{"PRN":6,"el":9,"az":56,"ss":0,"used":false,"gnssid":0,"svid":6},{"PRN":193,"el":29,"az":146,"ss":0,"used":false,"gnssid":5,"svid":1},{"PRN":4,"el":2,"az":43,"ss":0,"used":false,"gnssid":0,"svid":4},{"PRN":9,"el":1,"az":32,"ss":0,"used":false,"gnssid":0,"svid":9},{"PRN":68,"el":30,"az":110,"ss":26,"used":true,"gnssid":6,"svid":4},{"PRN":83,"el":53,"az":33,"ss":0,"used":false,"gnssid":6,"svid":19},{"PRN":74,"el":43,"az":295,"ss":22,"used":false,"gnssid":6,"svid":10},{"PRN":84,"el":43,"az":293,"ss":0,"used":false,"gnssid":6,"svid":20},{"PRN":73,"el":39,"az":228,"ss":26,"used":false,"gnssid":6,"svid":9},{"PRN":67,"el":27,"az":47,"ss":0,"used":false,"gnssid":6,"svid":3},{"PRN":82,"el":13,"az":71,"ss":0,"used":false,"gnssid":6,"svid":18},{"PRN":75,"el":6,"az":340,"ss":0,"used":false,"gnssid":6,"svid":11},{"PRN":69,"el":5,"az":153,"ss":26,"used":false,"gnssid":6,"svid":5},{"PRN":135,"el":37,"az":196,"ss":39,"used":false,"gnssid":1,"svid":135},{"PRN":138,"el":37,"az":160,"ss":31,"used":false,"gnssid":1,"svid":138},{"PRN":133,"el":38,"az":191,"ss":29,"used":false,"gnssid":1,"svid":133}]}
$GPZDA,021713.00,24,04,2019,00,00*68
$GPGGA,021713.00,4404.1257,N,12118.8483,W,1,00,1.80,1140.95,M,-20.139,M,,*64
$GPRMC,021713.00,A,4404.1257,N,12118.8483,W,,,240419,,*24
$GPGSA,A,3,25,29,5,12,2,68,,,,,,,5.6,1.8,5.2*39
$GPGBS,021713.00,23.765,16.197,120.436,,,,*48
{"class":"TPV","mode":3,"time":"2019-04-24T02:17:13.000Z","ept":0.005,"lat":44.068762281,"lon":-121.314137599,"alt":1140.948,"epx":23.765,"epy":16.197,"epv":120.436,"climb":0.000,"ecefx":-2386065.00,"ecefy":-3922207.00,"ecefz":4414364.00,"ecefvx":0.00,"ecefvy":0.00,"ecefvz":0.00,"eph":34.200,"sep":105.951}
$GPZDA,021715.00,24,04,2019,00,00*6E
$GPGGA,021715.00,4404.1259,N,12118.8485,W,1,00,1.80,1140.83,M,-20.139,M,,*6D
$GPRMC,021715.00,A,4404.1259,N,12118.8485,W,0.0000,125.780,240419,,*13
$GPGSA,A,3,25,29,5,12,2,68,,,,,,,5.6,1.8,5.4*3F
$GPGBS,021715.00,23.765,16.197,15.130,,,,*7A
{"class":"TPV","mode":3,"time":"2019-04-24T02:17:15.000Z","leapseconds":18,"ept":0.005,"lat":44.068764400,"lon":-121.314141300,"alt":1140.830,"epx":23.765,"epy":16.197,"epv":15.130,"track":125.7800,"speed":0.000,"climb":0.000,"epd":0.0000,"eps":0.01,"epc":67.78,"ecefx":-2386065.00,"ecefy":-3922207.00,"ecefz":4414364.00,"ecefvx":0.00,"ecefvy":0.00,"ecefvz":0.00,"eph":34.200,"sep":105.951,"datum":"WGS84"}
$GPGSV,6,1,23,25,66,224,29,29,60,312,28,05,52,107,27,12,41,166,39*7C
$GPGSV,6,2,23,02,41,056,25,31,17,293,00,21,14,243,00,06,09,056,00*7C
$GPGSV,6,3,23,193,29,146,00,04,02,043,00,09,01,032,00,68,30,110,26*4F
$GPGSV,6,4,23,83,53,033,00,74,43,295,22,84,43,293,00,73,39,228,26*7C
$GPGSV,6,5,23,67,27,047,00,82,13,071,00,75,06,340,00,69,05,153,26*78
$GPGSV,6,6,23,135,37,196,39,138,37,160,31,133,38,191,29*7C
{"class":"SKY","time":"2019-04-24T02:17:15.000Z","xdop":1.58,"ydop":1.08,"vdop":5.40,"tdop":4.40,"hdop":1.80,"gdop":7.20,"pdop":5.60,"satellites":[{"PRN":25,"el":66,"az":224,"ss":29,"used":true,"gnssid":0,"svid":25},{"PRN":29,"el":60,"az":312,"ss":28,"used":true,"gnssid":0,"svid":29},{"PRN":5,"el":52,"az":107,"ss":27,"used":true,"gnssid":0,"svid":5},{"PRN":12,"el":41,"az":166,"ss":39,"used":true,"gnssid":0,"svid":12},{"PRN":2,"el":41,"az":56,"ss":25,"used":true,"gnssid":0,"svid":2},{"PRN":31,"el":17,"az":293,"ss":0,"used":false,"gnssid":0,"svid":31},{"PRN":21,"el":14,"az":243,"ss":0,"used":false,"gnssid":0,"svid":21},{"PRN":6,"el":9,"az":56,"ss":0,"used":false,"gnssid":0,"svid":6},{"PRN":193,"el":29,"az":146,"ss":0,"used":false,"gnssid":5,"svid":1},{"PRN":4,"el":2,"az":43,"ss":0,"used":false,"gnssid":0,"svid":4},{"PRN":9,"el":1,"az":32,"ss":0,"used":false,"gnssid":0,"svid":9},{"PRN":68,"el":30,"az":110,"ss":26,"used":true,"gnssid":6,"svid":4},{"PRN":83,"el":53,"az":33,"ss":0,"used":false,"gnssid":6,"svid":19},{"PRN":74,"el":43,"az":295,"ss":22,"used":false,"gnssid":6,"svid":10},{"PRN":84,"el":43,"az":293,"ss":0,"used":false,"gnssid":6,"svid":20},{"PRN":73,"el":39,"az":228,"ss":26,"used":false,"gnssid":6,"svid":9},{"PRN":67,"el":27,"az":47,"ss":0,"used":false,"gnssid":6,"svid":3},{"PRN":82,"el":13,"az":71,"ss":0,"used":false,"gnssid":6,"svid":18},{"PRN":75,"el":6,"az":340,"ss":0,"used":false,"gnssid":6,"svid":11},{"PRN":69,"el":5,"az":153,"ss":26,"used":false,"gnssid":6,"svid":5},{"PRN":135,"el":37,"az":196,"ss":39,"used":false,"gnssid":1,"svid":135},{"PRN":138,"el":37,"az":160,"ss":31,"used":false,"gnssid":1,"svid":138},{"PRN":133,"el":38,"az":191,"ss":29,"used":false,"gnssid":1,"svid":133}]}
$GPZDA,021715.00,24,04,2019,00,00*6E
$GPGGA,021715.00,4404.1257,N,12118.8483,W,1,00,1.80,1140.95,M,-20.139,M,,*62
$GPRMC,021715.00,A,4404.1257,N,12118.8483,W,0.7360,,240419,,*3E
$GPGSA,A,3,25,29,5,12,2,68,,,,,,,5.6,1.8,5.4*3F
$GPGBS,021715.00,23.765,16.197,124.200,,,,*49
{"class":"TPV","mode":3,"time":"2019-04-24T02:17:15.000Z","leapseconds":18,"ept":0.005,"lat":44.068762281,"lon":-121.314137599,"alt":1140.948,"epx":23.765,"epy":16.197,"epv":124.200,"speed":0.379,"climb":0.000,"eps":47.53,"epc":139.33,"ecefx":-2386065.00,"ecefy":-3922207.00,"ecefz":4414364.00,"ecefvx":0.00,"ecefvy":0.00,"ecefvz":0.00,"eph":34.200,"sep":106.400}
$GPZDA,021716.00,24,04,2019,00,00*6D
$GPGGA,021716.00,4404.1258,N,12118.8485,W,1,00,1.80,1140.74,M,-20.139,M,,*67
$GPRMC,021716.00,A,4404.1258,N,12118.8485,W,0.1361,125.780,240419,,*14
$GPGSA,A,3,25,29,5,12,2,68,,,,,,,5.6,1.8,5.4*3F
$GPGBS,021716.00,23.765,16.197,15.210,,,,*78
{"class":"TPV","mode":3,"time":"2019-04-24T02:17:16.000Z","leapseconds":18,"ept":0.005,"lat":44.068762900,"lon":-121.314141500,"alt":1140.740,"epx":23.765,"epy":16.197,"epv":15.210,"track":125.7800,"speed":0.070,"climb":0.000,"epd":0.0000,"eps":0.29,"epc":139.33,"ecefx":-2386065.00,"ecefy":-3922207.00,"ecefz":4414364.00,"ecefvx":0.00,"ecefvy":0.00,"ecefvz":0.00,"eph":34.200,"sep":106.400,"datum":"WGS84"}
$GPGSV,6,1,23,25,66,224,26,29,60,312,27,05,52,107,27,12,41,166,39*7C
$GPGSV,6,2,23,02,41,056,23,31,17,293,20,21,14,243,18,06,09,056,00*71
$GPGSV,6,3,23,193,29,146,00,04,02,043,00,09,01,032,00,68,30,110,26*4F
$GPGSV,6,4,23,83,53,033,16,74,43,295,14,84,43,293,00,73,39,228,24*7C
$GPGSV,6,5,23,67,27,047,00,82,13,071,00,75,06,340,00,69,05,153,26*78
$GPGSV,6,6,23,135,37,196,39,138,37,160,29,133,38,191,28*74
{"class":"SKY","time":"2019-04-24T02:17:16.000Z","xdop":1.58,"ydop":1.08,"vdop":5.40,"tdop":4.40,"hdop":1.80,"gdop":7.20,"pdop":5.60,"satellites":[{"PRN":25,"el":66,"az":224,"ss":26,"used":true,"gnssid":0,"svid":25},{"PRN":29,"el":60,"az":312,"ss":27,"used":true,"gnssid":0,"svid":29},{"PRN":5,"el":52,"az":107,"ss":27,"used":true,"gnssid":0,"svid":5},{"PRN":12,"el":41,"az":166,"ss":39,"used":true,"gnssid":0,"svid":12},{"PRN":2,"el":41,"az":56,"ss":23,"used":false,"gnssid":0,"svid":2},{"PRN":31,"el":17,"az":293,"ss":20,"used":false,"gnssid":0,"svid":31},{"PRN":21,"el":14,"az":243,"ss":18,"used":false,"gnssid":0,"svid":21},{"PRN":6,"el":9,"az":56,"ss":0,"used":false,"gnssid":0,"svid":6},{"PRN":193,"el":29,"az":146,"ss":0,"used":false,"gnssid":5,"svid":1},{"PRN":4,"el":2,"az":43,"ss":0,"used":false,"gnssid":0,"svid":4},{"PRN":9,"el":1,"az":32,"ss":0,"used":false,"gnssid":0,"svid":9},{"PRN":68,"el":30,"az":110,"ss":26,"used":true,"gnssid":6,"svid":4},{"PRN":83,"el":53,"az":33,"ss":16,"used":false,"gnssid":6,"svid":19},{"PRN":74,"el":43,"az":295,"ss":14,"used":false,"gnssid":6,"svid":10},{"PRN":84,"el":43,"az":293,"ss":0,"used":false,"gnssid":6,"svid":20},{"PRN":73,"el":39,"az":228,"ss":24,"used":false,"gnssid":6,"svid":9},{"PRN":67,"el":27,"az":47,"ss":0,"used":false,"gnssid":6,"svid":3},{"PRN":82,"el":13,"az":71,"ss":0,"used":false,"gnssid":6,"svid":18},{"PRN":75,"el":6,"az":340,"ss":0,"used":false,"gnssid":6,"svid":11},{"PRN":69,"el":5,"az":153,"ss":26,"used":false,"gnssid":6,"svid":5},{"PRN":135,"el":37,"az":196,"ss":39,"used":false,"gnssid":1,"svid":135},{"PRN":138,"el":37,"az":160,"ss":29,"used":false,"gnssid":1,"svid":138},{"PRN":133,"el":38,"az":191,"ss":28,"used":false,"gnssid":1,"svid":133}]}
$GPZDA,021716.00,24,04,2019,00,00*6D
$GPGGA,021716.00,4404.1255,N,12118.8489,W,1,00,2.20,1141.32,M,-20.139,M,,*6C
$GPRMC,021716.00,A,4404.1255,N,12118.8489,W,1.3446,,240419,,*33
$GPGSA,A,3,25,29,5,12,68,,,,,,,,5.6,2.2,5.4*04
$GPGBS,021716.00,23.765,16.197,124.200,,,,*4A
{"class":"TPV","mode":3,"time":"2019-04-24T02:17:16.000Z","leapseconds":18,"ept":0.005,"lat":44.068759028,"lon":-121.314148261,"alt":1141.321,"epx":23.765,"epy":16.197,"epv":124.200,"speed":0.692,"climb":-0.030,"eps":47.53,"epc":139.41,"ecefx":-2386066.00,"ecefy":-3922207.00,"ecefz":4414364.00,"ecefvx":-0.12,"ecefvy":0.12,"ecefvz":0.00,"eph":41.800,"sep":106.400}
$GPZDA,021717.00,24,04,2019,00,00*6C
$GPGGA,021717.00,4404.1257,N,12118.8486,W,1,00,2.20,1140.62,M,-20.139,M,,*64
$GPRMC,021717.00,A,4404.1257,N,12118.8486,W,0.3110,125.780,240419,,*1F
$GPGSA,A,3,25,29,5,12,68,,,,,,,,5.8,2.2,5.4*0A
$GPGBS,021717.00,23.765,16.197,14.530,,,,*7D
{"class":"TPV","mode":3,"time":"2019-04-24T02:17:17.000Z","leapseconds":18,"ept":0.005,"lat":44.068761300,"lon":-121.314143600,"alt":1140.620,"epx":23.765,"epy":16.197,"epv":14.530,"track":125.7800,"speed":0.160,"climb":-0.040,"epd":0.0000,"eps":0.40,"epc":139.41,"ecefx":-2386066.00,"ecefy":-3922207.00,"ecefz":4414364.00,"ecefvx":-0.12,"ecefvy":0.12,"ecefvz":0.00,"eph":41.800,"sep":106.400,"datum":"WGS84"}
$GPGSV,6,1,23,25,66,224,22,29,60,312,25,05,52,107,27,12,41,166,30*73
$GPGSV,6,2,23,02,41,056,17,31,17,293,00,21,14,243,18,06,09,056,00*74
$GPGSV,6,3,23,193,29,146,00,04,02,043,00,09,01,032,00,68,30,110,26*4F
$GPGSV,6,4,23,83,53,033,18,74,43,295,14,84,43,293,00,73,39,228,21*77
$GPGSV,6,5,23,67,27,047,00,82,13,071,00,75,06,340,00,69,05,153,26*78
$GPGSV,6,6,23,135,37,196,39,138,37,160,27,133,38,191,26*74
{"class":"SKY","time":"2019-04-24T02:17:17.000Z","xdop":1.58,"ydop":1.08,"vdop":5.40,"tdop":4.40,"hdop":2.20,"gdop":7.40,"pdop":5.80,"satellites":[{"PRN":25,"el":66,"az":224,"ss":22,"used":true,"gnssid":0,"svid":25},{"PRN":29,"el":60,"az":312,"ss":25,"used":false,"gnssid":0,"svid":29},{"PRN":5,"el":52,"az":107,"ss":27,"used":true,"gnssid":0,"svid":5},{"PRN":12,"el":41,"az":166,"ss":30,"used":true,"gnssid":0,"svid":12},{"PRN":2,"el":41,"az":56,"ss":17,"used":true,"gnssid":0,"svid":2},{"PRN":31,"el":17,"az":293,"ss":0,"used":false,"gnssid":0,"svid":31},{"PRN":21,"el":14,"az":243,"ss":18,"used":false,"gnssid":0,"svid":21},{"PRN":6,"el":9,"az":56,"ss":0,"used":false,"gnssid":0,"svid":6},{"PRN":193,"el":29,"az":146,"ss":0,"used":false,"gnssid":5,"svid":1},{"PRN":4,"el":2,"az":43,"ss":0,"used":false,"gnssid":0,"svid":4},{"PRN":9,"el":1,"az":32,"ss":0,"used":false,"gnssid":0,"svid":9},{"PRN":68,"el":30,"az":110,"ss":26,"used":true,"gnssid":6,"svid":4},{"PRN":83,"el":53,"az":33,"ss":18,"used":false,"gnssid":6,"svid":19},{"PRN":74,"el":43,"az":295,"ss":14,"used":false,"gnssid":6,"svid":10},{"PRN":84,"el":43,"az":293,"ss":0,"used":false,"gnssid":6,"svid":20},{"PRN":73,"el":39,"az":228,"ss":21,"used":false,"gnssid":6,"svid":9},{"PRN":67,"el":27,"az":47,"ss":0,"used":false,"gnssid":6,"svid":3},{"PRN":82,"el":13,"az":71,"ss":0,"used":false,"gnssid":6,"svid":18},{"PRN":75,"el":6,"az":340,"ss":0,"used":false,"gnssid":6,"svid":11},{"PRN":69,"el":5,"az":153,"ss":26,"used":false,"gnssid":6,"svid":5},{"PRN":135,"el":37,"az":196,"ss":39,"used":false,"gnssid":1,"svid":135},{"PRN":138,"el":37,"az":160,"ss":27,"used":false,"gnssid":1,"svid":138},{"PRN":133,"el":38,"az":191,"ss":26,"used":false,"gnssid":1,"svid":133}]}
$GPZDA,021717.00,24,04,2019,00,00*6C
$GPGGA,021717.00,4404.1255,N,12118.8489,W,1,00,2.60,1141.32,M,-20.139,M,,*69
$GPRMC,021717.00,A,4404.1255,N,12118.8489,W,0.8761,,240419,,*3E
$GPGSA,A,3,25,5,12,2,68,,,,,,,,5.8,2.6,5.4*37
$GPGBS,021717.00,23.765,16.197,124.200,,,,*4B
{"class":"TPV","mode":3,"time":"2019-04-24T02:17:17.000Z","leapseconds":18,"ept":0.005,"lat":44.068759028,"lon":-121.314148261,"alt":1141.321,"epx":23.765,"epy":16.197,"epv":124.200,"speed":0.451,"climb":-0.013,"eps":47.53,"epc":138.73,"ecefx":-2386066.00,"ecefy":-3922207.00,"ecefz":4414364.00,"ecefvx":-0.38,"ecefvy":0.25,"ecefvz":0.00,"eph":49.400,"sep":110.200}
$GPZDA,021718.00,24,04,2019,00,00*63
$GPGGA,021718.00,4404.1256,N,12118.8490,W,1,00,2.60,1140.47,M,-20.139,M,,*6E
$GPRMC,021718.00,A,4404.1256,N,12118.8490,W,0.8164,197.840,240419,,*14
$GPGSA,A,3,25,5,12,2,68,,,,,,,,6.4,2.6,5.8*34
$GPGBS,021718.00,23.765,16.197,12.820,,,,*78
{"class":"TPV","mode":3,"time":"2019-04-24T02:17:18.000Z","leapseconds":18,"ept":0.005,"lat":44.068759300,"lon":-121.314149900,"alt":1140.470,"epx":23.765,"epy":16.197,"epv":12.820,"track":197.8400,"speed":0.420,"climb":-0.050,"epd":0.0000,"eps":0.47,"epc":138.73,"ecefx":-2386066.00,"ecefy":-3922207.00,"ecefz":4414364.00,"ecefvx":-0.38,"ecefvy":0.25,"ecefvz":0.00,"eph":49.400,"sep":110.200,"datum":"WGS84"}
$GPGSV,6,1,23,25,66,224,20,29,60,312,16,05,52,107,19,12,41,166,26*7B
$GPGSV,6,2,23,02,41,056,16,31,17,293,00,21,14,243,00,06,09,056,00*7C
$GPGSV,6,3,23,193,29,146,00,04,02,043,00,09,01,032,00,68,30,110,20*49
$GPGSV,6,4,23,83,53,033,00,74,43,295,14,84,43,293,00,73,39,228,20*7F
$GPGSV,6,5,23,67,27,047,00,82,13,071,00,75,06,340,00,69,05,153,26*78
$GPGSV,6,6,23,135,37,196,39,138,37,160,25,133,38,191,25*75
{"class":"SKY","time":"2019-04-24T02:17:18.000Z","xdop":1.58,"ydop":1.08,"vdop":5.80,"tdop":5.00,"hdop":2.60,"gdop":8.20,"pdop":6.40,"satellites":[{"PRN":25,"el":66,"az":224,"ss":20,"used":true,"gnssid":0,"svid":25},{"PRN":29,"el":60,"az":312,"ss":16,"used":true,"gnssid":0,"svid":29},{"PRN":5,"el":52,"az":107,"ss":19,"used":true,"gnssid":0,"svid":5},{"PRN":12,"el":41,"az":166,"ss":26,"used":true,"gnssid":0,"svid":12},{"PRN":2,"el":41,"az":56,"ss":16,"used":true,"gnssid":0,"svid":2},{"PRN":31,"el":17,"az":293,"ss":0,"used":false,"gnssid":0,"svid":31},{"PRN":21,"el":14,"az":243,"ss":0,"used":false,"gnssid":0,"svid":21},{"PRN":6,"el":9,"az":56,"ss":0,"used":false,"gnssid":0,"svid":6},{"PRN":193,"el":29,"az":146,"ss":0,"used":false,"gnssid":5,"svid":1},{"PRN":4,"el":2,"az":43,"ss":0,"used":false,"gnssid":0,"svid":4},{"PRN":9,"el":1,"az":32,"ss":0,"used":false,"gnssid":0,"svid":9},{"PRN":68,"el":30,"az":110,"ss":20,"used":true,"gnssid":6,"svid":4},{"PRN":83,"el":53,"az":33,"ss":0,"used":false,"gnssid":6,"svid":19},{"PRN":74,"el":43,"az":295,"ss":14,"used":false,"gnssid":6,"svid":10},{"PRN":84,"el":43,"az":293,"ss":0,"used":false,"gnssid":6,"svid":20},{"PRN":73,"el":39,"az":228,"ss":20,"used":false,"gnssid":6,"svid":9},{"PRN":67,"el":27,"az":47,"ss":0,"used":false,"gnssid":6,"svid":3},{"PRN":82,"el":13,"az":71,"ss":0,"used":false,"gnssid":6,"svid":18},{"PRN":75,"el":6,"az":340,"ss":0,"used":false,"gnssid":6,"svid":11},{"PRN":69,"el":5,"az":153,"ss":26,"used":false,"gnssid":6,"svid":5},{"PRN":135,"el":37,"az":196,"ss":39,"used":false,"gnssid":1,"svid":135},{"PRN":138,"el":37,"az":160,"ss":25,"used":false,"gnssid":1,"svid":138},{"PRN":133,"el":38,"az":191,"ss":25,"used":false,"gnssid":1,"svid":133}]}
$GPZDA,021718.00,24,04,2019,00,00*63
$GPGGA,021718.00,4404.1257,N,12118.8499,W,1,00,1.80,1141.08,M,-20.139,M,,*61
$GPRMC,021718.00,A,4404.1257,N,12118.8499,W,2.4471,,240419,,*3E
$GPGSA,A,3,25,29,5,12,2,68,,,,,,,6.4,1.8,5.8*32
$GPGBS,021718.00,23.765,16.197,133.400,,,,*44
{"class":"TPV","mode":3,"time":"2019-04-24T02:17:18.000Z","leapseconds":18,"ept":0.005,"lat":44.068761122,"lon":-121.314165410,"alt":1141.081,"epx":23.765,"epy":16.197,"epv":133.400,"speed":1.259,"climb":0.033,"eps":47.53,"epc":146.22,"ecefx":-2386067.00,"ecefy":-3922206.00,"ecefz":4414364.00,"ecefvx":-0.50,"ecefvy":0.25,"ecefvz":0.00,"eph":34.200,"sep":121.600}
$GPZDA,021719.00,24,04,2019,00,00*62
$GPGGA,021719.00,4404.1254,N,12118.8495,W,1,00,1.80,1140.34,M,-20.139,M,,*61
$GPRMC,021719.00,A,4404.1254,N,12118.8495,W,1.1080,258.300,240419,,*1E
$GPGSA,A,3,25,29,5,12,2,68,,,,,,,5.6,1.8,5.4*3F
$GPGBS,021719.00,23.765,16.197,12.660,,,,*73
{"class":"TPV","mode":3,"time":"2019-04-24T02:17:19.000Z","leapseconds":18,"ept":0.005,"lat":44.068757400,"lon":-121.314158000,"alt":1140.340,"epx":23.765,"epy":16.197,"epv":12.660,"track":258.3000,"speed":0.570,"climb":-0.050,"epd":0.0000,"eps":0.56,"epc":146.22,"ecefx":-2386067.00,"ecefy":-3922206.00,"ecefz":4414364.00,"ecefvx":-0.50,"ecefvy":0.25,"ecefvz":0.00,"eph":34.200,"sep":121.600,"datum":"WGS84"}
$GPGSV,6,1,23,25,66,224,20,29,60,312,18,05,52,107,20,12,41,166,28*71
$GPGSV,6,2,23,02,41,056,17,31,17,293,00,21,14,243,00,06,09,056,00*7D
$GPGSV,6,3,23,193,29,146,00,04,02,043,00,09,01,032,00,68,30,110,22*4B
$GPGSV,6,4,23,83,53,033,00,74,43,295,13,84,43,293,00,73,39,228,21*79
$GPGSV,6,5,23,67,27,047,00,82,13,071,00,75,06,340,20,69,05,153,26*7A
$GPGSV,6,6,23,135,37,196,39,138,37,160,25,133,38,191,25*75
{"class":"SKY","time":"2019-04-24T02:17:19.000Z","xdop":1.58,"ydop":1.08,"vdop":5.40,"tdop":4.40,"hdop":1.80,"gdop":7.20,"pdop":5.60,"satellites":[{"PRN":25,"el":66,"az":224,"ss":20,"used":true,"gnssid":0,"svid":25},{"PRN":29,"el":60,"az":312,"ss":18,"used":true,"gnssid":0,"svid":29},{"PRN":5,"el":52,"az":107,"ss":20,"used":true,"gnssid":0,"svid":5},{"PRN":12,"el":41,"az":166,"ss":28,"used":true,"gnssid":0,"svid":12},{"PRN":2,"el":41,"az":56,"ss":17,"used":true,"gnssid":0,"svid":2},{"PRN":31,"el":17,"az":293,"ss":0,"used":false,"gnssid":0,"svid":31},{"PRN":21,"el":14,"az":243,"ss":0,"used":false,"gnssid":0,"svid":21},{"PRN":6,"el":9,"az":56,"ss":0,"used":false,"gnssid":0,"svid":6},{"PRN":193,"el":29,"az":146,"ss":0,"used":false,"gnssid":5,"svid":1},{"PRN":4,"el":2,"az":43,"ss":0,"used":false,"gnssid":0,"svid":4},{"PRN":9,"el":1,"az":32,"ss":0,"used":false,"gnssid":0,"svid":9},{"PRN":68,"el":30,"az":110,"ss":22,"used":true,"gnssid":6,"svid":4},{"PRN":83,"el":53,"az":33,"ss":0,"used":false,"gnssid":6,"svid":19},{"PRN":74,"el":43,"az":295,"ss":13,"used":false,"gnssid":6,"svid":10},{"PRN":84,"el":43,"az":293,"ss":0,"used":false,"gnssid":6,"svid":20},{"PRN":73,"el":39,"az":228,"ss":21,"used":false,"gnssid":6,"svid":9},{"PRN":67,"el":27,"az":47,"ss":0,"used":false,"gnssid":6,"svid":3},{"PRN":82,"el":13,"az":71,"ss":0,"used":false,"gnssid":6,"svid":18},{"PRN":75,"el":6,"az":340,"ss":20,"used":false,"gnssid":6,"svid":11},{"PRN":69,"el":5,"az":153,"ss":26,"used":false,"gnssid":6,"svid":5},{"PRN":135,"el":37,"az":196,"ss":39,"used":false,"gnssid":1,"svid":135},{"PRN":138,"el":37,"az":160,"ss":25,"used":false,"gnssid":1,"svid":138},{"PRN":133,"el":38,"az":191,"ss":25,"used":false,"gnssid":1,"svid":133}]}
$GPZDA,021719.00,24,04,2019,00,00*62
$GPGGA,021719.00,4404.1253,N,12118.8499,W,1,00,1.80,1140.39,M,-20.139,M,,*67
$GPRMC,021719.00,A,4404.1253,N,12118.8499,W,1.2971,,240419,,*33
$GPGSA,A,3,25,29,5,12,2,68,,,,,,,5.6,1.8,5.4*3F
$GPGBS,021719.00,23.765,16.197,124.200,,,,*45
{"class":"TPV","mode":3,"time":"2019-04-24T02:17:19.000Z","leapseconds":18,"ept":0.005,"lat":44.068754657,"lon":-121.314165410,"alt":1140.386,"epx":23.765,"epy":16.197,"epv":124.200,"speed":0.667,"climb":0.033,"eps":47.53,"epc":136.86,"ecefx":-2386067.00,"ecefy":-3922206.00,"ecefz":4414363.00,"ecefvx":-0.50,"ecefvy":0.25,"ecefvz":0.00,"eph":34.200,"sep":106.400}
$GPZDA,021720.00,24,04,2019,00,00*68
$GPGGA,021720.00,4404.1253,N,12118.8500,W,1,00,1.80,1140.21,M,-20.139,M,,*65
$GPRMC,021720.00,A,4404.1253,N,12118.8500,W,1.2635,263.140,240419,,*1B
$GPGSA,A,3,25,29,5,12,2,68,,,,,,,5.6,1.8,5.4*3F
$GPGBS,021720.00,23.765,16.197,13.480,,,,*74
{"class":"TPV","mode":3,"time":"2019-04-24T02:17:20.000Z","leapseconds":18,"ept":0.005,"lat":44.068755700,"lon":-121.314166900,"alt":1140.210,"epx":23.765,"epy":16.197,"epv":13.480,"track":263.1400,"speed":0.650,"climb":-0.050,"epd":0.0000,"eps":0.64,"epc":136.86,"ecefx":-2386067.00,"ecefy":-3922206.00,"ecefz":4414363.00,"ecefvx":-0.50,"ecefvy":0.25,"ecefvz":0.00,"eph":34.200,"sep":106.400,"datum":"WGS84"}
$GPGSV,6,1,23,25,66,224,20,29,60,312,18,05,52,107,20,12,41,166,27*7E
$GPGSV,6,2,23,02,41,056,17,31,17,293,00,21,14,243,00,06,09,056,00*7D
$GPGSV,6,3,23,193,29,146,00,04,02,043,00,09,01,032,00,68,30,110,23*4A
$GPGSV,6,4,23,83,53,033,00,74,43,295,14,84,43,293,15,73,39,228,20*7B
$GPGSV,6,5,23,67,27,047,00,82,13,071,00,75,06,340,18,69,05,153,26*71
$GPGSV,6,6,23,135,37,196,39,138,37,160,26,133,38,191,24*77
{"class":"SKY","time":"2019-04-24T02:17:20.000Z","xdop":1.58,"ydop":1.08,"vdop":5.40,"tdop":4.40,"hdop":1.80,"gdop":7.20,"pdop":5.60,"satellites":[{"PRN":25,"el":66,"az":224,"ss":20,"used":true,"gnssid":0,"svid":25},{"PRN":29,"el":60,"az":312,"ss":18,"used":true,"gnssid":0,"svid":29},{"PRN":5,"el":52,"az":107,"ss":20,"used":true,"gnssid":0,"svid":5},{"PRN":12,"el":41,"az":166,"ss":27,"used":true,"gnssid":0,"svid":12},{"PRN":2,"el":41,"az":56,"ss":17,"used":true,"gnssid":0,"svid":2},{"PRN":31,"el":17,"az":293,"ss":0,"used":false,"gnssid":0,"svid":31},{"PRN":21,"el":14,"az":243,"ss":0,"used":false,"gnssid":0,"svid":21},{"PRN":6,"el":9,"az":56,"ss":0,"used":false,"gnssid":0,"svid":6},{"PRN":193,"el":29,"az":146,"ss":0,"used":false,"gnssid":5,"svid":1},{"PRN":4,"el":2,"az":43,"ss":0,"used":false,"gnssid":0,"svid":4},{"PRN":9,"el":1,"az":32,"ss":0,"used":false,"gnssid":0,"svid":9},{"PRN":68,"el":30,"az":110,"ss":23,"used":true,"gnssid":6,"svid":4},{"PRN":83,"el":53,"az":33,"ss":0,"used":false,"gnssid":6,"svid":19},{"PRN":74,"el":43,"az":295,"ss":14,"used":false,"gnssid":6,"svid":10},{"PRN":84,"el":43,"az":293,"ss":15,"used":false,"gnssid":6,"svid":20},{"PRN":73,"el":39,"az":228,"ss":20,"used":false,"gnssid":6,"svid":9},{"PRN":67,"el":27,"az":47,"ss":0,"used":false,"gnssid":6,"svid":3},{"PRN":82,"el":13,"az":71,"ss":0,"used":false,"gnssid":6,"svid":18},{"PRN":75,"el":6,"az":340,"ss":18,"used":false,"gnssid":6,"svid":11},{"PRN":69,"el":5,"az":153,"ss":26,"used":false,"gnssid":6,"svid":5},{"PRN":135,"el":37,"az":196,"ss":39,"used":false,"gnssid":1,"svid":135},{"PRN":138,"el":37,"az":160,"ss":26,"used":false,"gnssid":1,"svid":138},{"PRN":133,"el":38,"az":191,"ss":24,"used":false,"gnssid":1,"svid":133}]}
$GPZDA,021720.00,24,04,2019,00,00*68
$GPGGA,021720.00,4404.1251,N,12118.8506,W,1,00,1.80,1140.76,M,-20.139,M,,*63
$GPRMC,021720.00,A,4404.1251,N,12118.8506,W,1.7032,,240419,,*37
$GPGSA,A,3,25,29,5,12,2,68,,,,,,,5.6,1.8,5.4*3F
$GPGBS,021720.00,23.765,16.197,124.200,,,,*4F
{"class":"TPV","mode":3,"time":"2019-04-24T02:17:20.000Z","leapseconds":18,"ept":0.005,"lat":44.068751404,"lon":-121.314176072,"alt":1140.759,"epx":23.765,"epy":16.197,"epv":124.200,"speed":0.876,"climb":-0.090,"eps":47.53,"epc":137.68,"ecefx":-2386068.00,"ecefy":-3922206.00,"ecefz":4414363.00,"ecefvx":-0.38,"ecefvy":0.38,"ecefvz":0.00,"eph":34.200,"sep":106.400}
$GPZDA,021721.00,24,04,2019,00,00*69
$GPGGA,021721.00,4404.1253,N,12118.8505,W,1,00,1.80,1140.07,M,-20.139,M,,*65
$GPRMC,021721.00,A,4404.1253,N,12118.8505,W,1.1469,267.470,240419,,*15
$GPGSA,A,3,25,29,5,12,2,68,,,,,,,5.6,1.8,5.4*3F
$GPGBS,021721.00,23.765,16.197,13.430,,,,*7E
{"class":"TPV","mode":3,"time":"2019-04-24T02:17:21.000Z","leapseconds":18,"ept":0.005,"lat":44.068755100,"lon":-121.314174900,"alt":1140.070,"epx":23.765,"epy":16.197,"epv":13.430,"track":267.4700,"speed":0.590,"climb":-0.050,"epd":0.0000,"eps":0.77,"epc":137.68,"ecefx":-2386068.00,"ecefy":-3922206.00,"ecefz":4414363.00,"ecefvx":-0.38,"ecefvy":0.38,"ecefvz":0.00,"eph":34.200,"sep":106.400,"datum":"WGS84"}
$GPGSV,6,1,23,25,66,224,19,29,60,312,18,05,52,107,20,12,41,166,27*74
$GPGSV,6,2,23,02,41,056,17,31,17,293,00,21,14,243,00,06,09,056,00*7D
$GPGSV,6,3,23,193,29,146,00,04,02,043,00,09,01,032,00,68,30,110,20*49
$GPGSV,6,4,23,83,53,033,00,74,43,295,14,84,43,293,16,73,39,228,20*78
$GPGSV,6,5,23,67,27,047,00,82,13,071,00,75,06,340,18,69,05,153,16*72
$GPGSV,6,6,23,135,37,196,39,138,37,160,26,133,38,191,22*71
{"class":"SKY","time":"2019-04-24T02:17:21.000Z","xdop":1.58,"ydop":1.08,"vdop":5.40,"tdop":4.40,"hdop":1.80,"gdop":7.20,"pdop":5.60,"satellites":[{"PRN":25,"el":66,"az":224,"ss":19,"used":true,"gnssid":0,"svid":25},{"PRN":29,"el":60,"az":312,"ss":18,"used":true,"gnssid":0,"svid":29},{"PRN":5,"el":52,"az":107,"ss":20,"used":true,"gnssid":0,"svid":5},{"PRN":12,"el":41,"az":166,"ss":27,"used":true,"gnssid":0,"svid":12},{"PRN":2,"el":41,"az":56,"ss":17,"used":true,"gnssid":0,"svid":2},{"PRN":31,"el":17,"az":293,"ss":0,"used":false,"gnssid":0,"svid":31},{"PRN":21,"el":14,"az":243,"ss":0,"used":false,"gnssid":0,"svid":21},{"PRN":6,"el":9,"az":56,"ss":0,"used":false,"gnssid":0,"svid":6},{"PRN":193,"el":29,"az":146,"ss":0,"used":false,"gnssid":5,"svid":1},{"PRN":4,"el":2,"az":43,"ss":0,"used":false,"gnssid":0,"svid":4},{"PRN":9,"el":1,"az":32,"ss":0,"used":false,"gnssid":0,"svid":9},{"PRN":68,"el":30,"az":110,"ss":20,"used":true,"gnssid":6,"svid":4},{"PRN":83,"el":53,"az":33,"ss":0,"used":false,"gnssid":6,"svid":19},{"PRN":74,"el":43,"az":295,"ss":14,"used":false,"gnssid":6,"svid":10},{"PRN":84,"el":43,"az":293,"ss":16,"used":false,"gnssid":6,"svid":20},{"PRN":73,"el":39,"az":228,"ss":20,"used":false,"gnssid":6,"svid":9},{"PRN":67,"el":27,"az":47,"ss":0,"used":false,"gnssid":6,"svid":3},{"PRN":82,"el":13,"az":71,"ss":0,"used":false,"gnssid":6,"svid":18},{"PRN":75,"el":6,"az":340,"ss":18,"used":false,"gnssid":6,"svid":11},{"PRN":69,"el":5,"az":153,"ss":16,"used":false,"gnssid":6,"svid":5},{"PRN":135,"el":37,"az":196,"ss":39,"used":false,"gnssid":1,"svid":135},{"PRN":138,"el":37,"az":160,"ss":26,"used":false,"gnssid":1,"svid":138},{"PRN":133,"el":38,"az":191,"ss":22,"used":false,"gnssid":1,"svid":133}]}
$GPZDA,021721.00,24,04,2019,00,00*69
$GPGGA,021721.00,4404.1254,N,12118.8510,W,1,00,1.80,1140.15,M,-20.139,M,,*65
$GPRMC,021721.00,A,4404.1254,N,12118.8510,W,1.2447,,240419,,*37
$GPGSA,A,3,25,29,5,12,2,68,,,,,,,5.6,1.8,5.4*3F
$GPGBS,021721.00,23.765,16.197,124.200,,,,*4E
{"class":"TPV","mode":3,"time":"2019-04-24T02:17:21.000Z","leapseconds":18,"ept":0.005,"lat":44.068756751,"lon":-121.314182558,"alt":1140.145,"epx":23.765,"epy":16.197,"epv":124.200,"speed":0.640,"climb":-0.013,"eps":47.53,"epc":137.63,"ecefx":-2386068.00,"ecefy":-3922205.00,"ecefz":4414363.00,"ecefvx":-0.38,"ecefvy":0.25,"ecefvz":0.00,"eph":34.200,"sep":106.400}
$GPZDA,021722.00,24,04,2019,00,00*6A
$GPGGA,021722.00,4404.1253,N,12118.8509,W,1,00,1.80,1139.94,M,-20.139,M,,*6E
$GPRMC,021722.00,A,4404.1253,N,12118.8509,W,0.9914,269.770,240419,,*19
$GPGSA,A,3,25,29,5,12,2,68,,,,,,,5.6,1.8,5.4*3F
$GPGBS,021722.00,23.765,16.197,13.090,,,,*73
{"class":"TPV","mode":3,"time":"2019-04-24T02:17:22.000Z","leapseconds":18,"ept":0.005,"lat":44.068754600,"lon":-121.314181700,"alt":1139.940,"epx":23.765,"epy":16.197,"epv":13.090,"track":269.7700,"speed":0.510,"climb":-0.050,"epd":0.0000,"eps":0.99,"epc":137.63,"ecefx":-2386068.00,"ecefy":-3922205.00,"ecefz":4414363.00,"ecefvx":-0.38,"ecefvy":0.25,"ecefvz":0.00,"eph":34.200,"sep":106.400,"datum":"WGS84"}
$GPGSV,6,1,23,25,66,224,19,29,60,312,19,05,52,107,21,12,41,166,27*74
$GPGSV,6,2,23,02,41,056,17,31,17,293,00,21,14,243,00,06,09,056,00*7D
$GPGSV,6,3,23,193,29,146,00,04,02,043,00,09,01,032,00,68,30,110,22*4B
$GPGSV,6,4,23,83,53,033,00,74,43,295,13,84,43,293,16,73,39,228,20*7F
$GPGSV,6,5,23,67,27,047,00,82,13,071,00,75,06,340,17,69,05,153,16*7D
$GPGSV,6,6,23,135,37,196,39,138,37,160,28,133,38,191,21*7C
{"class":"SKY","time":"2019-04-24T02:17:22.000Z","xdop":1.58,"ydop":1.08,"vdop":5.40,"tdop":4.40,"hdop":1.80,"gdop":7.20,"pdop":5.60,"satellites":[{"PRN":25,"el":66,"az":224,"ss":19,"used":true,"gnssid":0,"svid":25},{"PRN":29,"el":60,"az":312,"ss":19,"used":true,"gnssid":0,"svid":29},{"PRN":5,"el":52,"az":107,"ss":21,"used":true,"gnssid":0,"svid":5},{"PRN":12,"el":41,"az":166,"ss":27,"used":true,"gnssid":0,"svid":12},{"PRN":2,"el":41,"az":56,"ss":17,"used":true,"gnssid":0,"svid":2},{"PRN":31,"el":17,"az":293,"ss":0,"used":false,"gnssid":0,"svid":31},{"PRN":21,"el":14,"az":243,"ss":0,"used":false,"gnssid":0,"svid":21},{"PRN":6,"el":9,"az":56,"ss":0,"used":false,"gnssid":0,"svid":6},{"PRN":193,"el":29,"az":146,"ss":0,"used":false,"gnssid":5,"svid":1},{"PRN":4,"el":2,"az":43,"ss":0,"used":false,"gnssid":0,"svid":4},{"PRN":9,"el":1,"az":32,"ss":0,"used":false,"gnssid":0,"svid":9},{"PRN":68,"el":30,"az":110,"ss":22,"used":true,"gnssid":6,"svid":4},{"PRN":83,"el":53,"az":33,"ss":0,"used":false,"gnssid":6,"svid":19},{"PRN":74,"el":43,"az":295,"ss":13,"used":false,"gnssid":6,"svid":10},{"PRN":84,"el":43,"az":293,"ss":16,"used":false,"gnssid":6,"svid":20},{"PRN":73,"el":39,"az":228,"ss":20,"used":false,"gnssid":6,"svid":9},{"PRN":67,"el":27,"az":47,"ss":0,"used":false,"gnssid":6,"svid":3},{"PRN":82,"el":13,"az":71,"ss":0,"used":false,"gnssid":6,"svid":18},{"PRN":75,"el":6,"az":340,"ss":17,"used":false,"gnssid":6,"svid":11},{"PRN":69,"el":5,"az":153,"ss":16,"used":false,"gnssid":6,"svid":5},{"PRN":135,"el":37,"az":196,"ss":39,"used":false,"gnssid":1,"svid":135},{"PRN":138,"el":37,"az":160,"ss":28,"used":false,"gnssid":1,"svid":138},{"PRN":133,"el":38,"az":191,"ss":21,"used":false,"gnssid":1,"svid":133}]}
$GPZDA,021722.00,24,04,2019,00,00*6A
$GPGGA,021722.00,4404.1254,N,12118.8510,W,1,00,1.80,1140.15,M,-20.139,M,,*66
$GPRMC,021722.00,A,4404.1254,N,12118.8510,W,0.4834,,240419,,*3B
$GPGSA,A,3,25,29,5,12,2,68,,,,,,,5.6,1.8,5.4*3F
$GPGBS,021722.00,23.765,16.197,124.200,,,,*4D
{"class":"TPV","mode":3,"time":"2019-04-24T02:17:22.000Z","leapseconds":18,"ept":0.005,"lat":44.068756751,"lon":-121.314182558,"alt":1140.145,"epx":23.765,"epy":16.197,"epv":124.200,"speed":0.249,"climb":-0.050,"eps":47.53,"epc":137.29,"ecefx":-2386068.00,"ecefy":-3922205.00,"ecefz":4414363.00,"ecefvx":-0.25,"ecefvy":0.38,"ecefvz":0.12,"eph":34.200,"sep":106.400}
$GPZDA,021723.00,24,04,2019,00,00*6B
$GPGGA,021723.00,4404.1253,N,12118.8513,W,1,00,1.80,1139.81,M,-20.139,M,,*60
$GPRMC,021723.00,A,4404.1253,N,12118.8513,W,0.9719,274.770,240419,,*1C
$GPGSA,A,3,25,29,5,12,2,68,,,,,,,5.6,1.8,5.4*3F
$GPGBS,021723.00,23.765,16.197,13.420,,,,*7D
{"class":"TPV","mode":3,"time":"2019-04-24T02:17:23.000Z","leapseconds":18,"ept":0.005,"lat":44.068755700,"lon":-121.314188100,"alt":1139.810,"epx":23.765,"epy":16.197,"epv":13.420,"track":274.7700,"speed":0.500,"climb":-0.050,"epd":0.0000,"eps":1.23,"epc":137.29,"ecefx":-2386068.00,"ecefy":-3922205.00,"ecefz":4414363.00,"ecefvx":-0.25,"ecefvy":0.38,"ecefvz":0.12,"eph":34.200,"sep":106.400,"datum":"WGS84"}
$GPGSV,6,1,23,25,66,224,18,29,60,312,19,05,52,107,21,12,41,166,27*75
$GPGSV,6,2,23,02,41,056,16,31,17,293,00,21,14,243,18,06,09,056,00*75
$GPGSV,6,3,23,193,29,146,00,04,02,043,00,09,01,032,00,68,30,110,23*4A
$GPGSV,6,4,23,83,53,033,00,74,43,295,13,84,43,293,16,73,39,228,23*7C
$GPGSV,6,5,23,67,27,047,00,82,13,071,00,75,06,340,17,69,05,153,18*73
$GPGSV,6,6,23,135,37,196,39,138,37,160,25,133,38,191,20*70
{"class":"SKY","time":"2019-04-24T02:17:23.000Z","xdop":1.58,"ydop":1.08,"vdop":5.40,"tdop":4.40,"hdop":1.80,"gdop":7.20,"pdop":5.60,"satellites":[{"PRN":25,"el":66,"az":224,"ss":18,"used":true,"gnssid":0,"svid":25},{"PRN":29,"el":60,"az":312,"ss":19,"used":true,"gnssid":0,"svid":29},{"PRN":5,"el":52,"az":107,"ss":21,"used":true,"gnssid":0,"svid":5},{"PRN":12,"el":41,"az":166,"ss":27,"used":true,"gnssid":0,"svid":12},{"PRN":2,"el":41,"az":56,"ss":16,"used":true,"gnssid":0,"svid":2},{"PRN":31,"el":17,"az":293,"ss":0,"used":false,"gnssid":0,"svid":31},{"PRN":21,"el":14,"az":243,"ss":18,"used":false,"gnssid":0,"svid":21},{"PRN":6,"el":9,"az":56,"ss":0,"used":false,"gnssid":0,"svid":6},{"PRN":193,"el":29,"az":146,"ss":0,"used":false,"gnssid":5,"svid":1},{"PRN":4,"el":2,"az":43,"ss":0,"used":false,"gnssid":0,"svid":4},{"PRN":9,"el":1,"az":32,"ss":0,"used":false,"gnssid":0,"svid":9},{"PRN":68,"el":30,"az":110,"ss":23,"used":true,"gnssid":6,"svid":4},{"PRN":83,"el":53,"az":33,"ss":0,"used":false,"gnssid":6,"svid":19},{"PRN":74,"el":43,"az":295,"ss":13,"used":false,"gnssid":6,"svid":10},{"PRN":84,"el":43,"az":293,"ss":16,"used":false,"gnssid":6,"svid":20},{"PRN":73,"el":39,"az":228,"ss":23,"used":false,"gnssid":6,"svid":9},{"PRN":67,"el":27,"az":47,"ss":0,"used":false,"gnssid":6,"svid":3},{"PRN":82,"el":13,"az":71,"ss":0,"used":false,"gnssid":6,"svid":18},{"PRN":75,"el":6,"az":340,"ss":17,"used":false,"gnssid":6,"svid":11},{"PRN":69,"el":5,"az":153,"ss":18,"used":false,"gnssid":6,"svid":5},{"PRN":135,"el":37,"az":196,"ss":39,"used":false,"gnssid":1,"svid":135},{"PRN":138,"el":37,"az":160,"ss":25,"used":false,"gnssid":1,"svid":138},{"PRN":133,"el":38,"az":191,"ss":20,"used":false,"gnssid":1,"svid":133}]}
$GPZDA,021723.00,24,04,2019,00,00*6B
$GPGGA,021723.00,4404.1255,N,12118.8520,W,1,00,1.80,1139.90,M,-20.139,M,,*66
$GPRMC,021723.00,A,4404.1255,N,12118.8520,W,1.9309,,240419,,*31
$GPGSA,A,3,25,29,5,12,2,68,,,,,,,5.6,1.8,5.4*3F
$GPGBS,021723.00,23.765,16.197,124.200,,,,*4C
{"class":"TPV","mode":3,"time":"2019-04-24T02:17:23.000Z","leapseconds":18,"ept":0.005,"lat":44.068758845,"lon":-121.314199706,"alt":1139.905,"epx":23.765,"epy":16.197,"epv":124.200,"speed":0.993,"climb":-0.033,"eps":47.53,"epc":137.62,"ecefx":-2386069.00,"ecefy":-3922204.00,"ecefz":4414363.00,"ecefvx":-0.50,"ecefvy":0.50,"ecefvz":0.12,"eph":34.200,"sep":106.400}
$GPZDA,021724.00,24,04,2019,00,00*6C
$GPGGA,021724.00,4404.1254,N,12118.8519,W,1,00,1.80,1139.69,M,-20.139,M,,*6C
$GPRMC,021724.00,A,4404.1254,N,12118.8519,W,1.3996,277.400,240419,,*13
$GPGSA,A,3,25,29,5,12,2,68,,,,,,,5.6,1.8,5.4*3F
$GPGBS,021724.00,23.765,16.197,13.500,,,,*79
{"class":"TPV","mode":3,"time":"2019-04-24T02:17:24.000Z","leapseconds":18,"ept":0.005,"lat":44.068756100,"lon":-121.314198400,"alt":1139.690,"epx":23.765,"epy":16.197,"epv":13.500,"track":277.4000,"speed":0.720,"climb":-0.050,"epd":0.0000,"eps":1.45,"epc":137.62,"ecefx":-2386069.00,"ecefy":-3922204.00,"ecefz":4414363.00,"ecefvx":-0.50,"ecefvy":0.50,"ecefvz":0.12,"eph":34.200,"sep":106.400,"datum":"WGS84"}
$GPGSV,6,1,23,25,66,224,16,29,60,312,19,05,52,107,21,12,41,166,27*7B
$GPGSV,6,2,23,02,41,056,16,31,17,293,00,21,14,243,19,06,09,056,00*74
$GPGSV,6,3,23,193,29,146,00,04,02,043,00,09,01,032,00,68,30,110,22*4B
$GPGSV,6,4,23,83,53,033,00,74,43,295,13,84,43,293,15,73,39,228,20*7C
$GPGSV,6,5,23,67,27,047,00,82,13,071,00,75,06,340,17,69,05,153,18*73
$GPGSV,6,6,23,135,37,196,39,138,37,160,25,133,38,191,21*71
{"class":"SKY","time":"2019-04-24T02:17:24.000Z","xdop":1.58,"ydop":1.08,"vdop":5.40,"tdop":4.40,"hdop":1.80,"gdop":7.20,"pdop":5.60,"satellites":[{"PRN":25,"el":66,"az":224,"ss":16,"used":false,"gnssid":0,"svid":25},{"PRN":29,"el":60,"az":312,"ss":19,"used":true,"gnssid":0,"svid":29},{"PRN":5,"el":52,"az":107,"ss":21,"used":true,"gnssid":0,"svid":5},{"PRN":12,"el":41,"az":166,"ss":27,"used":true,"gnssid":0,"svid":12},{"PRN":2,"el":41,"az":56,"ss":16,"used":true,"gnssid":0,"svid":2},{"PRN":31,"el":17,"az":293,"ss":0,"used":false,"gnssid":0,"svid":31},{"PRN":21,"el":14,"az":243,"ss":19,"used":false,"gnssid":0,"svid":21},{"PRN":6,"el":9,"az":56,"ss":0,"used":false,"gnssid":0,"svid":6},{"PRN":193,"el":29,"az":146,"ss":0,"used":false,"gnssid":5,"svid":1},{"PRN":4,"el":2,"az":43,"ss":0,"used":false,"gnssid":0,"svid":4},{"PRN":9,"el":1,"az":32,"ss":0,"used":false,"gnssid":0,"svid":9},{"PRN":68,"el":30,"az":110,"ss":22,"used":true,"gnssid":6,"svid":4},{"PRN":83,"el":53,"az":33,"ss":0,"used":false,"gnssid":6,"svid":19},{"PRN":74,"el":43,"az":295,"ss":13,"used":false,"gnssid":6,"svid":10},{"PRN":84,"el":43,"az":293,"ss":15,"used":false,"gnssid":6,"svid":20},{"PRN":73,"el":39,"az":228,"ss":20,"used":false,"gnssid":6,"svid":9},{"PRN":67,"el":27,"az":47,"ss":0,"used":false,"gnssid":6,"svid":3},{"PRN":82,"el":13,"az":71,"ss":0,"used":false,"gnssid":6,"svid":18},{"PRN":75,"el":6,"az":340,"ss":17,"used":false,"gnssid":6,"svid":11},{"PRN":69,"el":5,"az":153,"ss":18,"used":false,"gnssid":6,"svid":5},{"PRN":135,"el":37,"az":196,"ss":39,"used":false,"gnssid":1,"svid":135},{"PRN":138,"el":37,"az":160,"ss":25,"used":false,"gnssid":1,"svid":138},{"PRN":133,"el":38,"az":191,"ss":21,"used":false,"gnssid":1,"svid":133}]}
$GPZDA,021724.00,24,04,2019,00,00*6C
$GPGGA,021724.00,4404.1253,N,12118.8526,W,1,00,2.00,1140.28,M,-20.139,M,,*67
$GPRMC,021724.00,A,4404.1253,N,12118.8526,W,1.8670,,240419,,*3C
$GPGSA,A,3,29,5,12,2,68,,,,,,,,5.6,2.0,5.4*33
$GPGBS,021724.00,23.765,16.197,124.200,,,,*4B
{"class":"TPV","mode":3,"time":"2019-04-24T02:17:24.000Z","leapseconds":18,"ept":0.005,"lat":44.068755592,"lon":-121.314210368,"alt":1140.278,"epx":23.765,"epy":16.197,"epv":124.200,"speed":0.960,"climb":0.003,"eps":47.53,"epc":137.70,"ecefx":-2386070.00,"ecefy":-3922204.00,"ecefz":4414363.00,"ecefvx":-0.62,"ecefvy":0.38,"ecefvz":0.00,"eph":38.000,"sep":106.400}
$GPZDA,021725.00,24,04,2019,00,00*6D
$GPGGA,021725.00,4404.1253,N,12118.8526,W,1,00,2.00,1139.56,M,-20.139,M,,*61
$GPRMC,021725.00,A,4404.1253,N,12118.8526,W,1.5940,275.900,240419,,*1B
$GPGSA,A,3,29,5,12,2,68,,,,,,,,6.2,2.0,5.8*38
$GPGBS,021725.00,23.765,16.197,13.440,,,,*7D
{"class":"TPV","mode":3,"time":"2019-04-24T02:17:25.000Z","leapseconds":18,"ept":0.005,"lat":44.068755500,"lon":-121.314209800,"alt":1139.560,"epx":23.765,"epy":16.197,"epv":13.440,"track":275.9000,"speed":0.820,"climb":-0.050,"epd":0.0000,"eps":4.81,"epc":137.70,"ecefx":-2386070.00,"ecefy":-3922204.00,"ecefz":4414363.00,"ecefvx":-0.62,"ecefvy":0.38,"ecefvz":0.00,"eph":38.000,"sep":106.400,"datum":"WGS84"}
$GPGSV,6,1,23,25,66,224,15,29,60,312,18,05,52,107,21,12,41,166,12*7F
$GPGSV,6,2,23,02,41,056,16,31,17,293,00,21,14,243,16,06,09,056,00*7B
$GPGSV,6,3,23,193,29,146,00,04,02,043,00,09,01,032,00,68,30,110,22*4B
$GPGSV,6,4,23,83,53,033,00,74,43,295,12,84,43,293,15,73,39,228,20*7D
$GPGSV,6,5,23,67,27,047,00,82,13,071,00,75,06,340,16,69,05,153,18*72
$GPGSV,6,6,23,135,37,196,39,138,37,160,23,133,38,191,42*72
{"class":"SKY","time":"2019-04-24T02:17:25.000Z","xdop":1.58,"ydop":1.08,"vdop":5.80,"tdop":4.60,"hdop":2.00,"gdop":7.80,"pdop":6.20,"satellites":[{"PRN":25,"el":66,"az":224,"ss":15,"used":false,"gnssid":0,"svid":25},{"PRN":29,"el":60,"az":312,"ss":18,"used":true,"gnssid":0,"svid":29},{"PRN":5,"el":52,"az":107,"ss":21,"used":true,"gnssid":0,"svid":5},{"PRN":12,"el":41,"az":166,"ss":12,"used":true,"gnssid":0,"svid":12},{"PRN":2,"el":41,"az":56,"ss":16,"used":true,"gnssid":0,"svid":2},{"PRN":31,"el":17,"az":293,"ss":0,"used":false,"gnssid":0,"svid":31},{"PRN":21,"el":14,"az":243,"ss":16,"used":false,"gnssid":0,"svid":21},{"PRN":6,"el":9,"az":56,"ss":0,"used":false,"gnssid":0,"svid":6},{"PRN":193,"el":29,"az":146,"ss":0,"used":false,"gnssid":5,"svid":1},{"PRN":4,"el":2,"az":43,"ss":0,"used":false,"gnssid":0,"svid":4},{"PRN":9,"el":1,"az":32,"ss":0,"used":false,"gnssid":0,"svid":9},{"PRN":68,"el":30,"az":110,"ss":22,"used":true,"gnssid":6,"svid":4},{"PRN":83,"el":53,"az":33,"ss":0,"used":false,"gnssid":6,"svid":19},{"PRN":74,"el":43,"az":295,"ss":12,"used":false,"gnssid":6,"svid":10},{"PRN":84,"el":43,"az":293,"ss":15,"used":false,"gnssid":6,"svid":20},{"PRN":73,"el":39,"az":228,"ss":20,"used":false,"gnssid":6,"svid":9},{"PRN":67,"el":27,"az":47,"ss":0,"used":false,"gnssid":6,"svid":3},{"PRN":82,"el":13,"az":71,"ss":0,"used":false,"gnssid":6,"svid":18},{"PRN":75,"el":6,"az":340,"ss":16,"used":false,"gnssid":6,"svid":11},{"PRN":69,"el":5,"az":153,"ss":18,"used":false,"gnssid":6,"svid":5},{"PRN":135,"el":37,"az":196,"ss":39,"used":false,"gnssid":1,"svid":135},{"PRN":138,"el":37,"az":160,"ss":23,"used":false,"gnssid":1,"svid":138},{"PRN":133,"el":38,"az":191,"ss":42,"used":false,"gnssid":1,"svid":133}]}
$GPZDA,021725.00,24,04,2019,00,00*6D
$GPGGA,021725.00,4404.1255,N,12118.8537,W,1,00,2.00,1140.04,M,-20.139,M,,*6E
$GPRMC,021725.00,A,4404.1255,N,12118.8537,W,2.7991,,240419,,*37
$GPGSA,A,3,29,5,12,2,68,,,,,,,,6.2,2.0,5.8*38
$GPGBS,021725.00,23.765,16.197,133.400,,,,*4A
{"class":"TPV","mode":3,"time":"2019-04-24T02:17:25.000Z","leapseconds":18,"ept":0.005,"lat":44.068757687,"lon":-121.314227517,"alt":1140.038,"epx":23.765,"epy":16.197,"epv":133.400,"speed":1.440,"climb":-0.027,"eps":47.53,"epc":146.84,"ecefx":-2386071.00,"ecefy":-3922203.00,"ecefz":4414363.00,"ecefvx":-0.75,"ecefvy":0.50,"ecefvz":0.00,"eph":38.000,"sep":117.800}
$GPZDA,021726.00,24,04,2019,00,00*6E
$GPGGA,021726.00,4404.1253,N,12118.8534,W,1,00,2.00,1139.43,M,-20.139,M,,*65
$GPRMC,021726.00,A,4404.1253,N,12118.8534,W,1.7883,274.280,240419,,*15
$GPGSA,A,3,29,5,12,2,68,,,,,,,,6.2,2.0,5.8*38
$GPGBS,021726.00,23.765,16.197,11.850,,,,*71
{"class":"TPV","mode":3,"time":"2019-04-24T02:17:26.000Z","leapseconds":18,"ept":0.005,"lat":44.068754900,"lon":-121.314222600,"alt":1139.430,"epx":23.765,"epy":16.197,"epv":11.850,"track":274.2800,"speed":0.920,"climb":-0.050,"epd":0.0000,"eps":0.50,"epc":146.84,"ecefx":-2386071.00,"ecefy":-3922203.00,"ecefz":4414363.00,"ecefvx":-0.75,"ecefvy":0.50,"ecefvz":0.00,"eph":38.000,"sep":117.800,"datum":"WGS84"}
$GPGSV,6,1,23,25,66,224,15,29,60,312,12,05,52,107,20,12,41,166,12*74
$GPGSV,6,2,23,02,41,056,15,31,17,293,00,21,14,243,15,06,09,056,00*7B
$GPGSV,6,3,23,193,29,146,00,04,02,043,00,09,01,032,00,68,30,110,20*49
$GPGSV,6,4,23,83,53,033,00,74,43,295,12,84,43,293,00,73,39,228,19*73
$GPGSV,6,5,23,67,27,047,00,82,13,071,00,75,06,340,16,69,05,153,17*7D
$GPGSV,6,6,23,135,37,196,39,138,37,160,00,133,38,191,42*73
{"class":"SKY","time":"2019-04-24T02:17:26.000Z","xdop":1.58,"ydop":1.08,"vdop":5.80,"tdop":4.60,"hdop":2.00,"gdop":7.80,"pdop":6.20,"satellites":[{"PRN":25,"el":66,"az":224,"ss":15,"used":false,"gnssid":0,"svid":25},{"PRN":29,"el":60,"az":312,"ss":12,"used":false,"gnssid":0,"svid":29},{"PRN":5,"el":52,"az":107,"ss":20,"used":true,"gnssid":0,"svid":5},{"PRN":12,"el":41,"az":166,"ss":12,"used":true,"gnssid":0,"svid":12},{"PRN":2,"el":41,"az":56,"ss":15,"used":true,"gnssid":0,"svid":2},{"PRN":31,"el":17,"az":293,"ss":0,"used":false,"gnssid":0,"svid":31},{"PRN":21,"el":14,"az":243,"ss":15,"used":false,"gnssid":0,"svid":21},{"PRN":6,"el":9,"az":56,"ss":0,"used":false,"gnssid":0,"svid":6},{"PRN":193,"el":29,"az":146,"ss":0,"used":false,"gnssid":5,"svid":1},{"PRN":4,"el":2,"az":43,"ss":0,"used":false,"gnssid":0,"svid":4},{"PRN":9,"el":1,"az":32,"ss":0,"used":false,"gnssid":0,"svid":9},{"PRN":68,"el":30,"az":110,"ss":20,"used":true,"gnssid":6,"svid":4},{"PRN":83,"el":53,"az":33,"ss":0,"used":false,"gnssid":6,"svid":19},{"PRN":74,"el":43,"az":295,"ss":12,"used":false,"gnssid":6,"svid":10},{"PRN":84,"el":43,"az":293,"ss":0,"used":false,"gnssid":6,"svid":20},{"PRN":73,"el":39,"az":228,"ss":19,"used":false,"gnssid":6,"svid":9},{"PRN":67,"el":27,"az":47,"ss":0,"used":false,"gnssid":6,"svid":3},{"PRN":82,"el":13,"az":71,"ss":0,"used":false,"gnssid":6,"svid":18},{"PRN":75,"el":6,"az":340,"ss":16,"used":false,"gnssid":6,"svid":11},{"PRN":69,"el":5,"az":153,"ss":17,"used":false,"gnssid":6,"svid":5},{"PRN":135,"el":37,"az":196,"ss":39,"used":false,"gnssid":1,"svid":135},{"PRN":138,"el":37,"az":160,"ss":0,"used":false,"gnssid":1,"svid":138},{"PRN":133,"el":38,"az":191,"ss":42,"used":false,"gnssid":1,"svid":133}]}
$GPZDA,021726.00,24,04,2019,00,00*6E
$GPGGA,021726.00,4404.1253,N,12118.8543,W,1,00,3.40,1140.41,M,-20.139,M,,*6C
$GPRMC,021726.00,A,4404.1253,N,12118.8543,W,2.4282,,240419,,*3B
$GPGSA,A,3,5,12,2,68,,,,,,,,,6.2,3.4,5.8*36
$GPGBS,021726.00,23.765,16.197,133.400,,,,*49
{"class":"TPV","mode":3,"time":"2019-04-24T02:17:26.000Z","leapseconds":18,"ept":0.005,"lat":44.068754434,"lon":-121.314238179,"alt":1140.411,"epx":23.765,"epy":16.197,"epv":133.400,"speed":1.249,"climb":-0.027,"eps":47.53,"epc":145.25,"ecefx":-2386072.00,"ecefy":-3922203.00,"ecefz":4414363.00,"ecefvx":-0.75,"ecefvy":0.50,"ecefvz":0.00,"eph":64.600,"sep":117.800}
$GPZDA,021727.00,24,04,2019,00,00*6F
$GPGGA,021727.00,4404.1252,N,12118.8542,W,1,00,3.40,1139.30,M,-20.139,M,,*65
$GPRMC,021727.00,A,4404.1252,N,12118.8542,W,1.9050,271.970,240419,,*1D
$GPGSA,A,3,5,12,2,68,,,,,,,,,6.8,3.4,5.8*3C
$GPGBS,021727.00,23.765,16.197,11.430,,,,*7A
{"class":"TPV","mode":3,"time":"2019-04-24T02:17:27.000Z","leapseconds":18,"ept":0.005,"lat":44.068753900,"lon":-121.314235900,"alt":1139.300,"epx":23.765,"epy":16.197,"epv":11.430,"track":271.9700,"speed":0.980,"climb":-0.050,"epd":0.0000,"eps":0.37,"epc":145.25,"ecefx":-2386072.00,"ecefy":-3922203.00,"ecefz":4414363.00,"ecefvx":-0.75,"ecefvy":0.50,"ecefvz":0.00,"eph":64.600,"sep":117.800,"datum":"WGS84"}
$GPGSV,6,1,23,25,66,224,11,29,60,312,10,05,52,107,12,12,41,166,14*75
$GPGSV,6,2,23,02,41,056,15,31,17,293,00,21,14,243,14,06,09,056,00*7A
$GPGSV,6,3,23,193,29,146,00,04,02,043,00,09,01,032,00,68,30,110,16*4C
$GPGSV,6,4,23,83,53,033,00,74,43,295,12,84,43,293,00,73,39,228,18*72
$GPGSV,6,5,23,67,27,047,00,82,13,071,00,75,06,340,16,69,05,153,16*7C
$GPGSV,6,6,23,135,37,196,39,138,37,160,00,133,38,191,42*73
{"class":"SKY","time":"2019-04-24T02:17:27.000Z","xdop":1.58,"ydop":1.08,"vdop":5.80,"tdop":5.00,"hdop":3.40,"gdop":8.60,"pdop":6.80,"satellites":[{"PRN":25,"el":66,"az":224,"ss":11,"used":false,"gnssid":0,"svid":25},{"PRN":29,"el":60,"az":312,"ss":10,"used":true,"gnssid":0,"svid":29},{"PRN":5,"el":52,"az":107,"ss":12,"used":false,"gnssid":0,"svid":5},{"PRN":12,"el":41,"az":166,"ss":14,"used":true,"gnssid":0,"svid":12},{"PRN":2,"el":41,"az":56,"ss":15,"used":true,"gnssid":0,"svid":2},{"PRN":31,"el":17,"az":293,"ss":0,"used":false,"gnssid":0,"svid":31},{"PRN":21,"el":14,"az":243,"ss":14,"used":false,"gnssid":0,"svid":21},{"PRN":6,"el":9,"az":56,"ss":0,"used":false,"gnssid":0,"svid":6},{"PRN":193,"el":29,"az":146,"ss":0,"used":false,"gnssid":5,"svid":1},{"PRN":4,"el":2,"az":43,"ss":0,"used":false,"gnssid":0,"svid":4},{"PRN":9,"el":1,"az":32,"ss":0,"used":false,"gnssid":0,"svid":9},{"PRN":68,"el":30,"az":110,"ss":16,"used":true,"gnssid":6,"svid":4},{"PRN":83,"el":53,"az":33,"ss":0,"used":false,"gnssid":6,"svid":19},{"PRN":74,"el":43,"az":295,"ss":12,"used":false,"gnssid":6,"svid":10},{"PRN":84,"el":43,"az":293,"ss":0,"used":false,"gnssid":6,"svid":20},{"PRN":73,"el":39,"az":228,"ss":18,"used":false,"gnssid":6,"svid":9},{"PRN":67,"el":27,"az":47,"ss":0,"used":false,"gnssid":6,"svid":3},{"PRN":82,"el":13,"az":71,"ss":0,"used":false,"gnssid":6,"svid":18},{"PRN":75,"el":6,"az":340,"ss":16,"used":false,"gnssid":6,"svid":11},{"PRN":69,"el":5,"az":153,"ss":16,"used":false,"gnssid":6,"svid":5},{"PRN":135,"el":37,"az":196,"ss":39,"used":false,"gnssid":1,"svid":135},{"PRN":138,"el":37,"az":160,"ss":0,"used":false,"gnssid":1,"svid":138},{"PRN":133,"el":38,"az":191,"ss":42,"used":false,"gnssid":1,"svid":133}]}
$GPZDA,021727.00,24,04,2019,00,00*6F
$GPGGA,021727.00,4404.1250,N,12118.8553,W,1,00,1.60,1139.48,M,-20.139,M,,*68
$GPRMC,021727.00,A,4404.1250,N,12118.8553,W,3.1369,,240419,,*38
$GPGSA,A,3,29,12,2,68,,,,,,,,,6.8,1.6,5.8*02
$GPGBS,021727.00,23.765,16.197,133.400,,,,*48
{"class":"TPV","mode":3,"time":"2019-04-24T02:17:27.000Z","leapseconds":18,"ept":0.005,"lat":44.068750063,"lon":-121.314255327,"alt":1139.475,"epx":23.765,"epy":16.197,"epv":133.400,"speed":1.614,"climb":-0.027,"eps":47.53,"epc":144.83,"ecefx":-2386073.00,"ecefy":-3922202.00,"ecefz":4414362.00,"ecefvx":-0.75,"ecefvy":0.50,"ecefvz":0.00,"eph":30.400,"sep":129.200}
$GPZDA,021728.00,24,04,2019,00,00*60
$GPGGA,021728.00,4404.1252,N,12118.8549,W,1,00,1.60,1139.21,M,-20.139,M,,*61
$GPRMC,021728.00,A,4404.1252,N,12118.8549,W,1.9244,270.440,240419,,*11
$GPGSA,A,3,29,12,2,68,,,,,,,,,3.6,1.6,3.0*07
$GPGBS,021728.00,23.765,16.197,9.460,,,,*49
{"class":"TPV","mode":3,"time":"2019-04-24T02:17:28.000Z","leapseconds":18,"ept":0.005,"lat":44.068753300,"lon":-121.314249100,"alt":1139.210,"epx":23.765,"epy":16.197,"epv":9.460,"track":270.4400,"speed":0.990,"climb":-0.040,"epd":0.0000,"eps":0.27,"epc":144.83,"ecefx":-2386073.00,"ecefy":-3922202.00,"ecefz":4414362.00,"ecefvx":-0.75,"ecefvy":0.50,"ecefvz":0.00,"eph":30.400,"sep":129.200,"datum":"WGS84"}
$GPGSV,6,1,23,25,66,224,04,29,60,312,11,05,52,107,08,12,41,166,14*7B
$GPGSV,6,2,23,02,41,056,14,31,17,293,00,21,14,243,13,06,09,056,00*7C
$GPGSV,6,3,23,193,29,146,00,04,02,043,00,09,01,032,00,68,30,110,15*4F
$GPGSV,6,4,23,83,53,033,00,74,43,295,12,84,43,293,00,73,39,228,17*7D
$GPGSV,6,5,23,67,27,047,00,82,13,071,00,75,06,340,00,69,05,153,16*7B
$GPGSV,6,6,23,135,37,196,39,138,37,160,00,133,38,191,42*73
{"class":"SKY","time":"2019-04-24T02:17:28.000Z","xdop":1.58,"ydop":1.08,"vdop":3.00,"tdop":2.40,"hdop":1.60,"gdop":4.20,"pdop":3.60,"satellites":[{"PRN":25,"el":66,"az":224,"ss":4,"used":false,"gnssid":0,"svid":25},{"PRN":29,"el":60,"az":312,"ss":11,"used":true,"gnssid":0,"svid":29},{"PRN":5,"el":52,"az":107,"ss":8,"used":false,"gnssid":0,"svid":5},{"PRN":12,"el":41,"az":166,"ss":14,"used":true,"gnssid":0,"svid":12},{"PRN":2,"el":41,"az":56,"ss":14,"used":true,"gnssid":0,"svid":2},{"PRN":31,"el":17,"az":293,"ss":0,"used":false,"gnssid":0,"svid":31},{"PRN":21,"el":14,"az":243,"ss":13,"used":false,"gnssid":0,"svid":21},{"PRN":6,"el":9,"az":56,"ss":0,"used":false,"gnssid":0,"svid":6},{"PRN":193,"el":29,"az":146,"ss":0,"used":false,"gnssid":5,"svid":1},{"PRN":4,"el":2,"az":43,"ss":0,"used":false,"gnssid":0,"svid":4},{"PRN":9,"el":1,"az":32,"ss":0,"used":false,"gnssid":0,"svid":9},{"PRN":68,"el":30,"az":110,"ss":15,"used":true,"gnssid":6,"svid":4},{"PRN":83,"el":53,"az":33,"ss":0,"used":false,"gnssid":6,"svid":19},{"PRN":74,"el":43,"az":295,"ss":12,"used":false,"gnssid":6,"svid":10},{"PRN":84,"el":43,"az":293,"ss":0,"used":false,"gnssid":6,"svid":20},{"PRN":73,"el":39,"az":228,"ss":17,"used":false,"gnssid":6,"svid":9},{"PRN":67,"el":27,"az":47,"ss":0,"used":false,"gnssid":6,"svid":3},{"PRN":82,"el":13,"az":71,"ss":0,"used":false,"gnssid":6,"svid":18},{"PRN":75,"el":6,"az":340,"ss":0,"used":false,"gnssid":6,"svid":11},{"PRN":69,"el":5,"az":153,"ss":16,"used":false,"gnssid":6,"svid":5},{"PRN":135,"el":37,"az":196,"ss":39,"used":false,"gnssid":1,"svid":135},{"PRN":138,"el":37,"az":160,"ss":0,"used":false,"gnssid":1,"svid":138},{"PRN":133,"el":38,"az":191,"ss":42,"used":false,"gnssid":1,"svid":133}]}
$GPZDA,021728.00,24,04,2019,00,00*60
$GPGGA,021728.00,4404.1250,N,12118.8553,W,1,00,1.60,1139.48,M,-20.139,M,,*67
$GPRMC,021728.00,A,4404.1250,N,12118.8553,W,1.1956,,240419,,*33
$GPGSA,A,3,29,12,2,68,,,,,,,,,3.6,1.6,3.0*07
$GPGBS,021728.00,23.765,16.197,69.000,,,,*7D
{"class":"TPV","mode":3,"time":"2019-04-24T02:17:28.000Z","leapseconds":18,"ept":0.005,"lat":44.068750063,"lon":-121.314255327,"alt":1139.475,"epx":23.765,"epy":16.197,"epv":69.000,"speed":0.615,"climb":0.050,"eps":47.53,"epc":78.46,"ecefx":-2386073.00,"ecefy":-3922202.00,"ecefz":4414362.00,"ecefvx":-0.75,"ecefvy":0.38,"ecefvz":0.00,"eph":30.400,"sep":68.400}
$GPZDA,021729.00,24,04,2019,00,00*61
$GPGGA,021729.00,4404.1251,N,12118.8557,W,1,00,1.60,1139.15,M,-20.139,M,,*6B
$GPRMC,021729.00,A,4404.1251,N,12118.8557,W,1.8467,268.460,240419,,*11
$GPGSA,A,3,29,12,2,68,,,,,,,,,3.6,1.6,3.0*07
$GPGBS,021729.00,23.765,16.197,8.790,,,,*45
{"class":"TPV","mode":3,"time":"2019-04-24T02:17:29.000Z","leapseconds":18,"ept":0.005,"lat":44.068752300,"lon":-121.314261400,"alt":1139.150,"epx":23.765,"epy":16.197,"epv":8.790,"track":268.4600,"speed":0.950,"climb":-0.020,"epd":0.0000,"eps":1.22,"epc":78.46,"ecefx":-2386073.00,"ecefy":-3922202.00,"ecefz":4414362.00,"ecefvx":-0.75,"ecefvy":0.38,"ecefvz":0.00,"eph":30.400,"sep":68.400,"datum":"WGS84"}
$GPGSV,6,1,23,25,66,224,10,29,60,312,10,05,52,107,05,12,41,166,14*72
$GPGSV,6,2,23,02,41,056,14,31,17,293,00,21,14,243,13,06,09,056,00*7C
$GPGSV,6,3,23,193,29,146,00,04,02,043,00,09,01,032,00,68,30,110,15*4F
$GPGSV,6,4,23,83,53,033,00,74,43,295,12,84,43,293,00,73,39,228,16*7C
$GPGSV,6,5,23,67,27,047,00,82,13,071,00,75,06,340,00,69,05,153,00*7C
$GPGSV,6,6,23,135,37,196,39,138,37,160,00,133,38,191,42*73
{"class":"SKY","time":"2019-04-24T02:17:29.000Z","xdop":1.58,"ydop":1.08,"vdop":3.00,"tdop":2.40,"hdop":1.60,"gdop":4.20,"pdop":3.60,"satellites":[{"PRN":25,"el":66,"az":224,"ss":10,"used":false,"gnssid":0,"svid":25},{"PRN":29,"el":60,"az":312,"ss":10,"used":false,"gnssid":0,"svid":29},{"PRN":5,"el":52,"az":107,"ss":5,"used":false,"gnssid":0,"svid":5},{"PRN":12,"el":41,"az":166,"ss":14,"used":true,"gnssid":0,"svid":12},{"PRN":2,"el":41,"az":56,"ss":14,"used":true,"gnssid":0,"svid":2},{"PRN":31,"el":17,"az":293,"ss":0,"used":false,"gnssid":0,"svid":31},{"PRN":21,"el":14,"az":243,"ss":13,"used":false,"gnssid":0,"svid":21},{"PRN":6,"el":9,"az":56,"ss":0,"used":false,"gnssid":0,"svid":6},{"PRN":193,"el":29,"az":146,"ss":0,"used":false,"gnssid":5,"svid":1},{"PRN":4,"el":2,"az":43,"ss":0,"used":false,"gnssid":0,"svid":4},{"PRN":9,"el":1,"az":32,"ss":0,"used":false,"gnssid":0,"svid":9},{"PRN":68,"el":30,"az":110,"ss":15,"used":true,"gnssid":6,"svid":4},{"PRN":83,"el":53,"az":33,"ss":0,"used":false,"gnssid":6,"svid":19},{"PRN":74,"el":43,"az":295,"ss":12,"used":false,"gnssid":6,"svid":10},{"PRN":84,"el":43,"az":293,"ss":0,"used":false,"gnssid":6,"svid":20},{"PRN":73,"el":39,"az":228,"ss":16,"used":false,"gnssid":6,"svid":9},{"PRN":67,"el":27,"az":47,"ss":0,"used":false,"gnssid":6,"svid":3},{"PRN":82,"el":13,"az":71,"ss":0,"used":false,"gnssid":6,"svid":18},{"PRN":75,"el":6,"az":340,"ss":0,"used":false,"gnssid":6,"svid":11},{"PRN":69,"el":5,"az":153,"ss":0,"used":false,"gnssid":6,"svid":5},{"PRN":135,"el":37,"az":196,"ss":39,"used":false,"gnssid":1,"svid":135},{"PRN":138,"el":37,"az":160,"ss":0,"used":false,"gnssid":1,"svid":138},{"PRN":133,"el":38,"az":191,"ss":42,"used":false,"gnssid":1,"svid":133}]}
$GPZDA,021729.00,24,04,2019,00,00*61
$GPGGA,021729.00,4404.1251,N,12118.8563,W,1,00,3.20,1139.23,M,-20.139,M,,*6F
$GPRMC,021729.00,A,4404.1251,N,12118.8563,W,1.7251,,240419,,*3A
$GPGSA,A,2,12,2,68,,,,,,,,,,3.6,3.2,3.0*0B
$GPGBS,021729.00,23.765,16.197,,,,,*6D
{"class":"TPV","mode":2,"time":"2019-04-24T02:17:29.000Z","leapseconds":18,"ept":0.005,"lat":44.068752157,"lon":-121.314272476,"alt":1139.235,"epx":23.765,"epy":16.197,"speed":0.887,"eps":47.53,"eph":60.800,"sep":68.400}
$GPZDA,021730.00,24,04,2019,00,00*69
$GPGGA,021730.00,4404.1251,N,12118.8563,W,1,00,3.20,1139.23,M,-20.139,M,,*67
$GPRMC,021730.00,A,4404.1251,N,12118.8563,W,1.6134,267.890,240419,,*1F
$GPGSA,A,2,12,2,68,,,,,,,,,,4.4,3.2,3.0*0E
$GPGBS,021730.00,23.765,16.197,8.380,,,,*48
{"class":"TPV","mode":2,"time":"2019-04-24T02:17:30.000Z","leapseconds":18,"ept":0.005,"lat":44.068751900,"lon":-121.314272200,"alt":1139.235,"epx":23.765,"epy":16.197,"epv":8.380,"track":267.8900,"speed":0.830,"epd":0.0000,"eps":1.67,"eph":60.800,"sep":68.400,"datum":"WGS84"}
$GPGSV,6,1,23,25,66,224,10,29,60,312,09,05,52,107,04,12,41,166,14*7B
$GPGSV,6,2,23,02,41,056,14,31,17,293,00,21,14,243,12,06,09,056,00*7D
$GPGSV,6,3,23,193,29,146,00,04,02,043,00,09,01,032,00,68,30,110,14*4E
$GPGSV,6,4,23,83,53,033,00,74,43,295,12,84,43,293,00,73,39,228,16*7C
$GPGSV,6,5,23,67,27,047,00,82,13,071,00,75,06,340,00,69,05,153,00*7C
$GPGSV,6,6,23,135,37,196,39,138,37,160,00,133,38,191,42*73
{"class":"SKY","time":"2019-04-24T02:17:30.000Z","xdop":1.58,"ydop":1.08,"vdop":3.00,"tdop":3.00,"hdop":3.20,"gdop":5.40,"pdop":4.40,"satellites":[{"PRN":25,"el":66,"az":224,"ss":10,"used":false,"gnssid":0,"svid":25},{"PRN":29,"el":60,"az":312,"ss":9,"used":false,"gnssid":0,"svid":29},{"PRN":5,"el":52,"az":107,"ss":4,"used":false,"gnssid":0,"svid":5},{"PRN":12,"el":41,"az":166,"ss":14,"used":true,"gnssid":0,"svid":12},{"PRN":2,"el":41,"az":56,"ss":14,"used":true,"gnssid":0,"svid":2},{"PRN":31,"el":17,"az":293,"ss":0,"used":false,"gnssid":0,"svid":31},{"PRN":21,"el":14,"az":243,"ss":12,"used":false,"gnssid":0,"svid":21},{"PRN":6,"el":9,"az":56,"ss":0,"used":false,"gnssid":0,"svid":6},{"PRN":193,"el":29,"az":146,"ss":0,"used":false,"gnssid":5,"svid":1},{"PRN":4,"el":2,"az":43,"ss":0,"used":false,"gnssid":0,"svid":4},{"PRN":9,"el":1,"az":32,"ss":0,"used":false,"gnssid":0,"svid":9},{"PRN":68,"el":30,"az":110,"ss":14,"used":true,"gnssid":6,"svid":4},{"PRN":83,"el":53,"az":33,"ss":0,"used":false,"gnssid":6,"svid":19},{"PRN":74,"el":43,"az":295,"ss":12,"used":false,"gnssid":6,"svid":10},{"PRN":84,"el":43,"az":293,"ss":0,"used":false,"gnssid":6,"svid":20},{"PRN":73,"el":39,"az":228,"ss":16,"used":false,"gnssid":6,"svid":9},{"PRN":67,"el":27,"az":47,"ss":0,"used":false,"gnssid":6,"svid":3},{"PRN":82,"el":13,"az":71,"ss":0,"used":false,"gnssid":6,"svid":18},{"PRN":75,"el":6,"az":340,"ss":0,"used":false,"gnssid":6,"svid":11},{"PRN":69,"el":5,"az":153,"ss":0,"used":false,"gnssid":6,"svid":5},{"PRN":135,"el":37,"az":196,"ss":39,"used":false,"gnssid":1,"svid":135},{"PRN":138,"el":37,"az":160,"ss":0,"used":false,"gnssid":1,"svid":138},{"PRN":133,"el":38,"az":191,"ss":42,"used":false,"gnssid":1,"svid":133}]}
$GPZDA,021730.00,24,04,2019,00,00*69
$GPGGA,021730.00,4404.1249,N,12118.8570,W,1,00,3.20,1139.61,M,-20.139,M,,*6A
$GPRMC,021730.00,A,4404.1249,N,12118.8570,W,1.8221,,240419,,*31
$GPGSA,A,2,12,2,68,,,,,,,,,,4.4,3.2,3.0*0E
$GPGBS,021730.00,23.765,16.197,,,,,*65
{"class":"TPV","mode":2,"time":"2019-04-24T02:17:30.000Z","leapseconds":18,"ept":0.005,"lat":44.068748904,"lon":-121.314283138,"alt":1139.608,"epx":23.765,"epy":16.197,"speed":0.937,"eps":47.53,"eph":60.800,"sep":83.600}
$GPZDA,021731.00,24,04,2019,00,00*68
$GPGGA,021731.00,4404.1252,N,12118.8568,W,1,00,3.20,1139.61,M,-20.139,M,,*68
$GPRMC,021731.00,A,4404.1252,N,12118.8568,W,1.4190,267.310,240419,,*19
$GPGSA,A,2,12,2,68,,,,,,,,,,4.4,3.2,3.0*0E
$GPGBS,021731.00,23.765,16.197,7.870,,,,*42
{"class":"TPV","mode":2,"time":"2019-04-24T02:17:31.000Z","leapseconds":18,"ept":0.005,"lat":44.068753400,"lon":-121.314280600,"alt":1139.608,"epx":23.765,"epy":16.197,"epv":7.870,"track":267.3100,"speed":0.730,"epd":0.0000,"eps":0.10,"eph":60.800,"sep":83.600,"datum":"WGS84"}
$GPGSV,6,1,23,25,66,224,04,29,60,312,08,05,52,107,04,12,41,166,13*78
$GPGSV,6,2,23,02,41,056,04,31,17,293,00,21,14,243,12,06,09,056,00*7C
$GPGSV,6,3,23,193,29,146,00,04,02,043,00,09,01,032,00,68,30,110,14*4E
$GPGSV,6,4,23,83,53,033,00,74,43,295,12,84,43,293,00,73,39,228,16*7C
$GPGSV,6,5,23,67,27,047,00,82,13,071,00,75,06,340,00,69,05,153,00*7C
$GPGSV,6,6,23,135,37,196,39,138,37,160,00,133,38,191,42*73
