$GPGGA,213121.000,4404.1295864,N,12118.8685453,W,2,07,1.2,1102.537,M,-20.300,M,,0000*5F
{"class":"TPV","status":2,"mode":3,"lat":44.068826440,"lon":-121.314475755,"alt":1102.537}
$GPGLL,4404.1295864,N,12118.8685453,W,213121.000,A,D*47
{"class":"TPV","status":2,"mode":3,"lat":44.068826440,"lon":-121.314475755,"alt":1102.537}
$GPGSA,A,3,09,23,08,11,27,28,,,,,,,2.5,1.2,2.2*39
{"class":"TPV","status":2,"mode":3,"lat":44.068826440,"lon":-121.314475755,"alt":1102.537,"epv":12.650}
$BDGSA,A,3,214,,,,,,,,,,,,2.5,1.2,2.2*10
{"class":"TPV","status":2,"mode":3,"lat":44.068826440,"lon":-121.314475755,"alt":1102.537,"epv":12.650}
$GPRMC,213121.000,A,4404.1295864,N,12118.8685453,W,000.0,122.7,070416,,,D*72
{"class":"TPV","status":2,"mode":3,"time":"2016-04-07T21:31:21.000Z","ept":0.005,"lat":44.068826440,"lon":-121.314475755,"alt":1102.537,"epv":12.650,"track":122.7000,"speed":0.000}
$GPVTG,122.7,T,,M,000.0,N,000.0,K,D*0E
$GPZDA,213121.000,07,04,2016,00,00*52
$GPGST,213121.000,16.1,22.2,10.2,2.0,0.4,0.6,1.4*57
{"class":"GST","time":"2016-04-10T08:43:22.000Z","rms":16.100,"major":22.200,"minor":10.200,"orient":2.000,"lat":0.400,"lon":0.600,"alt":1.400}
$PSTI,030,213121.000,A,4404.1295864,N,12118.8685453,W,1102.537,-0.01,0.01,0.03,070416,D,0.0,0.0*13
{"class":"TPV","status":2,"mode":3,"time":"2016-04-07T21:31:21.000Z","ept":0.005,"lat":44.068826440,"lon":-121.314475755,"alt":1102.537,"epv":12.650,"track":315.0000,"speed":0.014,"climb":0.030}
$GPGGA,213122.000,4404.1296266,N,12118.8685655,W,2,08,1.2,1102.396,M,-20.300,M,,0000*51
$GPGLL,4404.1296266,N,12118.8685655,W,213122.000,A,D*4B
$GPGSA,A,3,09,23,08,11,27,30,28,,,,,,2.4,1.2,2.1*38
$BDGSA,A,3,214,,,,,,,,,,,,2.4,1.2,2.1*12
$GPRMC,213122.000,A,4404.1296266,N,12118.8685655,W,000.0,122.7,070416,,,D*7E
$GPVTG,122.7,T,,M,000.0,N,000.0,K,D*0E
$GPZDA,213122.000,07,04,2016,00,00*51
$GPGST,213122.000,15.7,22.8,11.6,-1.1,0.4,0.6,1.3*76
{"class":"GST","time":"2016-04-10T08:43:24.000Z","rms":15.700,"major":22.800,"minor":11.600,"orient":-1.100,"lat":0.400,"lon":0.600,"alt":1.300}
$PSTI,030,213122.000,A,4404.1296266,N,12118.8685655,W,1102.396,-0.00,-0.06,0.09,070416,D,0.0,0.0*33
{"class":"TPV","status":2,"mode":3,"time":"2016-04-07T21:31:22.000Z","ept":0.005,"lat":44.068827110,"lon":-121.314476092,"alt":1102.396,"epv":12.650,"track":180.0000,"speed":0.060,"climb":0.090,"epc":25.30}
$GPGGA,213123.000,4404.1296473,N,12118.8685846,W,2,08,1.2,1102.317,M,-20.300,M,,0000*57
$GPGLL,4404.1296473,N,12118.8685846,W,213123.000,A,D*44
$GPGSA,A,3,09,23,08,11,27,30,28,,,,,,2.4,1.2,2.1*38
$BDGSA,A,3,214,,,,,,,,,,,,2.4,1.2,2.1*12
$GPGSV,4,1,13,07,73,042,17,30,64,305,15,09,42,158,28,08,40,079,23*74
$GPGSV,4,2,13,28,39,225,27,51,37,160,31,05,23,288,,27,23,047,20*7B
$GPGSV,4,3,13,23,12,147,29,13,12,315,,193,08,299,,11,06,123,28*4C
$GPGSV,4,4,13,20,03,330,*4A
{"class":"SKY","xdop":1.12,"ydop":0.88,"vdop":2.10,"tdop":1.62,"hdop":1.20,"gdop":3.18,"pdop":2.40,"satellites":[{"PRN":7,"el":73,"az":42,"ss":17,"used":false,"gnssid":0,"svid":7},{"PRN":30,"el":64,"az":305,"ss":15,"used":true,"gnssid":0,"svid":30},{"PRN":9,"el":42,"az":158,"ss":28,"used":true,"gnssid":0,"svid":9},{"PRN":8,"el":40,"az":79,"ss":23,"used":true,"gnssid":0,"svid":8},{"PRN":28,"el":39,"az":225,"ss":27,"used":true,"gnssid":0,"svid":28},{"PRN":138,"el":37,"az":160,"ss":31,"used":false,"gnssid":1,"svid":138},{"PRN":5,"el":23,"az":288,"ss":0,"used":false,"gnssid":0,"svid":5},{"PRN":27,"el":23,"az":47,"ss":20,"used":true,"gnssid":0,"svid":27},{"PRN":23,"el":12,"az":147,"ss":29,"used":true,"gnssid":0,"svid":23},{"PRN":13,"el":12,"az":315,"ss":0,"used":false,"gnssid":0,"svid":13},{"PRN":193,"el":8,"az":299,"ss":0,"used":false,"gnssid":5,"svid":1},{"PRN":11,"el":6,"az":123,"ss":28,"used":true,"gnssid":0,"svid":11},{"PRN":20,"el":3,"az":330,"ss":0,"used":false,"gnssid":0,"svid":20}]}
$BDGSV,1,1,03,214,34,246,25,206,08,330,,212,04,172,26*65
{"class":"SKY","xdop":0.80,"ydop":0.85,"vdop":2.10,"tdop":1.32,"hdop":1.20,"gdop":2.70,"pdop":2.40,"satellites":[{"PRN":7,"el":73,"az":42,"ss":17,"used":false,"gnssid":0,"svid":7},{"PRN":30,"el":64,"az":305,"ss":15,"used":true,"gnssid":0,"svid":30},{"PRN":9,"el":42,"az":158,"ss":28,"used":true,"gnssid":0,"svid":9},{"PRN":8,"el":40,"az":79,"ss":23,"used":true,"gnssid":0,"svid":8},{"PRN":28,"el":39,"az":225,"ss":27,"used":true,"gnssid":0,"svid":28},{"PRN":138,"el":37,"az":160,"ss":31,"used":false,"gnssid":1,"svid":138},{"PRN":5,"el":23,"az":288,"ss":0,"used":false,"gnssid":0,"svid":5},{"PRN":27,"el":23,"az":47,"ss":20,"used":true,"gnssid":0,"svid":27},{"PRN":23,"el":12,"az":147,"ss":29,"used":true,"gnssid":0,"svid":23},{"PRN":13,"el":12,"az":315,"ss":0,"used":false,"gnssid":0,"svid":13},{"PRN":193,"el":8,"az":299,"ss":0,"used":false,"gnssid":5,"svid":1},{"PRN":11,"el":6,"az":123,"ss":28,"used":true,"gnssid":0,"svid":11},{"PRN":20,"el":3,"az":330,"ss":0,"used":false,"gnssid":0,"svid":20},{"PRN":214,"el":34,"az":246,"ss":25,"used":true},{"PRN":206,"el":8,"az":330,"ss":0,"used":false},{"PRN":212,"el":4,"az":172,"ss":26,"used":false}]}
$GPRMC,213123.000,A,4404.1296473,N,12118.8685846,W,000.0,122.7,070416,,,D*71
$GPVTG,122.7,T,,M,000.0,N,000.0,K,D*0E
$GPZDA,213123.000,07,04,2016,00,00*50
$GPGST,213123.000,12.2,20.4,9.6,-8.2,0.4,0.6,1.3*48
{"class":"GST","time":"2016-04-10T08:43:26.000Z","rms":12.200,"major":20.400,"minor":9.600,"orient":-8.200,"lat":0.400,"lon":0.600,"alt":1.300}
$PSTI,030,213123.000,A,4404.1296473,N,12118.8685846,W,1102.317,0.02,-0.04,0.12,070416,D,0.0,0.0*12
{"class":"TPV","status":2,"mode":3,"time":"2016-04-07T21:31:23.000Z","ept":0.005,"lat":44.068827455,"lon":-121.314476410,"alt":1102.317,"epx":4.205,"epy":3.287,"epv":12.075,"track":153.4349,"speed":0.045,"climb":0.120,"epc":24.73}
$GPGGA,213124.000,4404.1296522,N,12118.8685802,W,2,08,1.2,1102.312,M,-20.300,M,,0000*50
$GPGLL,4404.1296522,N,12118.8685802,W,213124.000,A,D*46
$GPGSA,A,3,09,23,08,07,11,27,28,,,,,,2.1,1.2,1.7*3C
$BDGSA,A,3,214,,,,,,,,,,,,2.1,1.2,1.7*12
$GPRMC,213124.000,A,4404.1296522,N,12118.8685802,W,000.0,122.7,070416,,,D*73
$GPVTG,122.7,T,,M,000.0,N,000.0,K,D*0E
$GPZDA,213124.000,07,04,2016,00,00*57
$GPGST,213124.000,11.3,46.1,13.9,9.2,0.4,0.6,1.3*50
{"class":"GST","time":"2016-04-10T08:43:28.000Z","rms":11.300,"major":46.100,"minor":13.900,"orient":9.200,"lat":0.400,"lon":0.600,"alt":1.300}
$PSTI,030,213124.000,A,4404.1296522,N,12118.8685802,W,1102.312,0.01,-0.05,0.12,070416,D,0.0,0.0*17
{"class":"TPV","status":2,"mode":3,"time":"2016-04-07T21:31:24.000Z","ept":0.005,"lat":44.068827537,"lon":-121.314476337,"alt":1102.312,"epx":3.002,"epy":3.183,"epv":12.075,"track":168.6901,"speed":0.051,"climb":0.120,"eps":7.39,"epc":24.15}
$GPGGA,213125.000,4404.1296466,N,12118.8685891,W,2,07,1.2,1102.351,M,-20.300,M,,0000*52
$GPGLL,4404.1296466,N,12118.8685891,W,213125.000,A,D*4C
$GPGSA,A,3,09,23,08,11,27,28,,,,,,,2.5,1.2,2.2*39
$BDGSA,A,3,214,,,,,,,,,,,,2.5,1.2,2.2*10
$GPRMC,213125.000,A,4404.1296466,N,12118.8685891,W,000.0,122.7,070416,,,D*79
$GPVTG,122.7,T,,M,000.0,N,000.0,K,D*0E
$GPZDA,213125.000,07,04,2016,00,00*56
$GPGST,213125.000,11.9,40.9,10.8,11.6,0.4,0.6,1.2*6B
{"class":"GST","time":"2016-04-10T08:43:30.000Z","rms":11.900,"major":40.900,"minor":10.800,"orient":11.600,"lat":0.400,"lon":0.600,"alt":1.200}
$PSTI,030,213125.000,A,4404.1296466,N,12118.8685891,W,1102.351,0.03,-0.03,0.09,070416,D,0.0,0.0*14
{"class":"TPV","status":2,"mode":3,"time":"2016-04-07T21:31:25.000Z","ept":0.005,"lat":44.068827443,"lon":-121.314476485,"alt":1102.351,"epx":3.002,"epy":3.183,"epv":9.775,"track":135.0000,"speed":0.042,"climb":0.090,"eps":6.37,"epc":21.85}
$GPGGA,213126.000,4404.1296456,N,12118.8685796,W,2,07,1.2,1102.363,M,-20.300,M,,0000*5B
$GPGLL,4404.1296456,N,12118.8685796,W,213126.000,A,D*44
$GPGSA,A,3,09,23,08,11,27,28,,,,,,,2.5,1.2,2.2*39
$BDGSA,A,3,214,,,,,,,,,,,,2.5,1.2,2.2*10
$GPGSV,4,1,13,07,73,042,16,30,64,305,14,09,42,158,27,08,40,079,23*7B
$GPGSV,4,2,13,28,39,225,26,51,37,160,31,05,23,288,,27,23,047,20*7A
$GPGSV,4,3,13,23,12,147,30,13,12,315,,193,08,299,,11,06,123,28*44
$GPGSV,4,4,13,20,03,330,*4A
$BDGSV,1,1,03,214,34,246,24,206,08,330,,212,04,172,25*67
{"class":"SKY","xdop":0.80,"ydop":0.88,"vdop":2.20,"tdop":1.33,"hdop":1.20,"gdop":2.85,"pdop":2.50,"satellites":[{"PRN":7,"el":73,"az":42,"ss":16,"used":false,"gnssid":0,"svid":7},{"PRN":30,"el":64,"az":305,"ss":14,"used":false,"gnssid":0,"svid":30},{"PRN":9,"el":42,"az":158,"ss":27,"used":true,"gnssid":0,"svid":9},{"PRN":8,"el":40,"az":79,"ss":23,"used":true,"gnssid":0,"svid":8},{"PRN":28,"el":39,"az":225,"ss":26,"used":true,"gnssid":0,"svid":28},{"PRN":138,"el":37,"az":160,"ss":31,"used":false,"gnssid":1,"svid":138},{"PRN":5,"el":23,"az":288,"ss":0,"used":false,"gnssid":0,"svid":5},{"PRN":27,"el":23,"az":47,"ss":20,"used":true,"gnssid":0,"svid":27},{"PRN":23,"el":12,"az":147,"ss":30,"used":true,"gnssid":0,"svid":23},{"PRN":13,"el":12,"az":315,"ss":0,"used":false,"gnssid":0,"svid":13},{"PRN":193,"el":8,"az":299,"ss":0,"used":false,"gnssid":5,"svid":1},{"PRN":11,"el":6,"az":123,"ss":28,"used":true,"gnssid":0,"svid":11},{"PRN":20,"el":3,"az":330,"ss":0,"used":false,"gnssid":0,"svid":20},{"PRN":214,"el":34,"az":246,"ss":24,"used":true},{"PRN":206,"el":8,"az":330,"ss":0,"used":false},{"PRN":212,"el":4,"az":172,"ss":25,"used":false}]}
$GPRMC,213126.000,A,4404.1296456,N,12118.8685796,W,000.0,122.7,070416,,,D*71
$GPVTG,122.7,T,,M,000.0,N,000.0,K,D*0E
$GPZDA,213126.000,07,04,2016,00,00*55
$GPGST,213126.000,4.5,43.4,16.0,4.8,0.4,0.6,1.2*6A
{"class":"GST","time":"2016-04-10T08:43:32.000Z","rms":4.500,"major":43.400,"minor":16.000,"orient":4.800,"lat":0.400,"lon":0.600,"alt":1.200}
$PSTI,030,213126.000,A,4404.1296456,N,12118.8685796,W,1102.363,0.03,-0.04,0.10,070416,D,0.0,0.0*12
{"class":"TPV","status":2,"mode":3,"time":"2016-04-07T21:31:26.000Z","ept":0.005,"lat":44.068827427,"lon":-121.314476327,"alt":1102.363,"epx":3.002,"epy":3.183,"epv":12.650,"track":143.1301,"speed":0.050,"climb":0.100,"eps":6.37,"epc":22.43}
$GPGGA,213127.000,4404.1296609,N,12118.8685699,W,2,07,1.2,1102.308,M,-20.300,M,,0000*51
$GPGLL,4404.1296609,N,12118.8685699,W,213127.000,A,D*43
$GPGSA,A,3,09,23,08,11,27,28,,,,,,,2.5,1.2,2.2*39
$BDGSA,A,3,214,,,,,,,,,,,,2.5,1.2,2.2*10
$GPRMC,213127.000,A,4404.1296609,N,12118.8685699,W,000.0,122.7,070416,,,D*76
$GPVTG,122.7,T,,M,000.0,N,000.0,K,D*0E
$GPZDA,213127.000,07,04,2016,00,00*54
$GPGST,213127.000,14.9,44.9,13.9,8.2,0.4,0.6,1.1*55
{"class":"GST","time":"2016-04-10T08:43:34.000Z","rms":14.900,"major":44.900,"minor":13.900,"orient":8.200,"lat":0.400,"lon":0.600,"alt":1.100}
$PSTI,030,213127.000,A,4404.1296609,N,12118.8685699,W,1102.308,0.03,-0.06,0.12,070416,D,0.0,0.0*18
{"class":"TPV","status":2,"mode":3,"time":"2016-04-07T21:31:27.000Z","ept":0.005,"lat":44.068827682,"lon":-121.314476165,"alt":1102.308,"epx":3.015,"epy":3.291,"epv":12.650,"track":153.4349,"speed":0.067,"climb":0.120,"eps":6.47,"epc":25.30}
$GPGGA,213128.000,4404.1296549,N,12118.8685599,W,2,07,1.2,1102.336,M,-20.300,M,,0000*57
$GPGLL,4404.1296549,N,12118.8685599,W,213128.000,A,D*48
$GPGSA,A,3,09,23,08,11,27,28,,,,,,,2.5,1.2,2.2*39
$BDGSA,A,3,214,,,,,,,,,,,,2.5,1.2,2.2*10
$GPRMC,213128.000,A,4404.1296549,N,12118.8685599,W,000.0,122.7,070416,,,D*7D
$GPVTG,122.7,T,,M,000.0,N,000.0,K,D*0E
$GPZDA,213128.000,07,04,2016,00,00*5B
$GPGST,213128.000,14.3,27.2,14.5,-0.9,0.4,0.5,1.1*78
{"class":"GST","time":"2016-04-10T08:43:36.000Z","rms":14.300,"major":27.200,"minor":14.500,"orient":-0.900,"lat":0.400,"lon":0.500,"alt":1.100}
$PSTI,030,213128.000,A,4404.1296549,N,12118.8685599,W,1102.336,0.01,-0.09,0.11,070416,D,0.0,0.0*10
{"class":"TPV","status":2,"mode":3,"time":"2016-04-07T21:31:28.000Z","ept":0.005,"lat":44.068827582,"lon":-121.314475998,"alt":1102.336,"epx":3.015,"epy":3.291,"epv":12.650,"track":173.6598,"speed":0.091,"climb":0.110,"eps":6.58,"epc":25.30}
$GPGGA,213129.000,4404.1296508,N,12118.8685509,W,2,07,1.2,1102.360,M,-20.300,M,,0000*59
$GPGLL,4404.1296508,N,12118.8685509,W,213129.000,A,D*45
$GPGSA,A,3,09,23,08,11,27,28,,,,,,,2.5,1.2,2.2*39
$BDGSA,A,3,214,,,,,,,,,,,,2.5,1.2,2.2*10
$GPGSV,4,1,13,07,73,042,15,30,64,305,12,09,42,158,27,08,40,079,22*7F
$GPGSV,4,2,13,28,39,225,27,51,37,160,31,05,23,288,,27,23,047,19*71
$GPGSV,4,3,13,23,12,147,29,13,12,315,,193,08,299,,11,06,123,27*43
$GPGSV,4,4,13,20,03,330,*4A
$BDGSV,1,1,03,214,34,246,24,206,08,330,,212,04,172,25*67
{"class":"SKY","xdop":0.80,"ydop":0.88,"vdop":2.20,"tdop":1.33,"hdop":1.20,"gdop":2.85,"pdop":2.50,"satellites":[{"PRN":7,"el":73,"az":42,"ss":15,"used":false,"gnssid":0,"svid":7},{"PRN":30,"el":64,"az":305,"ss":12,"used":false,"gnssid":0,"svid":30},{"PRN":9,"el":42,"az":158,"ss":27,"used":true,"gnssid":0,"svid":9},{"PRN":8,"el":40,"az":79,"ss":22,"used":true,"gnssid":0,"svid":8},{"PRN":28,"el":39,"az":225,"ss":27,"used":true,"gnssid":0,"svid":28},{"PRN":138,"el":37,"az":160,"ss":31,"used":false,"gnssid":1,"svid":138},{"PRN":5,"el":23,"az":288,"ss":0,"used":false,"gnssid":0,"svid":5},{"PRN":27,"el":23,"az":47,"ss":19,"used":true,"gnssid":0,"svid":27},{"PRN":23,"el":12,"az":147,"ss":29,"used":true,"gnssid":0,"svid":23},{"PRN":13,"el":12,"az":315,"ss":0,"used":false,"gnssid":0,"svid":13},{"PRN":193,"el":8,"az":299,"ss":0,"used":false,"gnssid":5,"svid":1},{"PRN":11,"el":6,"az":123,"ss":27,"used":true,"gnssid":0,"svid":11},{"PRN":20,"el":3,"az":330,"ss":0,"used":false,"gnssid":0,"svid":20},{"PRN":214,"el":34,"az":246,"ss":24,"used":true},{"PRN":206,"el":8,"az":330,"ss":0,"used":false},{"PRN":212,"el":4,"az":172,"ss":25,"used":false}]}
$GPRMC,213129.000,A,4404.1296508,N,12118.8685509,W,000.0,122.7,070416,,,D*70
$GPVTG,122.7,T,,M,000.0,N,000.0,K,D*0E
$GPZDA,213129.000,07,04,2016,00,00*5A
$GPGST,213129.000,12.7,23.9,14.9,7.6,0.4,0.5,1.1*5D
{"class":"GST","time":"2016-04-10T08:43:38.000Z","rms":12.700,"major":23.900,"minor":14.900,"orient":7.600,"lat":0.400,"lon":0.500,"alt":1.100}
$PSTI,030,213129.000,A,4404.1296508,N,12118.8685509,W,1102.360,0.01,-0.06,0.09,070416,D,0.0,0.0*18
{"class":"TPV","status":2,"mode":3,"time":"2016-04-07T21:31:29.000Z","ept":0.005,"lat":44.068827513,"lon":-121.314475848,"alt":1102.360,"epx":3.015,"epy":3.291,"epv":12.650,"track":170.5377,"speed":0.061,"climb":0.090,"eps":6.58,"epc":25.30}
$GPGGA,213130.000,4404.1296528,N,12118.8685474,W,2,07,1.2,1102.355,M,-20.300,M,,0000*5E
$GPGLL,4404.1296528,N,12118.8685474,W,213130.000,A,D*44
$GPGSA,A,3,09,23,08,11,27,28,,,,,,,2.5,1.2,2.2*39
$BDGSA,A,3,214,,,,,,,,,,,,2.5,1.2,2.2*10
$GPRMC,213130.000,A,4404.1296528,N,12118.8685474,W,000.0,122.7,070416,,,D*71
$GPVTG,122.7,T,,M,000.0,N,000.0,K,D*0E
$GPZDA,213130.000,07,04,2016,00,00*52
$GPGST,213130.000,12.7,45.5,13.0,8.5,0.4,0.5,1.0*5A
{"class":"GST","time":"2016-04-10T08:43:40.000Z","rms":12.700,"major":45.500,"minor":13.000,"orient":8.500,"lat":0.400,"lon":0.500,"alt":1.000}
$PSTI,030,213130.000,A,4404.1296528,N,12118.8685474,W,1102.355,0.01,-0.08,0.12,070416,D,0.0,0.0*1B
{"class":"TPV","status":2,"mode":3,"time":"2016-04-07T21:31:30.000Z","ept":0.005,"lat":44.068827547,"lon":-121.314475790,"alt":1102.355,"epx":3.015,"epy":3.291,"epv":12.650,"track":172.8750,"speed":0.081,"climb":0.120,"eps":6.58,"epc":25.30}
$GPGGA,213131.000,4404.1296524,N,12118.8685296,W,2,07,1.2,1102.351,M,-20.300,M,,0000*5D
$GPGLL,4404.1296524,N,12118.8685296,W,213131.000,A,D*43
$GPGSA,A,3,09,23,08,11,27,28,,,,,,,2.5,1.2,2.2*39
$BDGSA,A,3,214,,,,,,,,,,,,2.5,1.2,2.2*10
$GPRMC,213131.000,A,4404.1296524,N,12118.8685296,W,000.0,122.7,070416,,,D*76
$GPVTG,122.7,T,,M,000.0,N,000.0,K,D*0E
$GPZDA,213131.000,07,04,2016,00,00*53
$GPGST,213131.000,9.8,49.4,13.7,7.2,0.4,0.5,1.0*6C
{"class":"GST","time":"2016-04-10T08:43:42.000Z","rms":9.800,"major":49.400,"minor":13.700,"orient":7.200,"lat":0.400,"lon":0.500,"alt":1.000}
$PSTI,030,213131.000,A,4404.1296524,N,12118.8685296,W,1102.351,0.02,-0.12,0.16,070416,D,0.0,0.0*14
{"class":"TPV","status":2,"mode":3,"time":"2016-04-07T21:31:31.000Z","ept":0.005,"lat":44.068827540,"lon":-121.314475493,"alt":1102.351,"epx":3.015,"epy":3.291,"epv":12.650,"track":170.5377,"speed":0.122,"climb":0.160,"eps":6.58,"epc":25.30}
$GPGGA,213132.000,4404.1296553,N,12118.8685291,W,2,07,1.6,1102.338,M,-20.300,M,,0000*52
$GPGLL,4404.1296553,N,12118.8685291,W,213132.000,A,D*47
$GPGSA,A,3,09,23,08,11,30,28,,,,,,,3.0,1.6,2.5*38
$BDGSA,A,3,214,,,,,,,,,,,,3.0,1.6,2.5*17
$GPGSV,4,1,13,07,73,042,14,30,64,305,14,09,42,158,29,08,40,079,21*75
$GPGSV,4,2,13,28,39,225,27,51,37,160,31,05,23,288,,27,23,047,18*70
$GPGSV,4,3,13,13,12,315,,23,11,147,29,193,08,299,,11,06,123,27*40
$GPGSV,4,4,13,20,03,330,*4A
$BDGSV,1,1,03,214,34,246,23,206,08,330,,212,04,172,25*60
{"class":"SKY","xdop":0.81,"ydop":1.39,"vdop":2.50,"tdop":1.77,"hdop":1.60,"gdop":3.41,"pdop":3.00,"satellites":[{"PRN":7,"el":73,"az":42,"ss":14,"used":false,"gnssid":0,"svid":7},{"PRN":30,"el":64,"az":305,"ss":14,"used":true,"gnssid":0,"svid":30},{"PRN":9,"el":42,"az":158,"ss":29,"used":true,"gnssid":0,"svid":9},{"PRN":8,"el":40,"az":79,"ss":21,"used":true,"gnssid":0,"svid":8},{"PRN":28,"el":39,"az":225,"ss":27,"used":true,"gnssid":0,"svid":28},{"PRN":138,"el":37,"az":160,"ss":31,"used":false,"gnssid":1,"svid":138},{"PRN":5,"el":23,"az":288,"ss":0,"used":false,"gnssid":0,"svid":5},{"PRN":27,"el":23,"az":47,"ss":18,"used":false,"gnssid":0,"svid":27},{"PRN":13,"el":12,"az":315,"ss":0,"used":false,"gnssid":0,"svid":13},{"PRN":23,"el":11,"az":147,"ss":29,"used":true,"gnssid":0,"svid":23},{"PRN":193,"el":8,"az":299,"ss":0,"used":false,"gnssid":5,"svid":1},{"PRN":11,"el":6,"az":123,"ss":27,"used":true,"gnssid":0,"svid":11},{"PRN":20,"el":3,"az":330,"ss":0,"used":false,"gnssid":0,"svid":20},{"PRN":214,"el":34,"az":246,"ss":23,"used":true},{"PRN":206,"el":8,"az":330,"ss":0,"used":false},{"PRN":212,"el":4,"az":172,"ss":25,"used":false}]}
$GPRMC,213132.000,A,4404.1296553,N,12118.8685291,W,000.0,122.7,070416,,,D*72
$GPVTG,122.7,T,,M,000.0,N,000.0,K,D*0E
$GPZDA,213132.000,07,04,2016,00,00*50
$GPGST,213132.000,14.1,39.6,14.0,9.4,0.4,0.5,0.9*5F
{"class":"GST","time":"2016-04-10T08:43:44.000Z","rms":14.100,"major":39.600,"minor":14.000,"orient":9.400,"lat":0.400,"lon":0.500,"alt":0.900}
$PSTI,030,213132.000,A,4404.1296553,N,12118.8685291,W,1102.338,0.01,-0.12,0.16,070416,D,0.0,0.0*1C
{"class":"TPV","status":2,"mode":3,"time":"2016-04-07T21:31:32.000Z","ept":0.005,"lat":44.068827588,"lon":-121.314475485,"alt":1102.338,"epx":3.015,"epy":3.291,"epv":12.650,"track":175.2364,"speed":0.120,"climb":0.160,"eps":6.58,"epc":25.30}
$GPGGA,213133.000,4404.1296749,N,12118.8685322,W,2,09,1.1,1102.275,M,-20.300,M,,0000*52
$GPGLL,4404.1296749,N,12118.8685322,W,213133.000,A,D*46
$GPGSA,A,3,09,23,08,07,11,27,30,28,,,,,2.1,1.1,1.7*3C
$BDGSA,A,3,214,,,,,,,,,,,,2.1,1.1,1.7*11
$GPRMC,213133.000,A,4404.1296749,N,12118.8685322,W,000.0,122.7,070416,,,D*73
$GPVTG,122.7,T,,M,000.0,N,000.0,K,D*0E
$GPZDA,213133.000,07,04,2016,00,00*51
$GPGST,213133.000,13.0,47.2,13.0,9.0,0.4,0.5,0.9*56
{"class":"GST","time":"2016-04-10T08:43:46.000Z","rms":13.000,"major":47.200,"minor":13.000,"orient":9.000,"lat":0.400,"lon":0.500,"alt":0.900}
$PSTI,030,213133.000,A,4404.1296749,N,12118.8685322,W,1102.275,0.01,-0.12,0.15,070416,D,0.0,0.0*16
{"class":"TPV","status":2,"mode":3,"time":"2016-04-07T21:31:33.000Z","ept":0.005,"lat":44.068827915,"lon":-121.314475537,"alt":1102.275,"epx":3.029,"epy":5.204,"epv":14.375,"track":175.2364,"speed":0.120,"climb":0.150,"eps":8.50,"epc":27.02}
$GPGGA,213134.000,4404.1296723,N,12118.8685215,W,2,09,1.1,1102.293,M,-20.300,M,,0000*54
$GPGLL,4404.1296723,N,12118.8685215,W,213134.000,A,D*48
$GPGSA,A,3,09,23,08,07,11,27,30,28,,,,,2.1,1.1,1.7*3C
$BDGSA,A,3,214,,,,,,,,,,,,2.1,1.1,1.7*11
$GPRMC,213134.000,A,4404.1296723,N,12118.8685215,W,000.0,122.7,070416,,,D*7D
$GPVTG,122.7,T,,M,000.0,N,000.0,K,D*0E
$GPZDA,213134.000,07,04,2016,00,00*56
$GPGST,213134.000,13.4,45.4,13.0,8.5,0.3,0.4,0.8*52
{"class":"GST","time":"2016-04-10T08:43:48.000Z","rms":13.400,"major":45.400,"minor":13.000,"orient":8.500,"lat":0.300,"lon":0.400,"alt":0.800}
$PSTI,030,213134.000,A,4404.1296723,N,12118.8685215,W,1102.293,0.02,-0.10,0.12,070416,D,0.0,0.0*16
{"class":"TPV","status":2,"mode":3,"time":"2016-04-07T21:31:34.000Z","ept":0.005,"lat":44.068827872,"lon":-121.314475358,"alt":1102.293,"epx":3.029,"epy":5.204,"epv":9.775,"track":168.6901,"speed":0.102,"climb":0.120,"eps":10.41,"epc":24.15}
$GPGGA,213135.000,4404.1296693,N,12118.8685040,W,2,08,1.2,1102.320,M,-20.300,M,,0000*56
$GPGLL,4404.1296693,N,12118.8685040,W,213135.000,A,D*41
$GPGSA,A,3,09,23,07,11,27,30,28,,,,,,2.2,1.2,1.8*3B
$BDGSA,A,3,214,,,,,,,,,,,,2.2,1.2,1.8*1E
$GPGSV,4,1,13,07,73,042,16,30,64,305,17,09,42,158,28,08,40,079,20*74
$GPGSV,4,2,13,28,39,225,27,51,37,160,31,05,23,288,,27,23,047,20*7B
$GPGSV,4,3,13,13,12,315,,23,11,147,30,193,08,299,,11,06,123,27*48
$GPGSV,4,4,13,20,03,330,*4A
$BDGSV,1,1,03,214,34,246,23,206,08,330,,212,04,172,24*61
{"class":"SKY","xdop":0.83,"ydop":0.85,"vdop":1.80,"tdop":1.21,"hdop":1.20,"gdop":2.46,"pdop":2.20,"satellites":[{"PRN":7,"el":73,"az":42,"ss":16,"used":true,"gnssid":0,"svid":7},{"PRN":30,"el":64,"az":305,"ss":17,"used":true,"gnssid":0,"svid":30},{"PRN":9,"el":42,"az":158,"ss":28,"used":true,"gnssid":0,"svid":9},{"PRN":8,"el":40,"az":79,"ss":20,"used":false,"gnssid":0,"svid":8},{"PRN":28,"el":39,"az":225,"ss":27,"used":true,"gnssid":0,"svid":28},{"PRN":138,"el":37,"az":160,"ss":31,"used":false,"gnssid":1,"svid":138},{"PRN":5,"el":23,"az":288,"ss":0,"used":false,"gnssid":0,"svid":5},{"PRN":27,"el":23,"az":47,"ss":20,"used":true,"gnssid":0,"svid":27},{"PRN":13,"el":12,"az":315,"ss":0,"used":false,"gnssid":0,"svid":13},{"PRN":23,"el":11,"az":147,"ss":30,"used":true,"gnssid":0,"svid":23},{"PRN":193,"el":8,"az":299,"ss":0,"used":false,"gnssid":5,"svid":1},{"PRN":11,"el":6,"az":123,"ss":27,"used":true,"gnssid":0,"svid":11},{"PRN":20,"el":3,"az":330,"ss":0,"used":false,"gnssid":0,"svid":20},{"PRN":214,"el":34,"az":246,"ss":23,"used":true},{"PRN":206,"el":8,"az":330,"ss":0,"used":false},{"PRN":212,"el":4,"az":172,"ss":24,"used":false}]}
$GPRMC,213135.000,A,4404.1296693,N,12118.8685040,W,000.0,122.7,070416,,,D*74
$GPVTG,122.7,T,,M,000.0,N,000.0,K,D*0E
$GPZDA,213135.000,07,04,2016,00,00*57
$GPGST,213135.000,15.2,45.7,13.1,8.9,0.3,0.4,1.4*50
{"class":"GST","time":"2016-04-10T08:43:50.000Z","rms":15.200,"major":45.700,"minor":13.100,"orient":8.900,"lat":0.300,"lon":0.400,"alt":1.400}
$PSTI,030,213135.000,A,4404.1296693,N,12118.8685040,W,1102.320,0.03,-0.02,0.07,070416,D,0.0,0.0*10
{"class":"TPV","status":2,"mode":3,"time":"2016-04-07T21:31:35.000Z","ept":0.005,"lat":44.068827822,"lon":-121.314475067,"alt":1102.320,"epx":3.029,"epy":5.204,"epv":9.775,"track":123.6901,"speed":0.036,"climb":0.070,"eps":10.41,"epc":19.55}
$GPGGA,213136.000,4404.1296710,N,12118.8684924,W,2,07,1.3,1102.329,M,-20.300,M,,0000*52
$GPGLL,4404.1296710,N,12118.8684924,W,213136.000,A,D*42
$GPGSA,A,3,09,23,11,27,30,28,,,,,,,2.7,1.3,2.4*37
$BDGSA,A,3,214,,,,,,,,,,,,2.7,1.3,2.4*15
$GPRMC,213136.000,A,4404.1296710,N,12118.8684924,W,000.0,122.7,070416,,,D*77
$GPVTG,122.7,T,,M,000.0,N,000.0,K,D*0E
$GPZDA,213136.000,07,04,2016,00,00*54
$GPGST,213136.000,13.5,43.0,13.2,7.7,0.3,0.4,1.3*56
{"class":"GST","time":"2016-04-10T08:43:52.000Z","rms":13.500,"major":43.000,"minor":13.200,"orient":7.700,"lat":0.300,"lon":0.400,"alt":1.300}
$PSTI,030,213136.000,A,4404.1296710,N,12118.8684924,W,1102.329,0.02,0.04,0.02,070416,D,0.0,0.0*35
{"class":"TPV","status":2,"mode":3,"time":"2016-04-07T21:31:36.000Z","ept":0.005,"lat":44.068827850,"lon":-121.314474873,"alt":1102.329,"epx":3.130,"epy":3.192,"epv":10.350,"track":26.5651,"speed":0.045,"climb":0.020,"eps":8.40,"epc":20.12}
$GPGGA,213137.000,4404.1296550,N,12118.8684745,W,2,08,1.2,1102.391,M,-20.300,M,,0000*51
$GPGLL,4404.1296550,N,12118.8684745,W,213137.000,A,D*4C
$GPGSA,A,3,09,23,08,11,27,30,28,,,,,,2.4,1.2,2.1*38
$BDGSA,A,3,214,,,,,,,,,,,,2.4,1.2,2.1*12
$GPRMC,213137.000,A,4404.1296550,N,12118.8684745,W,000.0,122.7,070416,,,D*79
$GPVTG,122.7,T,,M,000.0,N,000.0,K,D*0E
$GPZDA,213137.000,07,04,2016,00,00*55
$GPGST,213137.000,7.9,47.1,15.0,6.0,0.3,0.4,1.3*69
{"class":"GST","time":"2016-04-10T08:43:54.000Z","rms":7.900,"major":47.100,"minor":15.000,"orient":6.000,"lat":0.300,"lon":0.400,"alt":1.300}
$PSTI,030,213137.000,A,4404.1296550,N,12118.8684745,W,1102.391,0.02,0.01,0.05,070416,D,0.0,0.0*3A
{"class":"TPV","status":2,"mode":3,"time":"2016-04-07T21:31:37.000Z","ept":0.005,"lat":44.068827583,"lon":-121.314474575,"alt":1102.391,"epx":3.130,"epy":3.192,"epv":13.800,"track":63.4349,"speed":0.022,"climb":0.050,"eps":6.38,"epc":24.15}
$GPGGA,213138.000,4404.1296587,N,12118.8684709,W,2,09,1.1,1102.380,M,-20.300,M,,0000*5E
$GPGLL,4404.1296587,N,12118.8684709,W,213138.000,A,D*41
$GPGSA,A,3,09,23,08,07,11,27,30,28,,,,,2.1,1.1,1.7*3C
$BDGSA,A,3,214,,,,,,,,,,,,2.1,1.1,1.7*11
$GPGSV,4,1,13,07,73,042,19,30,64,305,16,09,42,158,29,28,40,226,26*77
$GPGSV,4,2,13,08,40,079,19,51,37,160,31,05,23,288,,27,23,047,19*7B
$GPGSV,4,3,13,13,12,315,,23,11,147,31,193,08,299,,11,06,123,26*48
$GPGSV,4,4,13,20,03,330,*4A
$BDGSV,1,1,03,214,34,246,22,206,08,330,,212,04,172,24*60
{"class":"SKY","xdop":0.75,"ydop":0.85,"vdop":1.70,"tdop":1.19,"hdop":1.10,"gdop":2.38,"pdop":2.10,"satellites":[{"PRN":7,"el":73,"az":42,"ss":19,"used":true,"gnssid":0,"svid":7},{"PRN":30,"el":64,"az":305,"ss":16,"used":true,"gnssid":0,"svid":30},{"PRN":9,"el":42,"az":158,"ss":29,"used":true,"gnssid":0,"svid":9},{"PRN":28,"el":40,"az":226,"ss":26,"used":true,"gnssid":0,"svid":28},{"PRN":8,"el":40,"az":79,"ss":19,"used":true,"gnssid":0,"svid":8},{"PRN":138,"el":37,"az":160,"ss":31,"used":false,"gnssid":1,"svid":138},{"PRN":5,"el":23,"az":288,"ss":0,"used":false,"gnssid":0,"svid":5},{"PRN":27,"el":23,"az":47,"ss":19,"used":true,"gnssid":0,"svid":27},{"PRN":13,"el":12,"az":315,"ss":0,"used":false,"gnssid":0,"svid":13},{"PRN":23,"el":11,"az":147,"ss":31,"used":true,"gnssid":0,"svid":23},{"PRN":193,"el":8,"az":299,"ss":0,"used":false,"gnssid":5,"svid":1},{"PRN":11,"el":6,"az":123,"ss":26,"used":true,"gnssid":0,"svid":11},{"PRN":20,"el":3,"az":330,"ss":0,"used":false,"gnssid":0,"svid":20},{"PRN":214,"el":34,"az":246,"ss":22,"used":true},{"PRN":206,"el":8,"az":330,"ss":0,"used":false},{"PRN":212,"el":4,"az":172,"ss":24,"used":false}]}
$GPRMC,213138.000,A,4404.1296587,N,12118.8684709,W,000.0,122.7,070416,,,D*74
$GPVTG,122.7,T,,M,000.0,N,000.0,K,D*0E
$GPZDA,213138.000,07,04,2016,00,00*5A
$GPGST,213138.000,12.1,45.6,12.8,8.7,0.3,0.4,1.2*58
{"class":"GST","time":"2016-04-10T08:43:56.000Z","rms":12.100,"major":45.600,"minor":12.800,"orient":8.700,"lat":0.300,"lon":0.400,"alt":1.200}
$PSTI,030,213138.000,A,4404.1296587,N,12118.8684709,W,1102.380,0.00,0.01,0.05,070416,D,0.0,0.0*35
{"class":"TPV","status":2,"mode":3,"time":"2016-04-07T21:31:38.000Z","ept":0.005,"lat":44.068827645,"lon":-121.314474515,"alt":1102.380,"epx":3.130,"epy":3.192,"epv":12.075,"track":0.0000,"speed":0.010,"climb":0.050,"eps":6.38,"epc":25.88}
$GPGGA,213139.000,4404.1296534,N,12118.8684429,W,2,09,1.1,1102.409,M,-20.300,M,,0000*50
$GPGLL,4404.1296534,N,12118.8684429,W,213139.000,A,D*49
$GPGSA,A,3,09,23,08,07,11,27,30,28,,,,,2.1,1.1,1.7*3C
$BDGSA,A,3,214,,,,,,,,,,,,2.1,1.1,1.7*11
$GPRMC,213139.000,A,4404.1296534,N,12118.8684429,W,000.0,122.7,070416,,,D*7C
$GPVTG,122.7,T,,M,000.0,N,000.0,K,D*0E
$GPZDA,213139.000,07,04,2016,00,00*5B
$GPGST,213139.000,17.0,45.2,12.7,8.4,0.5,0.4,1.2*53
{"class":"GST","time":"2016-04-10T08:43:58.000Z","rms":17.000,"major":45.200,"minor":12.700,"orient":8.400,"lat":0.500,"lon":0.400,"alt":1.200}
$PSTI,030,213139.000,A,4404.1296534,N,12118.8684429,W,1102.409,0.02,-0.02,0.07,070416,D,0.0,0.0*15
{"class":"TPV","status":2,"mode":3,"time":"2016-04-07T21:31:39.000Z","ept":0.005,"lat":44.068827557,"lon":-121.314474048,"alt":1102.409,"epx":2.823,"epy":3.191,"epv":9.775,"track":135.0000,"speed":0.028,"climb":0.070,"eps":6.38,"epc":21.85}
$GPGGA,213140.000,4404.1296588,N,12118.8684277,W,2,09,1.1,1102.411,M,-20.300,M,,0000*5D
$GPGLL,4404.1296588,N,12118.8684277,W,213140.000,A,D*4D
$GPGSA,A,3,09,23,08,07,11,27,30,28,,,,,2.1,1.1,1.7*3C
$BDGSA,A,3,214,,,,,,,,,,,,2.1,1.1,1.7*11
$GPRMC,213140.000,A,4404.1296588,N,12118.8684277,W,000.0,122.7,070416,,,D*78
$GPVTG,122.7,T,,M,000.0,N,000.0,K,D*0E
$GPZDA,213140.000,07,04,2016,00,00*55
$GPGST,213140.000,13.0,24.2,12.5,-7.6,0.5,0.3,1.1*78
{"class":"GST","time":"2016-04-10T08:44:00.000Z","rms":13.000,"major":24.200,"minor":12.500,"orient":-7.600,"lat":0.500,"lon":0.300,"alt":1.100}
$PSTI,030,213140.000,A,4404.1296588,N,12118.8684277,W,1102.411,0.00,-0.05,0.05,070416,D,0.0,0.0*1F
{"class":"TPV","status":2,"mode":3,"time":"2016-04-07T21:31:40.000Z","ept":0.005,"lat":44.068827647,"lon":-121.314473795,"alt":1102.411,"epx":2.823,"epy":3.191,"epv":9.775,"track":180.0000,"speed":0.050,"climb":0.050,"eps":6.38,"epc":19.55}
$GPGGA,213141.000,4404.1296617,N,12118.8684086,W,2,09,1.1,1102.405,M,-20.300,M,,0000*50
$GPGLL,4404.1296617,N,12118.8684086,W,213141.000,A,D*45
$GPGSA,A,3,09,23,08,07,11,27,30,28,,,,,2.1,1.1,1.7*3C
$BDGSA,A,3,214,,,,,,,,,,,,2.1,1.1,1.7*11
$GPGSV,4,1,13,07,73,042,19,30,64,305,15,09,42,158,29,28,40,226,26*74
$GPGSV,4,2,13,08,40,079,19,51,37,160,31,05,23,288,,27,23,047,19*7B
$GPGSV,4,3,13,13,12,315,,23,11,147,31,193,08,299,,11,06,123,26*48
$GPGSV,4,4,13,20,03,330,*4A
$BDGSV,1,1,03,214,34,246,22,206,08,330,,212,04,172,25*61
{"class":"SKY","xdop":0.75,"ydop":0.85,"vdop":1.70,"tdop":1.19,"hdop":1.10,"gdop":2.38,"pdop":2.10,"satellites":[{"PRN":7,"el":73,"az":42,"ss":19,"used":true,"gnssid":0,"svid":7},{"PRN":30,"el":64,"az":305,"ss":15,"used":true,"gnssid":0,"svid":30},{"PRN":9,"el":42,"az":158,"ss":29,"used":true,"gnssid":0,"svid":9},{"PRN":28,"el":40,"az":226,"ss":26,"used":true,"gnssid":0,"svid":28},{"PRN":8,"el":40,"az":79,"ss":19,"used":true,"gnssid":0,"svid":8},{"PRN":138,"el":37,"az":160,"ss":31,"used":false,"gnssid":1,"svid":138},{"PRN":5,"el":23,"az":288,"ss":0,"used":false,"gnssid":0,"svid":5},{"PRN":27,"el":23,"az":47,"ss":19,"used":true,"gnssid":0,"svid":27},{"PRN":13,"el":12,"az":315,"ss":0,"used":false,"gnssid":0,"svid":13},{"PRN":23,"el":11,"az":147,"ss":31,"used":true,"gnssid":0,"svid":23},{"PRN":193,"el":8,"az":299,"ss":0,"used":false,"gnssid":5,"svid":1},{"PRN":11,"el":6,"az":123,"ss":26,"used":true,"gnssid":0,"svid":11},{"PRN":20,"el":3,"az":330,"ss":0,"used":false,"gnssid":0,"svid":20},{"PRN":214,"el":34,"az":246,"ss":22,"used":true},{"PRN":206,"el":8,"az":330,"ss":0,"used":false},{"PRN":212,"el":4,"az":172,"ss":25,"used":false}]}
$GPRMC,213141.000,A,4404.1296617,N,12118.8684086,W,000.0,122.7,070416,,,D*70
$GPVTG,122.7,T,,M,000.0,N,000.0,K,D*0E
$GPZDA,213141.000,07,04,2016,00,00*54
$GPGST,213141.000,14.0,31.6,14.4,5.9,0.5,0.3,1.1*59
{"class":"GST","time":"2016-04-10T08:44:02.000Z","rms":14.000,"major":31.600,"minor":14.400,"orient":5.900,"lat":0.500,"lon":0.300,"alt":1.100}
$PSTI,030,213141.000,A,4404.1296617,N,12118.8684086,W,1102.405,-0.00,-0.04,0.06,070416,D,0.0,0.0*3D
{"class":"TPV","status":2,"mode":3,"time":"2016-04-07T21:31:41.000Z","ept":0.005,"lat":44.068827695,"lon":-121.314473477,"alt":1102.405,"epx":2.823,"epy":3.191,"epv":9.775,"track":180.0000,"speed":0.040,"climb":0.060,"eps":6.38,"epc":19.55}
$GPGGA,213142.000,4404.1296602,N,12118.8683834,W,2,07,1.2,1102.428,M,-20.300,M,,0000*53
$GPGLL,4404.1296602,N,12118.8683834,W,213142.000,A,D*44
$GPGSA,A,3,09,23,07,11,27,28,,,,,,,2.2,1.2,1.8*38
$BDGSA,A,3,214,,,,,,,,,,,,2.2,1.2,1.8*1E
$GPRMC,213142.000,A,4404.1296602,N,12118.8683834,W,000.0,122.7,070416,,,D*71
$GPVTG,122.7,T,,M,000.0,N,000.0,K,D*0E
$GPZDA,213142.000,07,04,2016,00,00*57
$GPGST,213142.000,14.8,42.4,13.3,7.9,0.5,0.5,1.1*50
{"class":"GST","time":"2016-04-10T08:44:04.000Z","rms":14.800,"major":42.400,"minor":13.300,"orient":7.900,"lat":0.500,"lon":0.500,"alt":1.100}
$PSTI,030,213142.000,A,4404.1296602,N,12118.8683834,W,1102.428,-0.01,-0.00,0.03,070416,D,0.0,0.0*33
{"class":"TPV","status":2,"mode":3,"time":"2016-04-07T21:31:42.000Z","ept":0.005,"lat":44.068827670,"lon":-121.314473057,"alt":1102.428,"epx":2.823,"epy":3.191,"epv":9.775,"track":270.0000,"speed":0.010,"climb":0.030,"eps":6.38,"epc":19.55}
$GPGGA,213143.000,4404.1296578,N,12118.8683694,W,2,07,1.2,1102.462,M,-20.300,M,,0000*56
$GPGLL,4404.1296578,N,12118.8683694,W,213143.000,A,D*4F
$GPGSA,A,3,09,23,07,11,27,28,,,,,,,2.2,1.2,1.8*38
$BDGSA,A,3,214,,,,,,,,,,,,2.2,1.2,1.8*1E
$GPRMC,213143.000,A,4404.1296578,N,12118.8683694,W,000.0,122.7,070416,,,D*7A
$GPVTG,122.7,T,,M,000.0,N,000.0,K,D*0E
$GPZDA,213143.000,07,04,2016,00,00*56
$GPGST,213143.000,15.7,37.0,11.0,10.8,0.4,0.5,1.0*6F
{"class":"GST","time":"2016-04-10T08:44:06.000Z","rms":15.700,"major":37.000,"minor":11.000,"orient":10.800,"lat":0.400,"lon":0.500,"alt":1.000}
$PSTI,030,213143.000,A,4404.1296578,N,12118.8683694,W,1102.462,0.01,-0.01,0.04,070416,D,0.0,0.0*1D
{"class":"TPV","status":2,"mode":3,"time":"2016-04-07T21:31:43.000Z","ept":0.005,"lat":44.068827630,"lon":-121.314472823,"alt":1102.462,"epx":2.823,"epy":3.191,"epv":10.350,"track":135.0000,"speed":0.014,"climb":0.040,"eps":6.38,"epc":20.12}
$GPGGA,213144.000,4404.1296568,N,12118.8683649,W,2,07,1.2,1102.493,M,-20.300,M,,0000*5E
$GPGLL,4404.1296568,N,12118.8683649,W,213144.000,A,D*49
$GPGSA,A,3,09,23,07,11,27,28,,,,,,,2.2,1.2,1.8*38
$BDGSA,A,3,214,,,,,,,,,,,,2.2,1.2,1.8*1E
$GPGSV,4,1,13,07,73,042,20,30,64,305,14,09,42,158,29,28,40,226,26*7F
$GPGSV,4,2,13,08,40,079,17,51,37,160,31,05,23,288,,27,23,047,18*74
$GPGSV,4,3,13,13,12,315,,23,11,147,32,193,08,299,,11,06,123,26*4B
$GPGSV,4,4,13,20,03,330,*4A
$BDGSV,1,1,03,214,34,246,24,206,08,330,,212,04,172,27*65
{"class":"SKY","xdop":0.85,"ydop":0.88,"vdop":1.80,"tdop":1.21,"hdop":1.20,"gdop":2.50,"pdop":2.20,"satellites":[{"PRN":7,"el":73,"az":42,"ss":20,"used":true,"gnssid":0,"svid":7},{"PRN":30,"el":64,"az":305,"ss":14,"used":false,"gnssid":0,"svid":30},{"PRN":9,"el":42,"az":158,"ss":29,"used":true,"gnssid":0,"svid":9},{"PRN":28,"el":40,"az":226,"ss":26,"used":true,"gnssid":0,"svid":28},{"PRN":8,"el":40,"az":79,"ss":17,"used":false,"gnssid":0,"svid":8},{"PRN":138,"el":37,"az":160,"ss":31,"used":false,"gnssid":1,"svid":138},{"PRN":5,"el":23,"az":288,"ss":0,"used":false,"gnssid":0,"svid":5},{"PRN":27,"el":23,"az":47,"ss":18,"used":true,"gnssid":0,"svid":27},{"PRN":13,"el":12,"az":315,"ss":0,"used":false,"gnssid":0,"svid":13},{"PRN":23,"el":11,"az":147,"ss":32,"used":true,"gnssid":0,"svid":23},{"PRN":193,"el":8,"az":299,"ss":0,"used":false,"gnssid":5,"svid":1},{"PRN":11,"el":6,"az":123,"ss":26,"used":true,"gnssid":0,"svid":11},{"PRN":20,"el":3,"az":330,"ss":0,"used":false,"gnssid":0,"svid":20},{"PRN":214,"el":34,"az":246,"ss":24,"used":true},{"PRN":206,"el":8,"az":330,"ss":0,"used":false},{"PRN":212,"el":4,"az":172,"ss":27,"used":false}]}
$GPRMC,213144.000,A,4404.1296568,N,12118.8683649,W,000.0,122.7,070416,,,D*7C
$GPVTG,122.7,T,,M,000.0,N,000.0,K,D*0E
$GPZDA,213144.000,07,04,2016,00,00*51
$GPGST,213144.000,13.1,40.1,10.9,11.9,0.4,0.5,1.0*61
{"class":"GST","time":"2016-04-10T08:44:08.000Z","rms":13.100,"major":40.100,"minor":10.900,"orient":11.900,"lat":0.400,"lon":0.500,"alt":1.000}
$PSTI,030,213144.000,A,4404.1296568,N,12118.8683649,W,1102.493,-0.00,0.00,0.04,070416,D,0.0,0.0*15
{"class":"TPV","status":2,"mode":3,"time":"2016-04-07T21:31:44.000Z","ept":0.005,"lat":44.068827613,"lon":-121.314472748,"alt":1102.493,"epx":2.823,"epy":3.191,"epv":10.350,"track":-0.0000,"speed":0.000,"climb":0.040,"eps":6.38,"epc":20.70}
$GPGGA,213145.000,4404.1296538,N,12118.8683649,W,2,06,1.9,1102.509,M,-20.300,M,,0000*52
$GPGLL,4404.1296538,N,12118.8683649,W,213145.000,A,D*4D
$GPGSA,A,3,09,23,07,11,28,,,,,,,,3.0,1.9,2.3*3D
$BDGSA,A,3,214,,,,,,,,,,,,3.0,1.9,2.3*1E
$GPRMC,213145.000,A,4404.1296538,N,12118.8683649,W,000.0,122.7,070416,,,D*78
$GPVTG,122.7,T,,M,000.0,N,000.0,K,D*0E
$GPZDA,213145.000,07,04,2016,00,00*50
$GPGST,213145.000,7.6,42.3,13.0,7.8,0.4,0.4,1.0*6F
{"class":"GST","time":"2016-04-10T08:44:10.000Z","rms":7.600,"major":42.300,"minor":13.000,"orient":7.800,"lat":0.400,"lon":0.400,"alt":1.000}
$PSTI,030,213145.000,A,4404.1296538,N,12118.8683649,W,1102.509,-0.01,-0.00,0.04,070416,D,0.0,0.0*3F
{"class":"TPV","status":2,"mode":3,"time":"2016-04-07T21:31:45.000Z","ept":0.005,"lat":44.068827563,"lon":-121.314472748,"alt":1102.509,"epx":3.183,"epy":3.307,"epv":10.350,"track":270.0000,"speed":0.010,"climb":0.040,"eps":6.50,"epc":20.70}
$GPGGA,213146.000,4404.1296650,N,12118.8683674,W,2,06,1.9,1102.484,M,-20.300,M,,0000*56
$GPGLL,4404.1296650,N,12118.8683674,W,213146.000,A,D*4D
$GPGSA,A,3,09,23,07,11,28,,,,,,,,3.0,1.9,2.3*3D
$BDGSA,A,3,214,,,,,,,,,,,,3.0,1.9,2.3*1E
$GPRMC,213146.000,A,4404.1296650,N,12118.8683674,W,000.0,122.7,070416,,,D*78
$GPVTG,122.7,T,,M,000.0,N,000.0,K,D*0E
$GPZDA,213146.000,07,04,2016,00,00*53
$GPGST,213146.000,9.5,42.2,13.0,7.8,0.4,0.4,1.0*60
{"class":"GST","time":"2016-04-10T08:44:12.000Z","rms":9.500,"major":42.200,"minor":13.000,"orient":7.800,"lat":0.400,"lon":0.400,"alt":1.000}
$PSTI,030,213146.000,A,4404.1296650,N,12118.8683674,W,1102.484,-0.01,-0.02,0.06,070416,D,0.0,0.0*3B
{"class":"TPV","status":2,"mode":3,"time":"2016-04-07T21:31:46.000Z","ept":0.005,"lat":44.068827750,"lon":-121.314472790,"alt":1102.484,"epx":3.183,"epy":3.307,"epv":13.225,"track":206.5651,"speed":0.022,"climb":0.060,"eps":6.61,"epc":23.57}
$GPGGA,213147.000,4404.1296723,N,12118.8683731,W,2,06,1.9,1102.479,M,-20.300,M,,0000*50
$GPGLL,4404.1296723,N,12118.8683731,W,213147.000,A,D*49
$GPGSA,A,3,09,23,07,11,28,,,,,,,,3.0,1.9,2.3*3D
$BDGSA,A,3,214,,,,,,,,,,,,3.0,1.9,2.3*1E
$GPGSV,4,1,13,07,73,042,20,30,64,305,12,09,42,158,31,28,40,226,27*71
$GPGSV,4,2,13,08,40,079,14,51,37,160,31,05,23,288,,27,23,047,18*77
$GPGSV,4,3,13,13,12,315,,23,11,147,33,193,08,299,,11,06,123,26*4A
$GPGSV,4,4,13,20,03,330,*4A
$BDGSV,1,1,03,214,34,246,23,206,08,330,,212,04,172,29*6C
{"class":"SKY","xdop":0.85,"ydop":1.76,"vdop":2.30,"tdop":1.90,"hdop":1.90,"gdop":3.54,"pdop":3.00,"satellites":[{"PRN":7,"el":73,"az":42,"ss":20,"used":true,"gnssid":0,"svid":7},{"PRN":30,"el":64,"az":305,"ss":12,"used":false,"gnssid":0,"svid":30},{"PRN":9,"el":42,"az":158,"ss":31,"used":true,"gnssid":0,"svid":9},{"PRN":28,"el":40,"az":226,"ss":27,"used":true,"gnssid":0,"svid":28},{"PRN":8,"el":40,"az":79,"ss":14,"used":false,"gnssid":0,"svid":8},{"PRN":138,"el":37,"az":160,"ss":31,"used":false,"gnssid":1,"svid":138},{"PRN":5,"el":23,"az":288,"ss":0,"used":false,"gnssid":0,"svid":5},{"PRN":27,"el":23,"az":47,"ss":18,"used":false,"gnssid":0,"svid":27},{"PRN":13,"el":12,"az":315,"ss":0,"used":false,"gnssid":0,"svid":13},{"PRN":23,"el":11,"az":147,"ss":33,"used":true,"gnssid":0,"svid":23},{"PRN":193,"el":8,"az":299,"ss":0,"used":false,"gnssid":5,"svid":1},{"PRN":11,"el":6,"az":123,"ss":26,"used":true,"gnssid":0,"svid":11},{"PRN":20,"el":3,"az":330,"ss":0,"used":false,"gnssid":0,"svid":20},{"PRN":214,"el":34,"az":246,"ss":23,"used":true},{"PRN":206,"el":8,"az":330,"ss":0,"used":false},{"PRN":212,"el":4,"az":172,"ss":29,"used":false}]}
$GPRMC,213147.000,A,4404.1296723,N,12118.8683731,W,000.0,122.7,070416,,,D*7C
$GPVTG,122.7,T,,M,000.0,N,000.0,K,D*0E
$GPZDA,213147.000,07,04,2016,00,00*52
$GPGST,213147.000,8.0,42.1,12.3,7.5,0.4,0.4,0.9*61
{"class":"GST","time":"2016-04-10T08:44:14.000Z","rms":8.000,"major":42.100,"minor":12.300,"orient":7.500,"lat":0.400,"lon":0.400,"alt":0.900}
$PSTI,030,213147.000,A,4404.1296723,N,12118.8683731,W,1102.479,-0.01,-0.04,0.07,070416,D,0.0,0.0*3A
{"class":"TPV","status":2,"mode":3,"time":"2016-04-07T21:31:47.000Z","ept":0.005,"lat":44.068827872,"lon":-121.314472885,"alt":1102.479,"epx":3.183,"epy":3.307,"epv":13.225,"track":194.0362,"speed":0.041,"climb":0.070,"eps":6.61,"epc":26.45}
$GPGGA,213148.000,4404.1296726,N,12118.8683699,W,2,07,1.2,1102.488,M,-20.300,M,,0000*5D
$GPGLL,4404.1296726,N,12118.8683699,W,213148.000,A,D*40
$GPGSA,A,3,09,23,07,11,27,28,,,,,,,2.2,1.2,1.8*38
$BDGSA,A,3,214,,,,,,,,,,,,2.2,1.2,1.8*1E
$GPRMC,213148.000,A,4404.1296726,N,12118.8683699,W,000.0,122.7,070416,,,D*75
$GPVTG,122.7,T,,M,000.0,N,000.0,K,D*0E
$GPZDA,213148.000,07,04,2016,00,00*5D
$GPGST,213148.000,8.3,40.3,12.3,6.6,0.4,0.4,0.9*6F
{"class":"GST","time":"2016-04-10T08:44:16.000Z","rms":8.300,"major":40.300,"minor":12.300,"orient":6.600,"lat":0.400,"lon":0.400,"alt":0.900}
$PSTI,030,213148.000,A,4404.1296726,N,12118.8683699,W,1102.488,-0.00,-0.05,0.08,070416,D,0.0,0.0*32
{"class":"TPV","status":2,"mode":3,"time":"2016-04-07T21:31:48.000Z","ept":0.005,"lat":44.068827877,"lon":-121.314472832,"alt":1102.488,"epx":3.183,"epy":6.586,"epv":13.225,"track":180.0000,"speed":0.050,"climb":0.080,"eps":9.89,"epc":26.45}
$GPGGA,213149.000,4404.1296695,N,12118.8683769,W,2,07,1.2,1102.529,M,-20.300,M,,0000*51
$GPGLL,4404.1296695,N,12118.8683769,W,213149.000,A,D*46
$GPGSA,A,3,09,23,07,11,27,28,,,,,,,2.2,1.2,1.8*38
$BDGSA,A,3,214,,,,,,,,,,,,2.2,1.2,1.8*1E
$GPRMC,213149.000,A,4404.1296695,N,12118.8683769,W,000.0,122.7,070416,,,D*73
$GPVTG,122.7,T,,M,000.0,N,000.0,K,D*0E
$GPZDA,213149.000,07,04,2016,00,00*5C
$GPGST,213149.000,11.0,23.8,10.6,11.6,0.4,0.4,0.9*6A
{"class":"GST","time":"2016-04-10T08:44:18.000Z","rms":11.000,"major":23.800,"minor":10.600,"orient":11.600,"lat":0.400,"lon":0.400,"alt":0.900}
$PSTI,030,213149.000,A,4404.1296695,N,12118.8683769,W,1102.529,-0.01,0.02,0.03,070416,D,0.0,0.0*1E
{"class":"TPV","status":2,"mode":3,"time":"2016-04-07T21:31:49.000Z","ept":0.005,"lat":44.068827825,"lon":-121.314472948,"alt":1102.529,"epx":3.183,"epy":6.586,"epv":10.350,"track":333.4349,"speed":0.022,"climb":0.030,"eps":13.17,"epc":23.57}
$GPGGA,213150.000,4404.1296638,N,12118.8683807,W,2,06,1.3,1102.569,M,-20.300,M,,0000*5D
$GPGLL,4404.1296638,N,12118.8683807,W,213150.000,A,D*4E
$GPGSA,A,3,09,23,11,27,28,,,,,,,,3.2,1.3,2.9*3D
$BDGSA,A,3,214,,,,,,,,,,,,3.2,1.3,2.9*1C
$GPGSV,4,1,13,07,73,042,19,30,64,305,13,09,42,158,31,28,40,226,27*7A
$GPGSV,4,2,13,08,40,079,,51,37,160,31,27,23,047,18,05,23,288,*72
$GPGSV,4,3,13,13,12,315,,23,11,147,31,193,08,299,,11,06,123,25*4B
$GPGSV,4,4,13,20,03,330,*4A
$BDGSV,1,1,03,214,34,246,24,206,09,330,,212,04,172,30*62
{"class":"SKY","xdop":1.00,"ydop":0.89,"vdop":2.90,"tdop":1.48,"hdop":1.30,"gdop":3.41,"pdop":3.20,"satellites":[{"PRN":7,"el":73,"az":42,"ss":19,"used":false,"gnssid":0,"svid":7},{"PRN":30,"el":64,"az":305,"ss":13,"used":false,"gnssid":0,"svid":30},{"PRN":9,"el":42,"az":158,"ss":31,"used":true,"gnssid":0,"svid":9},{"PRN":28,"el":40,"az":226,"ss":27,"used":true,"gnssid":0,"svid":28},{"PRN":8,"el":40,"az":79,"ss":0,"used":false,"gnssid":0,"svid":8},{"PRN":138,"el":37,"az":160,"ss":31,"used":false,"gnssid":1,"svid":138},{"PRN":27,"el":23,"az":47,"ss":18,"used":true,"gnssid":0,"svid":27},{"PRN":5,"el":23,"az":288,"ss":0,"used":false,"gnssid":0,"svid":5},{"PRN":13,"el":12,"az":315,"ss":0,"used":false,"gnssid":0,"svid":13},{"PRN":23,"el":11,"az":147,"ss":31,"used":true,"gnssid":0,"svid":23},{"PRN":193,"el":8,"az":299,"ss":0,"used":false,"gnssid":5,"svid":1},{"PRN":11,"el":6,"az":123,"ss":25,"used":true,"gnssid":0,"svid":11},{"PRN":20,"el":3,"az":330,"ss":0,"used":false,"gnssid":0,"svid":20},{"PRN":214,"el":34,"az":246,"ss":24,"used":true},{"PRN":206,"el":9,"az":330,"ss":0,"used":false},{"PRN":212,"el":4,"az":172,"ss":30,"used":false}]}
$GPRMC,213150.000,A,4404.1296638,N,12118.8683807,W,000.0,122.7,070416,,,D*7B
$GPVTG,122.7,T,,M,000.0,N,000.0,K,D*0E
$GPZDA,213150.000,07,04,2016,00,00*54
$GPGST,213150.000,11.6,39.9,10.5,11.8,0.4,0.4,0.9*63
{"class":"GST","time":"2016-04-10T08:44:20.000Z","rms":11.600,"major":39.900,"minor":10.500,"orient":11.800,"lat":0.400,"lon":0.400,"alt":0.900}
$PSTI,030,213150.000,A,4404.1296638,N,12118.8683807,W,1102.569,-0.00,0.05,0.01,070416,D,0.0,0.0*16
{"class":"TPV","status":2,"mode":3,"time":"2016-04-07T21:31:50.000Z","ept":0.005,"lat":44.068827730,"lon":-121.314473012,"alt":1102.569,"epx":3.183,"epy":6.586,"epv":10.350,"track":-0.0000,"speed":0.050,"climb":0.010,"eps":13.17,"epc":20.70}
$GPGGA,213151.000,4404.1296701,N,12118.8683640,W,2,06,1.3,1102.576,M,-20.300,M,,0000*54
$GPGLL,4404.1296701,N,12118.8683640,W,213151.000,A,D*49
$GPGSA,A,3,09,23,11,27,28,,,,,,,,3.2,1.3,2.9*3D
$BDGSA,A,3,214,,,,,,,,,,,,3.2,1.3,2.9*1C
$GPRMC,213151.000,A,4404.1296701,N,12118.8683640,W,000.0,122.7,070416,,,D*7C
$GPVTG,122.7,T,,M,000.0,N,000.0,K,D*0E
$GPZDA,213151.000,07,04,2016,00,00*55
$GPGST,213151.000,12.8,39.4,9.6,11.2,0.4,0.4,0.8*52
{"class":"GST","time":"2016-04-10T08:44:22.000Z","rms":12.800,"major":39.400,"minor":9.600,"orient":11.200,"lat":0.400,"lon":0.400,"alt":0.800}
$PSTI,030,213151.000,A,4404.1296701,N,12118.8683640,W,1102.576,0.02,0.05,0.01,070416,D,0.0,0.0*30
{"class":"TPV","status":2,"mode":3,"time":"2016-04-07T21:31:51.000Z","ept":0.005,"lat":44.068827835,"lon":-121.314472733,"alt":1102.576,"epx":3.749,"epy":3.331,"epv":16.675,"track":21.8014,"speed":0.054,"climb":0.010,"eps":10.33,"epc":27.02}
$GPGGA,213152.000,4404.1296469,N,12118.8683443,W,2,07,1.2,1102.671,M,-20.300,M,,0000*5F
$GPGLL,4404.1296469,N,12118.8683443,W,213152.000,A,D*46
$GPGSA,A,3,09,23,07,11,27,28,,,,,,,2.2,1.2,1.8*38
$BDGSA,A,3,214,,,,,,,,,,,,2.2,1.2,1.8*1E
$GPRMC,213152.000,A,4404.1296469,N,12118.8683443,W,000.0,122.7,070416,,,D*73
$GPVTG,122.7,T,,M,000.0,N,000.0,K,D*0E
$GPZDA,213152.000,07,04,2016,00,00*56
$GPGST,213152.000,14.6,25.4,10.8,7.0,0.4,0.3,0.8*50
{"class":"GST","time":"2016-04-10T08:44:24.000Z","rms":14.600,"major":25.400,"minor":10.800,"orient":7.000,"lat":0.400,"lon":0.300,"alt":0.800}
$PSTI,030,213152.000,A,4404.1296469,N,12118.8683443,W,1102.671,0.01,0.05,0.01,070416,D,0.0,0.0*38
{"class":"TPV","status":2,"mode":3,"time":"2016-04-07T21:31:52.000Z","ept":0.005,"lat":44.068827448,"lon":-121.314472405,"alt":1102.671,"epx":3.749,"epy":3.331,"epv":16.675,"track":11.3099,"speed":0.051,"climb":0.010,"eps":7.50,"epc":33.35}
$GPGGA,213153.000,4404.1296315,N,12118.8683284,W,2,06,1.3,1102.750,M,-20.300,M,,0000*5D
$GPGLL,4404.1296315,N,12118.8683284,W,213153.000,A,D*46
$GPGSA,A,3,09,23,11,27,28,,,,,,,,3.2,1.3,2.9*3D
$BDGSA,A,3,214,,,,,,,,,,,,3.2,1.3,2.9*1C
$GPGSV,4,1,13,07,73,042,19,30,64,305,,09,42,158,31,28,40,226,28*77
$GPGSV,4,2,13,08,40,079,16,51,37,160,31,27,23,047,20,05,23,288,*7E
$GPGSV,4,3,13,13,12,315,,23,11,147,32,193,08,299,,11,06,123,25*48
$GPGSV,4,4,13,20,03,330,*4A
$BDGSV,1,1,03,214,34,246,25,206,09,330,,212,04,172,29*6B
{"class":"SKY","xdop":1.00,"ydop":0.89,"vdop":2.90,"tdop":1.48,"hdop":1.30,"gdop":3.41,"pdop":3.20,"satellites":[{"PRN":7,"el":73,"az":42,"ss":19,"used":false,"gnssid":0,"svid":7},{"PRN":30,"el":64,"az":305,"ss":0,"used":false,"gnssid":0,"svid":30},{"PRN":9,"el":42,"az":158,"ss":31,"used":true,"gnssid":0,"svid":9},{"PRN":28,"el":40,"az":226,"ss":28,"used":true,"gnssid":0,"svid":28},{"PRN":8,"el":40,"az":79,"ss":16,"used":false,"gnssid":0,"svid":8},{"PRN":138,"el":37,"az":160,"ss":31,"used":false,"gnssid":1,"svid":138},{"PRN":27,"el":23,"az":47,"ss":20,"used":true,"gnssid":0,"svid":27},{"PRN":5,"el":23,"az":288,"ss":0,"used":false,"gnssid":0,"svid":5},{"PRN":13,"el":12,"az":315,"ss":0,"used":false,"gnssid":0,"svid":13},{"PRN":23,"el":11,"az":147,"ss":32,"used":true,"gnssid":0,"svid":23},{"PRN":193,"el":8,"az":299,"ss":0,"used":false,"gnssid":5,"svid":1},{"PRN":11,"el":6,"az":123,"ss":25,"used":true,"gnssid":0,"svid":11},{"PRN":20,"el":3,"az":330,"ss":0,"used":false,"gnssid":0,"svid":20},{"PRN":214,"el":34,"az":246,"ss":25,"used":true},{"PRN":206,"el":9,"az":330,"ss":0,"used":false},{"PRN":212,"el":4,"az":172,"ss":29,"used":false}]}
$GPRMC,213153.000,A,4404.1296315,N,12118.8683284,W,000.0,122.7,070416,,,D*73
$GPVTG,122.7,T,,M,000.0,N,000.0,K,D*0E
$GPZDA,213153.000,07,04,2016,00,00*57
$GPGST,213153.000,17.1,44.9,10.2,12.9,0.3,0.3,0.8*6F
{"class":"GST","time":"2016-04-10T08:44:26.000Z","rms":17.100,"major":44.900,"minor":10.200,"orient":12.900,"lat":0.300,"lon":0.300,"alt":0.800}
$PSTI,030,213153.000,A,4404.1296315,N,12118.8683284,W,1102.750,0.01,0.01,0.05,070416,D,0.0,0.0*3A
{"class":"TPV","status":2,"mode":3,"time":"2016-04-07T21:31:53.000Z","ept":0.005,"lat":44.068827192,"lon":-121.314472140,"alt":1102.750,"epx":3.749,"epy":3.331,"epv":10.350,"track":45.0000,"speed":0.014,"climb":0.050,"eps":7.50,"epc":27.02}
$GPGGA,213154.000,4404.1296208,N,12118.8683150,W,2,07,1.2,1102.814,M,-20.300,M,,0000*52
$GPGLL,4404.1296208,N,12118.8683150,W,213154.000,A,D*46
$GPGSA,A,3,09,23,07,11,27,28,,,,,,,2.2,1.2,1.8*38
$BDGSA,A,3,214,,,,,,,,,,,,2.2,1.2,1.8*1E
$GPRMC,213154.000,A,4404.1296208,N,12118.8683150,W,000.0,122.7,070416,,,D*73
$GPVTG,122.7,T,,M,000.0,N,000.0,K,D*0E
$GPZDA,213154.000,07,04,2016,00,00*50
$GPGST,213154.000,15.0,44.7,9.5,12.7,0.3,0.3,0.8*54
{"class":"GST","time":"2016-04-10T08:44:28.000Z","rms":15.000,"major":44.700,"minor":9.500,"orient":12.700,"lat":0.300,"lon":0.300,"alt":0.800}
$PSTI,030,213154.000,A,4404.1296208,N,12118.8683150,W,1102.814,0.01,-0.03,0.08,070416,D,0.0,0.0*17
{"class":"TPV","status":2,"mode":3,"time":"2016-04-07T21:31:54.000Z","ept":0.005,"lat":44.068827013,"lon":-121.314471917,"alt":1102.814,"epx":3.749,"epy":3.331,"epv":16.675,"track":161.5651,"speed":0.032,"climb":0.080,"eps":7.50,"epc":27.02}
$GPGGA,213155.000,4404.1296159,N,12118.8683075,W,2,06,1.9,1102.857,M,-20.300,M,,0000*5F
$GPGLL,4404.1296159,N,12118.8683075,W,213155.000,A,D*46
$GPGSA,A,3,09,23,07,11,28,,,,,,,,3.0,1.9,2.3*3D
$BDGSA,A,3,214,,,,,,,,,,,,3.0,1.9,2.3*1E
$GPRMC,213155.000,A,4404.1296159,N,12118.8683075,W,000.0,122.7,070416,,,D*73
$GPVTG,122.7,T,,M,000.0,N,000.0,K,D*0E
$GPZDA,213155.000,07,04,2016,00,00*51
$GPGST,213155.000,13.7,54.8,9.5,14.7,0.3,0.3,0.8*5C
{"class":"GST","time":"2016-04-10T08:44:30.000Z","rms":13.700,"major":54.800,"minor":9.500,"orient":14.700,"lat":0.300,"lon":0.300,"alt":0.800}
$PSTI,030,213155.000,A,4404.1296159,N,12118.8683075,W,1102.857,0.00,-0.02,0.07,070416,D,0.0,0.0*1F
{"class":"TPV","status":2,"mode":3,"time":"2016-04-07T21:31:55.000Z","ept":0.005,"lat":44.068826932,"lon":-121.314471792,"alt":1102.857,"epx":3.749,"epy":3.331,"epv":10.350,"track":180.0000,"speed":0.020,"climb":0.070,"eps":7.50,"epc":27.02}
$GPGGA,213156.000,4404.1296267,N,12118.8683095,W,2,06,1.9,1102.830,M,-20.300,M,,0000*5D
$GPGLL,4404.1296267,N,12118.8683095,W,213156.000,A,D*45
$GPGSA,A,3,09,23,07,11,28,,,,,,,,3.0,1.9,2.3*3D
$BDGSA,A,3,214,,,,,,,,,,,,3.0,1.9,2.3*1E
$GPGSV,4,1,13,07,73,042,18,30,64,305,,09,42,158,32,28,40,226,27*7A
$GPGSV,4,2,13,08,40,079,13,51,37,160,31,27,23,047,20,05,23,288,*7B
$GPGSV,4,3,13,13,12,315,,23,11,147,32,193,08,299,,11,06,123,24*49
$GPGSV,4,4,13,20,03,330,*4A
$BDGSV,1,1,03,214,34,246,24,206,09,330,,212,04,172,28*6B
{"class":"SKY","xdop":0.85,"ydop":1.76,"vdop":2.30,"tdop":1.90,"hdop":1.90,"gdop":3.54,"pdop":3.00,"satellites":[{"PRN":7,"el":73,"az":42,"ss":18,"used":true,"gnssid":0,"svid":7},{"PRN":30,"el":64,"az":305,"ss":0,"used":false,"gnssid":0,"svid":30},{"PRN":9,"el":42,"az":158,"ss":32,"used":true,"gnssid":0,"svid":9},{"PRN":28,"el":40,"az":226,"ss":27,"used":true,"gnssid":0,"svid":28},{"PRN":8,"el":40,"az":79,"ss":13,"used":false,"gnssid":0,"svid":8},{"PRN":138,"el":37,"az":160,"ss":31,"used":false,"gnssid":1,"svid":138},{"PRN":27,"el":23,"az":47,"ss":20,"used":false,"gnssid":0,"svid":27},{"PRN":5,"el":23,"az":288,"ss":0,"used":false,"gnssid":0,"svid":5},{"PRN":13,"el":12,"az":315,"ss":0,"used":false,"gnssid":0,"svid":13},{"PRN":23,"el":11,"az":147,"ss":32,"used":true,"gnssid":0,"svid":23},{"PRN":193,"el":8,"az":299,"ss":0,"used":false,"gnssid":5,"svid":1},{"PRN":11,"el":6,"az":123,"ss":24,"used":true,"gnssid":0,"svid":11},{"PRN":20,"el":3,"az":330,"ss":0,"used":false,"gnssid":0,"svid":20},{"PRN":214,"el":34,"az":246,"ss":24,"used":true},{"PRN":206,"el":9,"az":330,"ss":0,"used":false},{"PRN":212,"el":4,"az":172,"ss":28,"used":false}]}
$GPRMC,213156.000,A,4404.1296267,N,12118.8683095,W,000.0,122.7,070416,,,D*70
$GPVTG,122.7,T,,M,000.0,N,000.0,K,D*0E
$GPZDA,213156.000,07,04,2016,00,00*52
$GPGST,213156.000,10.8,54.8,9.5,14.7,0.3,0.3,0.8*53
{"class":"GST","time":"2016-04-10T08:44:32.000Z","rms":10.800,"major":54.800,"minor":9.500,"orient":14.700,"lat":0.300,"lon":0.300,"alt":0.800}
$PSTI,030,213156.000,A,4404.1296267,N,12118.8683095,W,1102.830,0.01,-0.01,0.07,070416,D,0.0,0.0*1F
{"class":"TPV","status":2,"mode":3,"time":"2016-04-07T21:31:56.000Z","ept":0.005,"lat":44.068827112,"lon":-121.314471825,"alt":1102.830,"epx":3.749,"epy":3.331,"epv":13.225,"track":135.0000,"speed":0.014,"climb":0.070,"eps":7.50,"epc":23.57}
$GPGGA,213157.000,4404.1296424,N,12118.8683302,W,2,07,1.2,1102.771,M,-20.300,M,,0000*50
$GPGLL,4404.1296424,N,12118.8683302,W,213157.000,A,D*48
$GPGSA,A,3,09,23,07,11,27,28,,,,,,,2.2,1.2,1.8*38
$BDGSA,A,3,214,,,,,,,,,,,,2.2,1.2,1.8*1E
$GPRMC,213157.000,A,4404.1296424,N,12118.8683302,W,000.0,122.7,070416,,,D*7D
$GPVTG,122.7,T,,M,000.0,N,000.0,K,D*0E
$GPZDA,213157.000,07,04,2016,00,00*53
$GPGST,213157.000,14.7,56.5,8.0,15.8,0.3,0.3,0.8*5C
{"class":"GST","time":"2016-04-10T08:44:34.000Z","rms":14.700,"major":56.500,"minor":8.000,"orient":15.800,"lat":0.300,"lon":0.300,"alt":0.800}
$PSTI,030,213157.000,A,4404.1296424,N,12118.8683302,W,1102.771,-0.01,0.04,0.04,070416,D,0.0,0.0*1E
{"class":"TPV","status":2,"mode":3,"time":"2016-04-07T21:31:57.000Z","ept":0.005,"lat":44.068827373,"lon":-121.314472170,"alt":1102.771,"epx":3.183,"epy":6.586,"epv":13.225,"track":345.9638,"speed":0.041,"climb":0.040,"eps":10.33,"epc":26.45}
$GPGGA,213158.000,4404.1296373,N,12118.8683300,W,2,07,1.3,1102.798,M,-20.300,M,,0000*5E
$GPGLL,4404.1296373,N,12118.8683300,W,213158.000,A,D*40
$GPGSA,A,3,09,23,11,27,30,28,,,,,,,2.7,1.3,2.4*37
$BDGSA,A,3,214,,,,,,,,,,,,2.7,1.3,2.4*15
$GPRMC,213158.000,A,4404.1296373,N,12118.8683300,W,000.0,122.7,070416,,,D*75
$GPVTG,122.7,T,,M,000.0,N,000.0,K,D*0E
$GPZDA,213158.000,07,04,2016,00,00*5C
$GPGST,213158.000,14.4,48.2,10.2,13.4,0.3,0.3,0.8*69
{"class":"GST","time":"2016-04-10T08:44:36.000Z","rms":14.400,"major":48.200,"minor":10.200,"orient":13.400,"lat":0.300,"lon":0.300,"alt":0.800}
$PSTI,030,213158.000,A,4404.1296373,N,12118.8683300,W,1102.798,-0.02,0.04,0.04,070416,D,0.0,0.0*12
{"class":"TPV","status":2,"mode":3,"time":"2016-04-07T21:31:58.000Z","ept":0.005,"lat":44.068827288,"lon":-121.314472167,"alt":1102.798,"epx":3.183,"epy":6.586,"epv":10.350,"track":333.4349,"speed":0.045,"climb":0.040,"eps":13.17,"epc":23.57}
$GPGGA,213159.000,4404.1296338,N,12118.8683383,W,2,08,1.2,1102.823,M,-20.300,M,,0000*5A
$GPGLL,4404.1296338,N,12118.8683383,W,213159.000,A,D*45
$GPGSA,A,3,09,23,07,11,27,30,28,,,,,,2.2,1.2,1.8*3B
$BDGSA,A,3,214,,,,,,,,,,,,2.2,1.2,1.8*1E
$GPGSV,4,1,13,07,73,042,17,30,64,305,15,09,42,158,32,08,40,079,11*7E
$GPGSV,4,2,13,28,40,226,26,51,37,160,31,05,23,288,06,27,23,047,22*73
$GPGSV,4,3,13,13,12,315,,23,11,147,30,193,08,299,,11,06,123,24*4B
$GPGSV,4,4,13,20,03,330,*4A
$BDGSV,1,1,03,214,34,246,25,206,09,330,,212,04,172,27*65
{"class":"SKY","xdop":0.84,"ydop":0.85,"vdop":1.80,"tdop":1.21,"hdop":1.20,"gdop":2.47,"pdop":2.20,"satellites":[{"PRN":7,"el":73,"az":42,"ss":17,"used":true,"gnssid":0,"svid":7},{"PRN":30,"el":64,"az":305,"ss":15,"used":true,"gnssid":0,"svid":30},{"PRN":9,"el":42,"az":158,"ss":32,"used":true,"gnssid":0,"svid":9},{"PRN":8,"el":40,"az":79,"ss":11,"used":false,"gnssid":0,"svid":8},{"PRN":28,"el":40,"az":226,"ss":26,"used":true,"gnssid":0,"svid":28},{"PRN":138,"el":37,"az":160,"ss":31,"used":false,"gnssid":1,"svid":138},{"PRN":5,"el":23,"az":288,"ss":6,"used":false,"gnssid":0,"svid":5},{"PRN":27,"el":23,"az":47,"ss":22,"used":true,"gnssid":0,"svid":27},{"PRN":13,"el":12,"az":315,"ss":0,"used":false,"gnssid":0,"svid":13},{"PRN":23,"el":11,"az":147,"ss":30,"used":true,"gnssid":0,"svid":23},{"PRN":193,"el":8,"az":299,"ss":0,"used":false,"gnssid":5,"svid":1},{"PRN":11,"el":6,"az":123,"ss":24,"used":true,"gnssid":0,"svid":11},{"PRN":20,"el":3,"az":330,"ss":0,"used":false,"gnssid":0,"svid":20},{"PRN":214,"el":34,"az":246,"ss":25,"used":true},{"PRN":206,"el":9,"az":330,"ss":0,"used":false},{"PRN":212,"el":4,"az":172,"ss":27,"used":false}]}
$GPRMC,213159.000,A,4404.1296338,N,12118.8683383,W,000.0,122.7,070416,,,D*70
$GPVTG,122.7,T,,M,000.0,N,000.0,K,D*0E
$GPZDA,213159.000,07,04,2016,00,00*5D
$GPGST,213159.000,10.5,48.0,9.5,13.2,0.3,0.3,0.8*56
{"class":"GST","time":"2016-04-10T08:44:38.000Z","rms":10.500,"major":48.000,"minor":9.500,"orient":13.200,"lat":0.300,"lon":0.300,"alt":0.800}
$PSTI,030,213159.000,A,4404.1296338,N,12118.8683383,W,1102.823,-0.01,0.04,0.04,070416,D,0.0,0.0*1B
{"class":"TPV","status":2,"mode":3,"time":"2016-04-07T21:31:59.000Z","ept":0.005,"lat":44.068827230,"lon":-121.314472305,"alt":1102.823,"epx":3.183,"epy":6.586,"epv":13.800,"track":345.9638,"speed":0.041,"climb":0.040,"eps":13.17,"epc":24.15}
$GPGGA,213200.000,4404.1296347,N,12118.8683403,W,2,07,1.3,1102.839,M,-20.300,M,,0000*57
$GPGLL,4404.1296347,N,12118.8683403,W,213200.000,A,D*4D
$GPGSA,A,3,09,23,11,27,30,28,,,,,,,2.7,1.3,2.4*37
$BDGSA,A,3,214,,,,,,,,,,,,2.7,1.3,2.4*15
$GPRMC,213200.000,A,4404.1296347,N,12118.8683403,W,000.0,122.7,070416,,,D*78
$GPVTG,122.7,T,,M,000.0,N,000.0,K,D*0E
$GPZDA,213200.000,07,04,2016,00,00*52
$GPGST,213200.000,10.1,47.7,9.5,13.0,0.3,0.3,0.8*57
{"class":"GST","time":"2016-04-10T08:45:20.000Z","rms":10.100,"major":47.700,"minor":9.500,"orient":13.000,"lat":0.300,"lon":0.300,"alt":0.800}
$PSTI,030,213200.000,A,4404.1296347,N,12118.8683403,W,1102.839,-0.01,0.02,0.06,070416,D,0.0,0.0*1C
{"class":"TPV","status":2,"mode":3,"time":"2016-04-07T21:32:00.000Z","ept":0.005,"lat":44.068827245,"lon":-121.314472338,"alt":1102.839,"epx":3.140,"epy":3.193,"epv":10.350,"track":333.4349,"speed":0.022,"climb":0.060,"eps":9.78,"epc":24.15}
$GPGGA,213201.000,4404.1296457,N,12118.8683490,W,2,08,1.2,1102.822,M,-20.300,M,,0000*5E
$GPGLL,4404.1296457,N,12118.8683490,W,213201.000,A,D*40
$GPGSA,A,3,09,23,07,11,27,30,28,,,,,,2.2,1.2,1.8*3B
$BDGSA,A,3,214,,,,,,,,,,,,2.2,1.2,1.8*1E
$GPRMC,213201.000,A,4404.1296457,N,12118.8683490,W,000.0,122.7,070416,,,D*75
$GPVTG,122.7,T,,M,000.0,N,000.0,K,D*0E
$GPZDA,213201.000,07,04,2016,00,00*53
$GPGST,213201.000,10.2,39.8,10.5,11.8,0.3,0.3,0.8*61
{"class":"GST","time":"2016-04-10T08:45:22.000Z","rms":10.200,"major":39.800,"minor":10.500,"orient":11.800,"lat":0.300,"lon":0.300,"alt":0.800}
$PSTI,030,213201.000,A,4404.1296457,N,12118.8683490,W,1102.822,-0.00,-0.01,0.07,070416,D,0.0,0.0*35
{"class":"TPV","status":2,"mode":3,"time":"2016-04-07T21:32:01.000Z","ept":0.005,"lat":44.068827428,"lon":-121.314472483,"alt":1102.822,"epx":3.140,"epy":3.193,"epv":13.800,"track":180.0000,"speed":0.010,"climb":0.070,"eps":6.39,"epc":24.15}
$GPGGA,213202.000,4404.1296556,N,12118.8683505,W,2,07,1.3,1102.819,M,-20.300,M,,0000*56
$GPGLL,4404.1296556,N,12118.8683505,W,213202.000,A,D*4E
$GPGSA,A,3,09,23,11,27,30,28,,,,,,,2.7,1.3,2.4*37
$BDGSA,A,3,214,,,,,,,,,,,,2.7,1.3,2.4*15
$GPGSV,4,1,13,07,73,043,16,30,64,305,19,09,42,158,31,08,40,079,13*73
$GPGSV,4,2,13,28,40,226,27,51,37,160,32,05,23,288,05,27,23,047,21*71
$GPGSV,4,3,13,13,12,315,,23,11,147,32,193,08,299,,11,06,123,25*48
$GPGSV,4,4,13,20,03,330,*4A
$BDGSV,1,1,03,214,34,246,25,206,09,330,,212,04,172,28*6A
{"class":"SKY","xdop":0.98,"ydop":0.85,"vdop":2.40,"tdop":1.41,"hdop":1.30,"gdop":3.03,"pdop":2.70,"satellites":[{"PRN":7,"el":73,"az":43,"ss":16,"used":false,"gnssid":0,"svid":7},{"PRN":30,"el":64,"az":305,"ss":19,"used":true,"gnssid":0,"svid":30},{"PRN":9,"el":42,"az":158,"ss":31,"used":true,"gnssid":0,"svid":9},{"PRN":8,"el":40,"az":79,"ss":13,"used":false,"gnssid":0,"svid":8},{"PRN":28,"el":40,"az":226,"ss":27,"used":true,"gnssid":0,"svid":28},{"PRN":138,"el":37,"az":160,"ss":32,"used":false,"gnssid":1,"svid":138},{"PRN":5,"el":23,"az":288,"ss":5,"used":false,"gnssid":0,"svid":5},{"PRN":27,"el":23,"az":47,"ss":21,"used":true,"gnssid":0,"svid":27},{"PRN":13,"el":12,"az":315,"ss":0,"used":false,"gnssid":0,"svid":13},{"PRN":23,"el":11,"az":147,"ss":32,"used":true,"gnssid":0,"svid":23},{"PRN":193,"el":8,"az":299,"ss":0,"used":false,"gnssid":5,"svid":1},{"PRN":11,"el":6,"az":123,"ss":25,"used":true,"gnssid":0,"svid":11},{"PRN":20,"el":3,"az":330,"ss":0,"used":false,"gnssid":0,"svid":20},{"PRN":214,"el":34,"az":246,"ss":25,"used":true},{"PRN":206,"el":9,"az":330,"ss":0,"used":false},{"PRN":212,"el":4,"az":172,"ss":28,"used":false}]}
$GPRMC,213202.000,A,4404.1296556,N,12118.8683505,W,000.0,122.7,070416,,,D*7B
