$GPGGA,182139.000,4404.1165102,N,12118.8704702,W,2,07,1.1,1215.141,M,-20.300,M,,0000*54
{"class":"TPV","status":2,"mode":3,"lat":44.068608503,"lon":-121.314507837,"altHAE":1194.841,"altMSL":1215.141,"magvar":14.4,"geoidSep":-20.300,"eph":5.225}
$GPGLL,4404.1165102,N,12118.8704702,W,182139.000,A,D*4F
{"class":"TPV","status":2,"mode":3,"lat":44.068608503,"lon":-121.314507837,"altHAE":1194.841,"altMSL":1215.141,"magvar":14.4,"geoidSep":-20.300,"eph":5.225}
$GPGSA,A,3,23,31,22,16,03,07,,,,,,,1.8,1.1,1.4*3E
{"class":"TPV","status":2,"mode":3,"lat":44.068608503,"lon":-121.314507837,"altHAE":1194.841,"altMSL":1215.141,"epv":8.050,"magvar":14.4,"geoidSep":-20.300,"eph":5.225,"sep":8.550}
$BDGSA,A,3,214,,,,,,,,,,,,1.8,1.1,1.4*18
{"class":"TPV","status":2,"mode":3,"lat":44.068608503,"lon":-121.314507837,"altHAE":1194.841,"altMSL":1215.141,"epv":8.050,"magvar":14.4,"geoidSep":-20.300,"eph":5.225,"sep":8.550}
$GPRMC,182139.000,A,4404.1165102,N,12118.8704702,W,000.0,329.9,290316,,,D*76
{"class":"TPV","status":2,"mode":3,"time":"2016-03-29T18:21:39.000Z","ept":0.005,"lat":44.068608503,"lon":-121.314507837,"altHAE":1194.841,"altMSL":1215.141,"epv":8.050,"track":329.9000,"magtrack":344.3184,"magvar":14.4,"speed":0.000,"geoidSep":-20.300,"eph":5.225,"sep":8.550}
$GPVTG,329.9,T,,M,000.0,N,000.0,K,D*09
$GPZDA,182139.000,29,03,2016,00,00*5B
$GPGST,182139.000,15.9,15.1,6.6,19.9,0.9,0.4,0.9*5A
{"class":"GST","time":"2016-03-29T18:21:39.000Z","rms":15.900,"major":15.100,"minor":6.600,"orient":19.900,"lat":0.900,"lon":0.400,"alt":0.900}
$PSTI,030,182139.000,A,4404.1165102,N,12118.8704702,W,1215.141,0.01,-0.04,0.07,290316,D,0.0,0.0*11
{"class":"TPV","status":2,"mode":3,"time":"2016-03-29T18:21:39.000Z","ept":0.005,"lat":44.068608503,"lon":-121.314507837,"altHAE":1194.841,"altMSL":1215.141,"epv":8.050,"track":329.9000,"magtrack":344.3184,"magvar":14.4,"speed":0.000,"climb":0.070,"velN":-0.040,"velE":0.010,"velD":-0.070,"geoidSep":-20.300,"eph":5.225,"sep":8.550}
$GPGGA,182140.000,4404.1164780,N,12118.8704517,W,2,07,1.1,1215.153,M,-20.300,M,,0000*52
$GPGLL,4404.1164780,N,12118.8704517,W,182140.000,A,D*4A
$GPGSA,A,3,23,31,22,16,03,07,,,,,,,1.8,1.1,1.4*3E
$BDGSA,A,3,214,,,,,,,,,,,,1.8,1.1,1.4*18
$GPRMC,182140.000,A,4404.1164780,N,12118.8704517,W,000.0,329.9,290316,,,D*73
$GPVTG,329.9,T,,M,000.0,N,000.0,K,D*09
$GPZDA,182140.000,29,03,2016,00,00*55
$GPGST,182140.000,15.4,18.7,6.4,22.2,0.9,0.5,0.9*52
{"class":"GST","time":"2016-03-29T18:21:40.000Z","rms":15.400,"major":18.700,"minor":6.400,"orient":22.200,"lat":0.900,"lon":0.500,"alt":0.900}
$PSTI,030,182140.000,A,4404.1164780,N,12118.8704517,W,1215.153,0.00,-0.03,0.07,290316,D,0.0,0.0*11
{"class":"TPV","status":2,"mode":3,"time":"2016-03-29T18:21:40.000Z","ept":0.005,"lat":44.068607967,"lon":-121.314507528,"altHAE":1194.853,"altMSL":1215.153,"epv":8.050,"track":329.9000,"magtrack":344.3184,"magvar":14.4,"speed":0.000,"climb":0.012,"epc":16.10,"velN":-0.030,"velE":0.000,"velD":-0.070,"geoidSep":-20.300,"eph":5.225,"sep":8.550}
$GPGGA,182141.000,4404.1164403,N,12118.8704326,W,2,07,1.1,1215.168,M,-20.300,M,,0000*57
$GPGLL,4404.1164403,N,12118.8704326,W,182141.000,A,D*47
$GPGSA,A,3,23,31,22,16,03,07,,,,,,,1.8,1.1,1.4*3E
$BDGSA,A,3,214,,,,,,,,,,,,1.8,1.1,1.4*18
$GPGSV,4,1,13,23,66,310,29,03,65,186,34,26,43,081,27,16,41,124,39*7E
$GPGSV,4,2,13,51,37,160,38,04,37,066,25,09,34,291,10,22,26,156,37*71
$GPGSV,4,3,13,06,19,301,,31,17,052,21,193,11,307,,07,11,232,25*4C
$GPGSV,4,4,13,01,03,202,30*4A
{"class":"SKY","xdop":0.79,"ydop":0.86,"vdop":1.40,"tdop":0.97,"hdop":1.10,"gdop":2.11,"pdop":1.80,"satellites":[{"PRN":23,"el":66.0,"az":310.0,"ss":29.0,"used":true,"gnssid":0,"svid":23},{"PRN":3,"el":65.0,"az":186.0,"ss":34.0,"used":true,"gnssid":0,"svid":3},{"PRN":26,"el":43.0,"az":81.0,"ss":27.0,"used":false,"gnssid":0,"svid":26},{"PRN":16,"el":41.0,"az":124.0,"ss":39.0,"used":true,"gnssid":0,"svid":16},{"PRN":51,"el":37.0,"az":160.0,"ss":38.0,"used":false,"gnssid":1,"svid":138},{"PRN":4,"el":37.0,"az":66.0,"ss":25.0,"used":false,"gnssid":0,"svid":4},{"PRN":9,"el":34.0,"az":291.0,"ss":10.0,"used":false,"gnssid":0,"svid":9},{"PRN":22,"el":26.0,"az":156.0,"ss":37.0,"used":true,"gnssid":0,"svid":22},{"PRN":6,"el":19.0,"az":301.0,"ss":0.0,"used":false,"gnssid":0,"svid":6},{"PRN":31,"el":17.0,"az":52.0,"ss":21.0,"used":true,"gnssid":0,"svid":31},{"PRN":193,"el":11.0,"az":307.0,"ss":0.0,"used":false,"gnssid":5,"svid":1},{"PRN":7,"el":11.0,"az":232.0,"ss":25.0,"used":true,"gnssid":0,"svid":7},{"PRN":1,"el":3.0,"az":202.0,"ss":30.0,"used":false,"gnssid":0,"svid":1}]}
$BDGSV,1,1,02,214,55,153,40,208,01,299,*67
{"class":"SKY","xdop":0.78,"ydop":0.83,"vdop":1.40,"tdop":0.95,"hdop":1.10,"gdop":2.02,"pdop":1.80,"satellites":[{"PRN":23,"el":66.0,"az":310.0,"ss":29.0,"used":true,"gnssid":0,"svid":23},{"PRN":3,"el":65.0,"az":186.0,"ss":34.0,"used":true,"gnssid":0,"svid":3},{"PRN":26,"el":43.0,"az":81.0,"ss":27.0,"used":false,"gnssid":0,"svid":26},{"PRN":16,"el":41.0,"az":124.0,"ss":39.0,"used":true,"gnssid":0,"svid":16},{"PRN":51,"el":37.0,"az":160.0,"ss":38.0,"used":false,"gnssid":1,"svid":138},{"PRN":4,"el":37.0,"az":66.0,"ss":25.0,"used":false,"gnssid":0,"svid":4},{"PRN":9,"el":34.0,"az":291.0,"ss":10.0,"used":false,"gnssid":0,"svid":9},{"PRN":22,"el":26.0,"az":156.0,"ss":37.0,"used":true,"gnssid":0,"svid":22},{"PRN":6,"el":19.0,"az":301.0,"ss":0.0,"used":false,"gnssid":0,"svid":6},{"PRN":31,"el":17.0,"az":52.0,"ss":21.0,"used":true,"gnssid":0,"svid":31},{"PRN":193,"el":11.0,"az":307.0,"ss":0.0,"used":false,"gnssid":5,"svid":1},{"PRN":7,"el":11.0,"az":232.0,"ss":25.0,"used":true,"gnssid":0,"svid":7},{"PRN":1,"el":3.0,"az":202.0,"ss":30.0,"used":false,"gnssid":0,"svid":1},{"PRN":414,"el":55.0,"az":153.0,"ss":40.0,"used":true,"gnssid":3,"svid":14},{"PRN":408,"el":1.0,"az":299.0,"ss":0.0,"used":false,"gnssid":3,"svid":8}]}
$GPRMC,182141.000,A,4404.1164403,N,12118.8704326,W,000.0,329.9,290316,,,D*7E
$GPVTG,329.9,T,,M,000.0,N,000.0,K,D*09
$GPZDA,182141.000,29,03,2016,00,00*54
$GPGST,182141.000,15.5,15.3,7.2,21.8,0.9,0.5,0.8*54
{"class":"GST","time":"2016-03-29T18:21:41.000Z","rms":15.500,"major":15.300,"minor":7.200,"orient":21.800,"lat":0.900,"lon":0.500,"alt":0.800}
$PSTI,030,182141.000,A,4404.1164403,N,12118.8704326,W,1215.168,0.01,-0.03,0.07,290316,D,0.0,0.0*15
{"class":"TPV","status":2,"mode":3,"time":"2016-03-29T18:21:41.000Z","ept":0.005,"lat":44.068607338,"lon":-121.314507210,"altHAE":1194.868,"altMSL":1215.168,"epx":2.968,"epy":3.226,"epv":8.050,"track":329.9000,"magtrack":344.3184,"magvar":14.4,"speed":0.000,"climb":0.015,"epc":16.10,"velN":-0.030,"velE":0.010,"velD":-0.070,"geoidSep":-20.300,"eph":5.225,"sep":8.550}
$GPGGA,182142.000,4404.1164065,N,12118.8704154,W,2,07,1.1,1215.183,M,-20.300,M,,0000*52
$GPGLL,4404.1164065,N,12118.8704154,W,182142.000,A,D*47
$GPGSA,A,3,23,31,22,16,03,07,,,,,,,1.8,1.1,1.4*3E
$BDGSA,A,3,214,,,,,,,,,,,,1.8,1.1,1.4*18
$GPRMC,182142.000,A,4404.1164065,N,12118.8704154,W,000.0,329.9,290316,,,D*7E
$GPVTG,329.9,T,,M,000.0,N,000.0,K,D*09
$GPZDA,182142.000,29,03,2016,00,00*57
$GPGST,182142.000,14.5,14.4,6.0,13.2,0.9,0.5,0.8*58
{"class":"GST","time":"2016-03-29T18:21:42.000Z","rms":14.500,"major":14.400,"minor":6.000,"orient":13.200,"lat":0.900,"lon":0.500,"alt":0.800}
$PSTI,030,182142.000,A,4404.1164065,N,12118.8704154,W,1215.183,0.01,-0.02,0.05,290316,D,0.0,0.0*13
{"class":"TPV","status":2,"mode":3,"time":"2016-03-29T18:21:42.000Z","ept":0.005,"lat":44.068606775,"lon":-121.314506923,"altHAE":1194.883,"altMSL":1215.183,"epx":2.921,"epy":3.114,"epv":8.050,"track":329.9000,"magtrack":344.3184,"magvar":14.4,"speed":0.000,"climb":0.015,"eps":6.34,"epc":16.10,"velN":-0.020,"velE":0.010,"velD":-0.050,"geoidSep":-20.300,"eph":5.225,"sep":8.550}
$GPGGA,182143.000,4404.1163794,N,12118.8704014,W,2,07,1.1,1215.198,M,-20.300,M,,0000*52
$GPGLL,4404.1163794,N,12118.8704014,W,182143.000,A,D*4D
$GPGSA,A,3,23,31,22,16,03,07,,,,,,,1.8,1.1,1.4*3E
$BDGSA,A,3,214,,,,,,,,,,,,1.8,1.1,1.4*18
$GPRMC,182143.000,A,4404.1163794,N,12118.8704014,W,000.0,329.9,290316,,,D*74
$GPVTG,329.9,T,,M,000.0,N,000.0,K,D*09
$GPZDA,182143.000,29,03,2016,00,00*56
$GPGST,182143.000,13.5,15.3,6.1,11.8,0.9,0.5,0.8*51
{"class":"GST","time":"2016-03-29T18:21:43.000Z","rms":13.500,"major":15.300,"minor":6.100,"orient":11.800,"lat":0.900,"lon":0.500,"alt":0.800}
$PSTI,030,182143.000,A,4404.1163794,N,12118.8704014,W,1215.198,0.01,-0.00,0.03,290316,D,0.0,0.0*17
{"class":"TPV","status":2,"mode":3,"time":"2016-03-29T18:21:43.000Z","ept":0.005,"lat":44.068606323,"lon":-121.314506690,"altHAE":1194.898,"altMSL":1215.198,"epx":2.921,"epy":3.114,"epv":8.050,"track":329.9000,"magtrack":344.3184,"magvar":14.4,"speed":0.000,"climb":0.015,"eps":6.23,"epc":16.10,"velN":-0.000,"velE":0.010,"velD":-0.030,"geoidSep":-20.300,"eph":5.225,"sep":8.550}
$GPGGA,182144.000,4404.1163490,N,12118.8703790,W,2,07,1.1,1215.211,M,-20.300,M,,0000*5C
$GPGLL,4404.1163490,N,12118.8703790,W,182144.000,A,D*41
$GPGSA,A,3,23,31,22,16,03,07,,,,,,,1.8,1.1,1.4*3E
$BDGSA,A,3,214,,,,,,,,,,,,1.8,1.1,1.4*18
$GPGSV,4,1,13,23,66,310,29,03,65,186,33,26,43,081,27,16,41,124,38*78
$GPGSV,4,2,13,51,37,160,38,04,37,066,25,09,34,291,07,22,26,156,37*77
$GPGSV,4,3,13,06,19,301,,31,17,052,20,193,11,307,,07,11,232,27*4F
$GPGSV,4,4,13,01,03,202,30*4A
$BDGSV,1,1,02,214,55,153,40,208,01,299,*67
{"class":"SKY","xdop":0.78,"ydop":0.83,"vdop":1.40,"tdop":0.95,"hdop":1.10,"gdop":2.02,"pdop":1.80,"satellites":[{"PRN":23,"el":66.0,"az":310.0,"ss":29.0,"used":true,"gnssid":0,"svid":23},{"PRN":3,"el":65.0,"az":186.0,"ss":33.0,"used":true,"gnssid":0,"svid":3},{"PRN":26,"el":43.0,"az":81.0,"ss":27.0,"used":false,"gnssid":0,"svid":26},{"PRN":16,"el":41.0,"az":124.0,"ss":38.0,"used":true,"gnssid":0,"svid":16},{"PRN":51,"el":37.0,"az":160.0,"ss":38.0,"used":false,"gnssid":1,"svid":138},{"PRN":4,"el":37.0,"az":66.0,"ss":25.0,"used":false,"gnssid":0,"svid":4},{"PRN":9,"el":34.0,"az":291.0,"ss":7.0,"used":false,"gnssid":0,"svid":9},{"PRN":22,"el":26.0,"az":156.0,"ss":37.0,"used":true,"gnssid":0,"svid":22},{"PRN":6,"el":19.0,"az":301.0,"ss":0.0,"used":false,"gnssid":0,"svid":6},{"PRN":31,"el":17.0,"az":52.0,"ss":20.0,"used":true,"gnssid":0,"svid":31},{"PRN":193,"el":11.0,"az":307.0,"ss":0.0,"used":false,"gnssid":5,"svid":1},{"PRN":7,"el":11.0,"az":232.0,"ss":27.0,"used":true,"gnssid":0,"svid":7},{"PRN":1,"el":3.0,"az":202.0,"ss":30.0,"used":false,"gnssid":0,"svid":1},{"PRN":414,"el":55.0,"az":153.0,"ss":40.0,"used":true,"gnssid":3,"svid":14},{"PRN":408,"el":1.0,"az":299.0,"ss":0.0,"used":false,"gnssid":3,"svid":8}]}
$GPRMC,182144.000,A,4404.1163490,N,12118.8703790,W,000.0,329.9,290316,,,D*78
$GPVTG,329.9,T,,M,000.0,N,000.0,K,D*09
$GPZDA,182144.000,29,03,2016,00,00*51
$GPGST,182144.000,14.5,14.3,5.3,12.9,0.9,0.5,0.8*53
{"class":"GST","time":"2016-03-29T18:21:44.000Z","rms":14.500,"major":14.300,"minor":5.300,"orient":12.900,"lat":0.900,"lon":0.500,"alt":0.800}
$PSTI,030,182144.000,A,4404.1163490,N,12118.8703790,W,1215.211,0.01,-0.02,0.06,290316,D,0.0,0.0*1E
{"class":"TPV","status":2,"mode":3,"time":"2016-03-29T18:21:44.000Z","ept":0.005,"lat":44.068605817,"lon":-121.314506317,"altHAE":1194.911,"altMSL":1215.211,"epx":2.921,"epy":3.114,"epv":8.050,"track":329.9000,"magtrack":344.3184,"magvar":14.4,"speed":0.000,"climb":0.013,"eps":6.23,"epc":16.10,"velN":-0.020,"velE":0.010,"velD":-0.060,"geoidSep":-20.300,"eph":5.225,"sep":8.550}
