{"class":"SKY","xdop":1.88,"ydop":1.91,"vdop":3.83,"tdop":3.13,"hdop":2.68,"gdop":5.63,"pdop":4.68,"satellites":[{"PRN":2,"el":45.0,"az":180.0,"ss":33.0,"used":true,"gnssid":0,"svid":2},{"PRN":28,"el":9.0,"az":112.0,"ss":27.0,"used":true,"gnssid":0,"svid":28},{"PRN":12,"el":48.0,"az":308.0,"ss":19.0,"used":false,"gnssid":0,"svid":12},{"PRN":24,"el":54.0,"az":246.0,"ss":21.0,"used":true,"gnssid":0,"svid":24},{"PRN":17,"el":30.0,"az":60.0,"ss":22.0,"used":false,"gnssid":0,"svid":17},{"PRN":19,"el":58.0,"az":50.0,"ss":24.0,"used":true,"gnssid":0,"svid":19},{"PRN":211,"el":77.0,"az":31.0,"ss":0.0,"used":false,"gnssid":3,"svid":11}]}
{"class":"TPV","mode":2,"time":"2016-04-01T03:35:37.999Z","ept":0.005,"lat":44.068796225,"lon":-121.314519974,"altHAE":1077.754,"altMSL":1099.909,"epx":28.270,"epy":28.598,"track":308.9814,"magtrack":323.3999,"magvar":14.4,"speed":0.141,"eph":32.789,"sep":37.601}
{"class":"SKY","xdop":1.88,"ydop":1.91,"vdop":0.97,"tdop":1.00,"hdop":1.73,"gdop":2.22,"pdop":1.98,"satellites":[{"PRN":2,"el":45.0,"az":180.0,"ss":32.0,"used":true,"gnssid":0,"svid":2},{"PRN":28,"el":9.0,"az":112.0,"ss":27.0,"used":true,"gnssid":0,"svid":28},{"PRN":12,"el":48.0,"az":308.0,"ss":20.0,"used":false,"gnssid":0,"svid":12},{"PRN":24,"el":54.0,"az":246.0,"ss":23.0,"used":true,"gnssid":0,"svid":24},{"PRN":17,"el":30.0,"az":60.0,"ss":22.0,"used":false,"gnssid":0,"svid":17},{"PRN":19,"el":58.0,"az":50.0,"ss":23.0,"used":false,"gnssid":0,"svid":19},{"PRN":211,"el":77.0,"az":31.0,"ss":0.0,"used":false,"gnssid":3,"svid":11}]}
{"class":"TPV","mode":2,"time":"2016-04-01T03:35:38.999Z","ept":0.005,"lat":44.068771241,"lon":-121.314514648,"altHAE":1077.754,"altMSL":1099.909,"epx":28.270,"epy":28.598,"track":14.6327,"magtrack":29.0512,"magvar":14.4,"speed":0.659,"eps":57.20,"eph":59.710,"sep":62.660}
{"class":"SKY","time":"2016-04-01T03:35:39.998Z","xdop":1.88,"ydop":1.91,"vdop":1.00,"tdop":1.48,"hdop":3.14,"gdop":3.61,"pdop":3.30,"satellites":[{"PRN":2,"el":45.0,"az":180.0,"ss":32.0,"used":true,"gnssid":0,"svid":2},{"PRN":28,"el":9.0,"az":112.0,"ss":26.0,"used":true,"gnssid":0,"svid":28},{"PRN":12,"el":48.0,"az":308.0,"ss":19.0,"used":false,"gnssid":0,"svid":12},{"PRN":24,"el":54.0,"az":246.0,"ss":23.0,"used":true,"gnssid":0,"svid":24},{"PRN":17,"el":30.0,"az":60.0,"ss":22.0,"used":true,"gnssid":0,"svid":17},{"PRN":19,"el":58.0,"az":50.0,"ss":23.0,"used":true,"gnssid":0,"svid":19},{"PRN":211,"el":77.0,"az":31.0,"ss":0.0,"used":false,"gnssid":3,"svid":11}]}
{"class":"TPV","mode":2,"time":"2016-04-01T03:35:39.999Z","ept":0.005,"lat":44.068685648,"lon":-121.314154046,"altHAE":1111.350,"altMSL":1133.505,"epx":28.270,"epy":28.598,"track":334.8564,"magtrack":349.2748,"magvar":14.4,"speed":0.023,"epd":86.4742,"eps":57.20,"eph":29.070,"sep":34.369}
{"class":"SKY","time":"2016-04-01T03:35:39.998Z","xdop":1.88,"ydop":1.91,"vdop":0.96,"tdop":0.94,"hdop":1.53,"gdop":2.04,"pdop":1.81,"satellites":[{"PRN":2,"el":45.0,"az":180.0,"ss":32.0,"used":true,"gnssid":0,"svid":2},{"PRN":28,"el":9.0,"az":112.0,"ss":27.0,"used":true,"gnssid":0,"svid":28},{"PRN":12,"el":48.0,"az":308.0,"ss":19.0,"used":false,"gnssid":0,"svid":12},{"PRN":24,"el":54.0,"az":246.0,"ss":22.0,"used":true,"gnssid":0,"svid":24},{"PRN":17,"el":30.0,"az":60.0,"ss":22.0,"used":true,"gnssid":0,"svid":17},{"PRN":19,"el":58.0,"az":50.0,"ss":22.0,"used":false,"gnssid":0,"svid":19},{"PRN":211,"el":77.0,"az":31.0,"ss":0.0,"used":false,"gnssid":3,"svid":11}]}
{"class":"TPV","mode":2,"time":"2016-04-01T03:35:40.999Z","ept":0.005,"lat":44.068732536,"lon":-121.314145097,"altHAE":1110.100,"altMSL":1132.255,"epx":28.270,"epy":28.598,"track":282.2877,"magtrack":296.7062,"magvar":14.4,"speed":0.166,"eps":57.20,"eph":31.504,"sep":36.643}
{"class":"SKY","time":"2016-04-01T03:35:39.998Z","xdop":1.88,"ydop":1.91,"vdop":0.98,"tdop":0.96,"hdop":1.66,"gdop":2.16,"pdop":1.93,"satellites":[{"PRN":2,"el":45.0,"az":180.0,"ss":32.0,"used":true,"gnssid":0,"svid":2},{"PRN":28,"el":9.0,"az":112.0,"ss":26.0,"used":true,"gnssid":0,"svid":28},{"PRN":12,"el":48.0,"az":308.0,"ss":18.0,"used":false,"gnssid":0,"svid":12},{"PRN":24,"el":54.0,"az":246.0,"ss":22.0,"used":true,"gnssid":0,"svid":24},{"PRN":17,"el":30.0,"az":60.0,"ss":21.0,"used":true,"gnssid":0,"svid":17},{"PRN":19,"el":58.0,"az":50.0,"ss":21.0,"used":true,"gnssid":0,"svid":19},{"PRN":211,"el":77.0,"az":31.0,"ss":0.0,"used":false,"gnssid":3,"svid":11}]}
{"class":"TPV","mode":3,"time":"2016-04-01T03:35:41.999Z","ept":0.005,"lat":44.068876942,"lon":-121.314390414,"altHAE":1067.508,"altMSL":1089.663,"epx":28.270,"epy":28.598,"epv":84.515,"track":246.1161,"magtrack":260.5345,"magvar":14.4,"speed":0.159,"climb":-0.197,"eps":57.20,"ecefx":-2386057.80,"ecefy":-3922156.18,"ecefz":4414336.08,"ecefvx":-0.07,"ecefvy":0.16,"ecefvz":-0.18,"velN":-0.064,"velE":-0.145,"velD":0.197,"geoidSep":-22.155,"eph":46.379,"sep":83.817}
{"class":"SUBFRAME","tSV":2,"TOW17":74160,"frame":5,"scaled":false,"ALMANAC":{"ID":7,"Health":0,"e":19297,"toa":144,"deltai":4043,"Omegad":-687,"sqrtA":10554601,"Omega0":5340006,"omega":-7160232,"M0":-7566383,"af0":485,"af1":-1}}
{"class":"SUBFRAME","tSV":28,"TOW17":74160,"frame":5,"scaled":false,"ALMANAC":{"ID":7,"Health":0,"e":19308,"toa":15,"deltai":4038,"Omegad":-694,"sqrtA":10554595,"Omega0":5016824,"omega":-7160038,"M0":5417976,"af0":484,"af1":-1}}
{"class":"SKY","time":"2016-04-01T03:35:39.998Z","xdop":1.88,"ydop":1.91,"vdop":3.67,"tdop":2.90,"hdop":2.44,"gdop":5.28,"pdop":4.41,"satellites":[{"PRN":2,"el":45.0,"az":180.0,"ss":32.0,"used":true,"gnssid":0,"svid":2},{"PRN":28,"el":9.0,"az":112.0,"ss":27.0,"used":true,"gnssid":0,"svid":28},{"PRN":12,"el":48.0,"az":308.0,"ss":17.0,"used":false,"gnssid":0,"svid":12},{"PRN":24,"el":54.0,"az":246.0,"ss":21.0,"used":true,"gnssid":0,"svid":24},{"PRN":17,"el":30.0,"az":60.0,"ss":22.0,"used":false,"gnssid":0,"svid":17},{"PRN":19,"el":58.0,"az":50.0,"ss":21.0,"used":true,"gnssid":0,"svid":19},{"PRN":211,"el":77.0,"az":31.0,"ss":0.0,"used":false,"gnssid":3,"svid":11}]}
{"class":"TPV","mode":2,"time":"2016-04-01T03:35:42.999Z","ept":0.005,"lat":44.068858877,"lon":-121.314239904,"altHAE":1096.312,"altMSL":1118.467,"epx":28.270,"epy":28.598,"track":324.5416,"magtrack":338.9601,"magvar":14.4,"speed":0.059,"eps":57.20,"eph":32.796,"sep":37.606}
{"class":"SKY","time":"2016-04-01T03:35:39.998Z","xdop":1.88,"ydop":1.91,"vdop":0.97,"tdop":1.00,"hdop":1.73,"gdop":2.22,"pdop":1.98,"satellites":[{"PRN":2,"el":45.0,"az":180.0,"ss":32.0,"used":true,"gnssid":0,"svid":2},{"PRN":28,"el":9.0,"az":112.0,"ss":27.0,"used":true,"gnssid":0,"svid":28},{"PRN":12,"el":48.0,"az":308.0,"ss":18.0,"used":false,"gnssid":0,"svid":12},{"PRN":24,"el":54.0,"az":246.0,"ss":20.0,"used":true,"gnssid":0,"svid":24},{"PRN":17,"el":30.0,"az":60.0,"ss":22.0,"used":false,"gnssid":0,"svid":17},{"PRN":19,"el":58.0,"az":50.0,"ss":21.0,"used":true,"gnssid":0,"svid":19},{"PRN":211,"el":77.0,"az":31.0,"ss":0.0,"used":false,"gnssid":3,"svid":11}]}
{"class":"TPV","mode":2,"time":"2016-04-01T03:35:43.999Z","ept":0.005,"lat":44.068660009,"lon":-121.314009277,"altHAE":1111.911,"altMSL":1134.066,"epx":28.270,"epy":28.598,"track":167.0603,"magtrack":181.4787,"magvar":14.4,"speed":0.164,"epd":89.5896,"eps":57.20,"eph":32.797,"sep":37.607}
{"class":"SKY","time":"2016-04-01T03:35:39.998Z","xdop":1.88,"ydop":1.91,"vdop":0.97,"tdop":1.00,"hdop":1.73,"gdop":2.22,"pdop":1.98,"satellites":[{"PRN":2,"el":45.0,"az":180.0,"ss":32.0,"used":true,"gnssid":0,"svid":2},{"PRN":28,"el":9.0,"az":112.0,"ss":26.0,"used":true,"gnssid":0,"svid":28},{"PRN":12,"el":48.0,"az":308.0,"ss":19.0,"used":false,"gnssid":0,"svid":12},{"PRN":24,"el":54.0,"az":246.0,"ss":21.0,"used":true,"gnssid":0,"svid":24},{"PRN":17,"el":30.0,"az":60.0,"ss":22.0,"used":false,"gnssid":0,"svid":17},{"PRN":19,"el":58.0,"az":50.0,"ss":21.0,"used":true,"gnssid":0,"svid":19},{"PRN":211,"el":76.0,"az":31.0,"ss":0.0,"used":false,"gnssid":3,"svid":11}]}
{"class":"TPV","mode":2,"time":"2016-04-01T03:35:44.999Z","ept":0.005,"lat":44.068993007,"lon":-121.314491866,"altHAE":1073.305,"altMSL":1095.460,"epx":28.270,"epy":28.598,"track":150.2957,"magtrack":164.7142,"magvar":14.4,"speed":0.135,"epd":56.2401,"eps":57.20,"eph":32.798,"sep":37.608}
{"class":"SKY","time":"2016-04-01T03:35:45.998Z","xdop":1.88,"ydop":1.91,"vdop":0.97,"tdop":1.00,"hdop":1.73,"gdop":2.22,"pdop":1.98,"satellites":[{"PRN":2,"el":45.0,"az":180.0,"ss":32.0,"used":true,"gnssid":0,"svid":2},{"PRN":28,"el":9.0,"az":112.0,"ss":27.0,"used":true,"gnssid":0,"svid":28},{"PRN":12,"el":48.0,"az":308.0,"ss":18.0,"used":false,"gnssid":0,"svid":12},{"PRN":24,"el":54.0,"az":246.0,"ss":20.0,"used":true,"gnssid":0,"svid":24},{"PRN":17,"el":30.0,"az":60.0,"ss":21.0,"used":true,"gnssid":0,"svid":17},{"PRN":19,"el":58.0,"az":50.0,"ss":21.0,"used":true,"gnssid":0,"svid":19},{"PRN":211,"el":76.0,"az":31.0,"ss":0.0,"used":false,"gnssid":3,"svid":11}]}
{"class":"TPV","mode":2,"time":"2016-04-01T03:35:45.999Z","ept":0.005,"lat":44.069160197,"lon":-121.314808362,"altHAE":1033.900,"altMSL":1056.055,"epx":28.270,"epy":28.598,"track":244.6525,"magtrack":259.0711,"magvar":14.4,"speed":0.071,"epd":84.5932,"eps":57.20,"eph":29.079,"sep":34.375}
