# Name: skytraq
# Description: Skytraq S2525F8-BD-RTK
# Submitter: Gary E. Miller <gem@rellim.com>
# Date: 2016-03-28
# Location: Bend, OR, USA
#
# Notes: With valid fix.
#
$GPGGA,232712.000,4404.1237962,N,12118.8472460,W,1,05,5.1,1132.560,M,-20.300,M,,0000*58
$GPGLL,4404.1237962,N,12118.8472460,W,232712.000,A,A*42
$GPGSA,A,3,30,28,09,11,17,,,,,,,,8.2,5.1,6.4*38
$GPRMC,232712.000,A,4404.1237962,N,12118.8472460,W,000.0,159.2,280316,,,A*74
$GPVTG,159.2,T,,M,000.0,N,000.0,K,A*02
$GPZDA,232712.000,28,03,2016,00,00*5D
$GPGST,232712.000,,,,,,,*4E
$PSTI,030,232712.000,A,4404.1237962,N,12118.8472460,W,1132.560,0.00,0.03,0.00,280316,A,0.0,0.0*30
$GPGGA,232713.000,4404.1237969,N,12118.8472448,W,2,05,5.1,1132.560,M,-20.300,M,,0000*5B
$GPGLL,4404.1237969,N,12118.8472448,W,232713.000,A,D*47
$GPGSA,A,3,30,28,09,11,17,,,,,,,,8.2,5.1,6.4*38
$GPRMC,232713.000,A,4404.1237969,N,12118.8472448,W,000.0,159.2,280316,,,D*71
$GPVTG,159.2,T,,M,000.0,N,000.0,K,D*07
$GPZDA,232713.000,28,03,2016,00,00*5C
$GPGST,232713.000,1.3,105.1,9.1,-40.9,0.3,0.3,0.6*78
$PSTI,030,232713.000,A,4404.1237969,N,12118.8472448,W,1132.560,-0.00,0.03,0.00,280316,D,0.0,0.0*18
$GPGGA,232714.000,4404.1237959,N,12118.8472444,W,1,05,2.4,1132.559,M,-20.300,M,,0000*58
$GPGLL,4404.1237959,N,12118.8472444,W,232714.000,A,A*4A
$GPGSA,A,3,28,09,11,08,17,,,,,,,,4.3,2.4,3.5*38
$GPGSV,4,1,14,30,77,063,18,28,70,264,19,07,48,101,27,13,41,305,16*7B
$GPGSV,4,2,14,51,37,160,34,11,25,095,27,08,25,046,16,17,24,183,39*7E
$GPGSV,4,3,14,05,09,257,,09,08,163,28,15,08,322,,01,07,107,16*70
$GPGSV,4,4,14,20,06,302,,193,00,293,*4A
$GPRMC,232714.000,A,4404.1237959,N,12118.8472444,W,000.0,159.2,280316,,,A*7C
$GPVTG,159.2,T,,M,000.0,N,000.0,K,A*02
$GPZDA,232714.000,28,03,2016,00,00*5B
$GPGST,232714.000,,,,,,,*48
$PSTI,030,232714.000,A,4404.1237959,N,12118.8472444,W,1132.559,-0.00,0.03,0.00,280316,A,0.0,0.0*1F
$GPGGA,232715.000,4404.1237950,N,12118.8472451,W,1,05,5.6,1132.559,M,-20.300,M,,0000*51
$GPGLL,4404.1237950,N,12118.8472451,W,232715.000,A,A*46
$GPGSA,A,3,28,09,11,17,01,,,,,,,,9.4,5.6,7.6*39
$GPRMC,232715.000,A,4404.1237950,N,12118.8472451,W,000.0,159.2,280316,,,A*70
$GPVTG,159.2,T,,M,000.0,N,000.0,K,A*02
$GPZDA,232715.000,28,03,2016,00,00*5A
$GPGST,232715.000,,,,,,,*49
$PSTI,030,232715.000,A,4404.1237950,N,12118.8472451,W,1132.559,-0.00,0.03,0.00,280316,A,0.0,0.0*13
$GPGGA,232716.000,4404.1237960,N,12118.8472418,W,2,05,2.8,1132.557,M,-20.300,M,,0000*58
$GPGLL,4404.1237960,N,12118.8472418,W,232716.000,A,D*4E
$GPGSA,A,3,28,09,11,17,51,,,,,,,,4.6,2.8,3.7*3F
$GPRMC,232716.000,A,4404.1237960,N,12118.8472418,W,000.0,159.2,280316,,,D*78
$GPVTG,159.2,T,,M,000.0,N,000.0,K,D*07
$GPZDA,232716.000,28,03,2016,00,00*59
$GPGST,232716.000,2.9,42.2,8.1,-33.9,0.3,0.3,0.6*40
$PSTI,030,232716.000,A,4404.1237960,N,12118.8472418,W,1132.557,-0.01,0.04,-0.00,280316,D,0.0,0.0*3E
$GPGGA,232717.000,4404.1237965,N,12118.8472427,W,2,05,2.4,1132.558,M,-20.300,M,,0000*53
$GPGLL,4404.1237965,N,12118.8472427,W,232717.000,A,D*46
$GPGSA,A,3,28,09,11,08,17,,,,,,,,4.3,2.4,3.5*38
$GPGSV,4,1,14,30,77,064,14,28,70,265,20,07,48,101,27,13,41,305,15*78
$GPGSV,4,2,14,51,37,160,34,11,25,095,27,08,25,046,15,17,24,183,39*7D
$GPGSV,4,3,14,05,09,257,,09,08,163,28,15,08,322,,01,07,107,16*70
$GPGSV,4,4,14,20,06,302,,193,00,293,*4A
$GPRMC,232717.000,A,4404.1237965,N,12118.8472427,W,000.0,159.2,280316,,,D*70
$GPVTG,159.2,T,,M,000.0,N,000.0,K,D*07
$GPZDA,232717.000,28,03,2016,00,00*58
$GPGST,232717.000,1.5,74.0,9.0,-41.8,0.3,0.3,0.6*4D
$PSTI,030,232717.000,A,4404.1237965,N,12118.8472427,W,1132.558,0.00,0.01,0.01,280316,D,0.0,0.0*3C
$GPGGA,232718.000,4404.1237955,N,12118.8472454,W,1,05,2.4,1132.558,M,-20.300,M,,0000*58
$GPGLL,4404.1237955,N,12118.8472454,W,232718.000,A,A*4B
$GPGSA,A,3,28,09,11,08,17,,,,,,,,4.2,2.4,3.5*39
$GPRMC,232718.000,A,4404.1237955,N,12118.8472454,W,000.0,159.2,280316,,,A*7D
$GPVTG,159.2,T,,M,000.0,N,000.0,K,A*02
$GPZDA,232718.000,28,03,2016,00,00*57
$GPGST,232718.000,,,,,,,*44
$PSTI,030,232718.000,A,4404.1237955,N,12118.8472454,W,1132.558,0.00,0.01,0.01,280316,A,0.0,0.0*31
$GPGGA,232719.000,4404.1237930,N,12118.8472522,W,1,06,2.4,1132.559,M,-20.300,M,,0000*58
$GPGLL,4404.1237930,N,12118.8472522,W,232719.000,A,A*49
$GPGSA,A,3,28,09,11,08,17,01,,,,,,,4.2,2.4,3.5*38
$GPRMC,232719.000,A,4404.1237930,N,12118.8472522,W,000.0,159.2,280316,,,A*7F
$GPVTG,159.2,T,,M,000.0,N,000.0,K,A*02
$GPZDA,232719.000,28,03,2016,00,00*56
$GPGST,232719.000,,,,,,,*45
$PSTI,030,232719.000,A,4404.1237930,N,12118.8472522,W,1132.559,0.00,0.01,0.01,280316,A,0.0,0.0*32
$GPGGA,232720.000,4404.1237930,N,12118.8472539,W,1,06,2.4,1132.559,M,-20.300,M,,0000*58
$GPGLL,4404.1237930,N,12118.8472539,W,232720.000,A,A*49
$GPGSA,A,3,28,09,11,08,17,01,,,,,,,4.2,2.4,3.5*38
$GPGSV,4,1,14,30,77,064,14,28,70,265,21,07,48,101,28,13,41,305,16*75
$GPGSV,4,2,14,51,37,160,34,11,25,095,27,08,25,046,15,17,24,183,40*73
$GPGSV,4,3,14,05,09,257,,09,08,163,27,15,08,322,,01,07,107,16*7F
$GPGSV,4,4,14,20,06,302,,193,00,293,*4A
$GPRMC,232720.000,A,4404.1237930,N,12118.8472539,W,000.0,159.2,280316,,,A*7F
$GPVTG,159.2,T,,M,000.0,N,000.0,K,A*02
$GPZDA,232720.000,28,03,2016,00,00*5C
$GPGST,232720.000,,,,,,,*4F
$PSTI,030,232720.000,A,4404.1237930,N,12118.8472539,W,1132.559,0.00,0.01,0.01,280316,A,0.0,0.0*32
$GPGGA,232721.000,4404.1237909,N,12118.8472519,W,2,05,5.6,1132.559,M,-20.300,M,,0000*54
$GPGLL,4404.1237909,N,12118.8472519,W,232721.000,A,D*45
$GPGSA,A,3,28,09,11,17,01,,,,,,,,9.4,5.6,7.5*3A
$GPRMC,232721.000,A,4404.1237909,N,12118.8472519,W,000.0,159.2,280316,,,D*73
$GPVTG,159.2,T,,M,000.0,N,000.0,K,D*07
$GPZDA,232721.000,28,03,2016,00,00*5D
$GPGST,232721.000,2.5,89.9,9.1,-41.0,0.3,0.3,0.6*49
$PSTI,030,232721.000,A,4404.1237909,N,12118.8472519,W,1132.559,-0.02,0.06,0.01,280316,D,0.0,0.0*16
$GPGGA,232722.000,4404.1237919,N,12118.8472507,W,1,05,5.6,1132.559,M,-20.300,M,,0000*5A
$GPGLL,4404.1237919,N,12118.8472507,W,232722.000,A,A*4D
$GPGSA,A,3,28,09,11,17,01,,,,,,,,9.4,5.6,7.5*3A
$GPRMC,232722.000,A,4404.1237919,N,12118.8472507,W,000.0,159.2,280316,,,A*7B
$GPVTG,159.2,T,,M,000.0,N,000.0,K,A*02
$GPZDA,232722.000,28,03,2016,00,00*5E
$GPGST,232722.000,,,,,,,*4D
$PSTI,030,232722.000,A,4404.1237919,N,12118.8472507,W,1132.559,-0.02,0.06,0.01,280316,A,0.0,0.0*1E
