# Name: skytraq
# Description: Skytraq S2525F8-BD-RTK DGPS NMEA
# Submitter: Gary E. Miller <gem@rellim.com>
# Date: 2016-04-06
# Location: Bend, OR, USA
#
# Notes: With valid DGPS fix
#
{"class":"VERSION","release":"3.17~dev","rev":"release-3.16-224-g75d069e","proto_major":3,"proto_minor":12}
{"class":"DEVICES","devices":[{"class":"DEVICE","path":"/dev/ttyUSB0","driver":"NMEA0183","subtype":"Skytraq","activated":"2016-04-07T01:08:40.097Z","flags":1,"native":0,"bps":115200,"parity":"N","stopbits":1,"cycle":1.00}]}
{"class":"WATCH","enable":true,"json":true,"nmea":false,"raw":0,"scaled":false,"timing":false,"split24":false,"pps":false}
{"class":"GST","device":"/dev/ttyUSB0","time":"2016-04-07T04:09:22.000Z","rms":8.100,"major":35.300,"minor":5.500,"orient":-5.700,"lat":0.400,"lon":0.300,"alt":0.700}
{"class":"TPV","device":"/dev/ttyUSB0","status":2,"mode":3,"time":"2016-04-07T01:08:41.000Z","ept":0.005,"lat":44.068774263,"lon":-121.314123212,"alt":1137.595,"epx":4.011,"epy":4.110,"epv":18.975,"track":180.0000,"speed":0.020,"climb":0.080,"eps":8.22,"epc":37.95}
{"class":"GST","device":"/dev/ttyUSB0","time":"2016-04-07T04:09:24.000Z","rms":10.100,"major":41.600,"minor":6.200,"orient":-6.000,"lat":0.400,"lon":0.300,"alt":0.700}
{"class":"TPV","device":"/dev/ttyUSB0","status":2,"mode":3,"time":"2016-04-07T01:08:42.000Z","ept":0.005,"lat":44.068774330,"lon":-121.314123235,"alt":1137.587,"epx":4.011,"epy":4.110,"epv":18.975,"track":180.0000,"speed":0.040,"climb":0.100,"eps":8.22,"epc":37.95}
{"class":"SKY","device":"/dev/ttyUSB0","xdop":1.07,"ydop":1.10,"vdop":3.30,"tdop":1.50,"hdop":2.40,"gdop":2.78,"pdop":4.10,"satellites":[{"PRN":17,"el":81,"az":86,"ss":30,"used":true},{"PRN":19,"el":61,"az":207,"ss":24,"used":true},{"PRN":28,"el":50,"az":67,"ss":22,"used":true},{"PRN":133,"el":37,"az":147,"ss":31,"used":false},{"PRN":13,"el":30,"az":223,"ss":33,"used":true},{"PRN":24,"el":28,"az":310,"ss":19,"used":false},{"PRN":15,"el":28,"az":268,"ss":22,"used":false},{"PRN":30,"el":21,"az":139,"ss":35,"used":true},{"PRN":1,"el":21,"az":48,"ss":9,"used":false},{"PRN":6,"el":18,"az":160,"ss":35,"used":true},{"PRN":11,"el":8,"az":40,"ss":0,"used":false},{"PRN":12,"el":3,"az":275,"ss":0,"used":false},{"PRN":211,"el":62,"az":63,"ss":25,"used":true},{"PRN":212,"el":10,"az":43,"ss":0,"used":false},{"PRN":206,"el":6,"az":307,"ss":0,"used":false},{"PRN":209,"el":5,"az":333,"ss":0,"used":false}]}
{"class":"GST","device":"/dev/ttyUSB0","time":"2016-04-07T04:09:26.000Z","rms":12.300,"major":32.700,"minor":6.200,"orient":-7.300,"lat":0.400,"lon":0.300,"alt":0.700}
{"class":"TPV","device":"/dev/ttyUSB0","status":2,"mode":3,"time":"2016-04-07T01:08:43.000Z","ept":0.005,"lat":44.068774492,"lon":-121.314123235,"alt":1137.582,"epx":4.011,"epy":4.110,"epv":18.975,"track":270.0000,"speed":0.020,"climb":0.030,"eps":8.22,"epc":37.95}
{"class":"GST","device":"/dev/ttyUSB0","time":"2016-04-07T04:09:28.000Z","rms":11.800,"major":32.600,"minor":6.200,"orient":-7.300,"lat":0.400,"lon":0.300,"alt":0.700}
{"class":"TPV","device":"/dev/ttyUSB0","status":2,"mode":3,"time":"2016-04-07T01:08:44.000Z","ept":0.005,"lat":44.068774637,"lon":-121.314123257,"alt":1137.573,"epx":4.011,"epy":4.110,"epv":18.975,"track":296.5651,"speed":0.022,"climb":0.020,"eps":8.22,"epc":37.95}
{"class":"GST","device":"/dev/ttyUSB0","time":"2016-04-07T04:09:30.000Z","rms":10.600,"major":50.200,"minor":6.200,"orient":-5.500,"lat":0.400,"lon":0.300,"alt":0.700}
{"class":"TPV","device":"/dev/ttyUSB0","status":2,"mode":3,"time":"2016-04-07T01:08:45.000Z","ept":0.005,"lat":44.068774703,"lon":-121.314123372,"alt":1137.562,"epx":4.011,"epy":4.110,"epv":18.975,"track":296.5651,"speed":0.022,"climb":0.020,"eps":8.22,"epc":37.95}
{"class":"SKY","device":"/dev/ttyUSB0","xdop":1.07,"ydop":1.10,"vdop":3.30,"tdop":1.50,"hdop":2.40,"gdop":2.78,"pdop":4.10,"satellites":[{"PRN":17,"el":80,"az":84,"ss":30,"used":true},{"PRN":19,"el":61,"az":207,"ss":24,"used":true},{"PRN":28,"el":50,"az":67,"ss":22,"used":true},{"PRN":133,"el":37,"az":147,"ss":31,"used":false},{"PRN":13,"el":30,"az":223,"ss":32,"used":true},{"PRN":24,"el":28,"az":310,"ss":18,"used":false},{"PRN":15,"el":28,"az":268,"ss":22,"used":false},{"PRN":30,"el":21,"az":139,"ss":34,"used":true},{"PRN":1,"el":21,"az":48,"ss":0,"used":false},{"PRN":6,"el":18,"az":160,"ss":35,"used":true},{"PRN":11,"el":8,"az":40,"ss":0,"used":false},{"PRN":12,"el":3,"az":275,"ss":0,"used":false},{"PRN":211,"el":62,"az":63,"ss":25,"used":true},{"PRN":212,"el":10,"az":43,"ss":0,"used":false},{"PRN":206,"el":6,"az":307,"ss":0,"used":false},{"PRN":209,"el":5,"az":333,"ss":0,"used":false}]}
{"class":"GST","device":"/dev/ttyUSB0","time":"2016-04-07T04:09:32.000Z","rms":10.500,"major":35.600,"minor":6.300,"orient":-6.400,"lat":0.400,"lon":0.300,"alt":0.700}
{"class":"TPV","device":"/dev/ttyUSB0","status":2,"mode":3,"time":"2016-04-07T01:08:46.000Z","ept":0.005,"lat":44.068774757,"lon":-121.314123472,"alt":1137.551,"epx":4.011,"epy":4.110,"epv":18.975,"track":270.0000,"speed":0.020,"climb":0.040,"eps":8.22,"epc":37.95}
{"class":"GST","device":"/dev/ttyUSB0","time":"2016-04-07T04:09:34.000Z","rms":11.100,"major":32.600,"minor":6.200,"orient":-7.300,"lat":0.400,"lon":0.300,"alt":0.700}
{"class":"TPV","device":"/dev/ttyUSB0","status":2,"mode":3,"time":"2016-04-07T01:08:47.000Z","ept":0.005,"lat":44.068774932,"lon":-121.314123487,"alt":1137.545,"epx":4.011,"epy":4.110,"epv":18.975,"track":333.4349,"speed":0.022,"climb":0.010,"eps":8.22,"epc":37.95}
{"class":"GST","device":"/dev/ttyUSB0","time":"2016-04-07T04:09:36.000Z","rms":11.700,"major":33.300,"minor":6.200,"orient":-7.100,"lat":0.400,"lon":0.300,"alt":0.700}
{"class":"TPV","device":"/dev/ttyUSB0","status":2,"mode":3,"time":"2016-04-07T01:08:48.000Z","ept":0.005,"lat":44.068775127,"lon":-121.314123560,"alt":1137.539,"epx":4.011,"epy":4.110,"epv":18.975,"track":348.6901,"speed":0.051,"climb":0.010,"eps":8.22,"epc":37.95}
{"class":"SKY","device":"/dev/ttyUSB0","xdop":1.07,"ydop":1.10,"vdop":3.30,"tdop":1.50,"hdop":2.40,"gdop":2.78,"pdop":4.10,"satellites":[{"PRN":17,"el":80,"az":84,"ss":29,"used":true},{"PRN":19,"el":62,"az":207,"ss":25,"used":true},{"PRN":28,"el":50,"az":67,"ss":21,"used":true},{"PRN":133,"el":37,"az":147,"ss":31,"used":false},{"PRN":13,"el":30,"az":223,"ss":33,"used":true},{"PRN":24,"el":28,"az":310,"ss":18,"used":false},{"PRN":15,"el":28,"az":268,"ss":22,"used":false},{"PRN":30,"el":21,"az":139,"ss":34,"used":true},{"PRN":1,"el":21,"az":48,"ss":0,"used":false},{"PRN":6,"el":18,"az":160,"ss":35,"used":true},{"PRN":11,"el":8,"az":40,"ss":0,"used":false},{"PRN":12,"el":3,"az":275,"ss":0,"used":false},{"PRN":211,"el":62,"az":63,"ss":25,"used":true},{"PRN":212,"el":10,"az":43,"ss":0,"used":false},{"PRN":206,"el":6,"az":307,"ss":0,"used":false},{"PRN":209,"el":5,"az":333,"ss":0,"used":false}]}
{"class":"GST","device":"/dev/ttyUSB0","time":"2016-04-07T04:09:38.000Z","rms":11.200,"major":35.500,"minor":6.300,"orient":-6.400,"lat":0.400,"lon":0.300,"alt":0.700}
{"class":"TPV","device":"/dev/ttyUSB0","status":2,"mode":3,"time":"2016-04-07T01:08:49.000Z","ept":0.005,"lat":44.068775228,"lon":-121.314123675,"alt":1137.528,"epx":4.011,"epy":4.110,"epv":18.975,"track":341.5651,"speed":0.032,"climb":0.020,"eps":8.22,"epc":37.95}
{"class":"GST","device":"/dev/ttyUSB0","time":"2016-04-07T04:09:40.000Z","rms":11.900,"major":32.500,"minor":6.200,"orient":-7.300,"lat":0.400,"lon":0.300,"alt":0.700}
{"class":"TPV","device":"/dev/ttyUSB0","status":2,"mode":3,"time":"2016-04-07T01:08:50.000Z","ept":0.005,"lat":44.068775457,"lon":-121.314123753,"alt":1137.523,"epx":4.011,"epy":4.110,"epv":18.975,"track":348.6901,"speed":0.051,"climb":-0.020,"eps":8.22,"epc":37.95}
{"class":"GST","device":"/dev/ttyUSB0","time":"2016-04-07T04:09:42.000Z","rms":11.200,"major":32.500,"minor":6.200,"orient":-7.300,"lat":0.400,"lon":0.300,"alt":0.700}
{"class":"TPV","device":"/dev/ttyUSB0","status":2,"mode":3,"time":"2016-04-07T01:08:51.000Z","ept":0.005,"lat":44.068775710,"lon":-121.314123738,"alt":1137.524,"epx":4.011,"epy":4.110,"epv":18.975,"track":344.0546,"speed":0.073,"climb":-0.040,"eps":8.22,"epc":37.95}
{"class":"SKY","device":"/dev/ttyUSB0","xdop":1.07,"ydop":1.10,"vdop":3.30,"tdop":1.50,"hdop":2.40,"gdop":2.78,"pdop":4.10,"satellites":[{"PRN":17,"el":80,"az":84,"ss":29,"used":true},{"PRN":19,"el":62,"az":207,"ss":24,"used":true},{"PRN":28,"el":50,"az":67,"ss":21,"used":true},{"PRN":133,"el":37,"az":147,"ss":31,"used":false},{"PRN":13,"el":30,"az":223,"ss":33,"used":true},{"PRN":24,"el":28,"az":310,"ss":19,"used":false},{"PRN":15,"el":28,"az":268,"ss":22,"used":false},{"PRN":30,"el":21,"az":139,"ss":35,"used":true},{"PRN":1,"el":21,"az":48,"ss":12,"used":false},{"PRN":6,"el":18,"az":160,"ss":36,"used":true},{"PRN":11,"el":8,"az":40,"ss":0,"used":false},{"PRN":12,"el":3,"az":275,"ss":0,"used":false},{"PRN":211,"el":62,"az":63,"ss":25,"used":true},{"PRN":212,"el":10,"az":43,"ss":0,"used":false},{"PRN":206,"el":6,"az":307,"ss":0,"used":false},{"PRN":209,"el":5,"az":333,"ss":0,"used":false}]}
{"class":"GST","device":"/dev/ttyUSB0","time":"2016-04-07T04:09:44.000Z","rms":8.900,"major":35.500,"minor":6.400,"orient":-6.400,"lat":0.400,"lon":0.300,"alt":0.700}
{"class":"TPV","device":"/dev/ttyUSB0","status":2,"mode":3,"time":"2016-04-07T01:08:52.000Z","ept":0.005,"lat":44.068775890,"lon":-121.314123783,"alt":1137.524,"epx":4.011,"epy":4.110,"epv":18.975,"track":341.5651,"speed":0.063,"climb":-0.020,"eps":8.22,"epc":37.95}
{"class":"GST","device":"/dev/ttyUSB0","time":"2016-04-07T04:09:46.000Z","rms":10.900,"major":32.500,"minor":6.200,"orient":-7.300,"lat":0.400,"lon":0.300,"alt":0.700}
{"class":"TPV","device":"/dev/ttyUSB0","status":2,"mode":3,"time":"2016-04-07T01:08:53.000Z","ept":0.005,"lat":44.068776115,"lon":-121.314123745,"alt":1137.523,"epx":4.011,"epy":4.110,"epv":18.975,"track":333.4349,"speed":0.022,"climb":0.020,"eps":8.22,"epc":37.95}
{"class":"GST","device":"/dev/ttyUSB0","time":"2016-04-07T04:09:48.000Z","rms":10.300,"major":38.700,"minor":5.500,"orient":-5.500,"lat":0.400,"lon":0.300,"alt":0.700}
{"class":"TPV","device":"/dev/ttyUSB0","status":2,"mode":3,"time":"2016-04-07T01:08:54.000Z","ept":0.005,"lat":44.068776380,"lon":-121.314123740,"alt":1137.525,"epx":4.011,"epy":4.110,"epv":21.850,"track":345.9638,"speed":0.041,"climb":0.010,"eps":8.22,"epc":40.82}
{"class":"SKY","device":"/dev/ttyUSB0","xdop":1.07,"ydop":1.10,"vdop":3.30,"tdop":1.50,"hdop":2.40,"gdop":2.78,"pdop":4.10,"satellites":[{"PRN":17,"el":80,"az":84,"ss":29,"used":true},{"PRN":19,"el":62,"az":207,"ss":25,"used":true},{"PRN":28,"el":50,"az":67,"ss":20,"used":true},{"PRN":133,"el":37,"az":147,"ss":31,"used":false},{"PRN":13,"el":30,"az":223,"ss":33,"used":true},{"PRN":24,"el":28,"az":310,"ss":18,"used":false},{"PRN":15,"el":28,"az":268,"ss":22,"used":false},{"PRN":30,"el":21,"az":139,"ss":35,"used":true},{"PRN":1,"el":21,"az":48,"ss":14,"used":false},{"PRN":6,"el":18,"az":160,"ss":36,"used":true},{"PRN":11,"el":8,"az":40,"ss":0,"used":false},{"PRN":12,"el":3,"az":275,"ss":0,"used":false},{"PRN":211,"el":62,"az":63,"ss":25,"used":true},{"PRN":212,"el":10,"az":43,"ss":0,"used":false},{"PRN":206,"el":6,"az":307,"ss":0,"used":false},{"PRN":209,"el":5,"az":333,"ss":0,"used":false}]}
{"class":"GST","device":"/dev/ttyUSB0","time":"2016-04-07T04:09:50.000Z","rms":11.000,"major":32.200,"minor":5.600,"orient":-6.600,"lat":0.400,"lon":0.300,"alt":0.700}
{"class":"TPV","device":"/dev/ttyUSB0","status":2,"mode":3,"time":"2016-04-07T01:08:55.000Z","ept":0.005,"lat":44.068776635,"lon":-121.314123797,"alt":1137.524,"epx":4.011,"epy":4.110,"epv":18.975,"track":350.5377,"speed":0.061,"climb":-0.030,"eps":8.22,"epc":40.82}
{"class":"GST","device":"/dev/ttyUSB0","time":"2016-04-07T04:09:52.000Z","rms":11.300,"major":32.100,"minor":5.600,"orient":-6.600,"lat":0.400,"lon":0.300,"alt":0.700}
{"class":"TPV","device":"/dev/ttyUSB0","status":2,"mode":3,"time":"2016-04-07T01:08:56.000Z","ept":0.005,"lat":44.068776892,"lon":-121.314123948,"alt":1137.521,"epx":4.011,"epy":4.110,"epv":18.975,"track":344.0546,"speed":0.073,"climb":-0.050,"eps":8.22,"epc":37.95}
{"class":"GST","device":"/dev/ttyUSB0","time":"2016-04-07T04:09:54.000Z","rms":11.600,"major":44.400,"minor":6.100,"orient":-6.500,"lat":0.400,"lon":0.300,"alt":0.700}
{"class":"TPV","device":"/dev/ttyUSB0","status":2,"mode":3,"time":"2016-04-07T01:08:57.000Z","ept":0.005,"lat":44.068777150,"lon":-121.314124055,"alt":1137.520,"epx":4.011,"epy":4.110,"epv":18.975,"track":344.0546,"speed":0.073,"climb":-0.050,"eps":8.22,"epc":37.95}
{"class":"SKY","device":"/dev/ttyUSB0","xdop":1.07,"ydop":1.10,"vdop":3.30,"tdop":1.50,"hdop":2.40,"gdop":2.78,"pdop":4.10,"satellites":[{"PRN":17,"el":80,"az":84,"ss":28,"used":true},{"PRN":19,"el":62,"az":207,"ss":24,"used":true},{"PRN":28,"el":50,"az":68,"ss":19,"used":true},{"PRN":133,"el":37,"az":147,"ss":31,"used":false},{"PRN":13,"el":30,"az":223,"ss":32,"used":true},{"PRN":24,"el":28,"az":310,"ss":18,"used":false},{"PRN":15,"el":28,"az":268,"ss":22,"used":false},{"PRN":30,"el":21,"az":139,"ss":34,"used":true},{"PRN":1,"el":21,"az":48,"ss":16,"used":false},{"PRN":6,"el":18,"az":160,"ss":35,"used":true},{"PRN":11,"el":8,"az":40,"ss":0,"used":false},{"PRN":12,"el":3,"az":275,"ss":0,"used":false},{"PRN":211,"el":62,"az":63,"ss":26,"used":true},{"PRN":212,"el":10,"az":43,"ss":0,"used":false},{"PRN":206,"el":6,"az":307,"ss":0,"used":false},{"PRN":209,"el":5,"az":333,"ss":0,"used":false}]}
{"class":"GST","device":"/dev/ttyUSB0","time":"2016-04-07T04:09:56.000Z","rms":11.700,"major":46.600,"minor":6.400,"orient":-5.100,"lat":0.400,"lon":0.300,"alt":0.700}
{"class":"TPV","device":"/dev/ttyUSB0","status":2,"mode":3,"time":"2016-04-07T01:08:58.000Z","ept":0.005,"lat":44.068777377,"lon":-121.314124108,"alt":1137.517,"epx":4.011,"epy":4.110,"epv":18.975,"track":251.5651,"speed":0.032,"climb":-0.020,"eps":8.22,"epc":37.95}
{"class":"GST","device":"/dev/ttyUSB0","time":"2016-04-07T04:09:58.000Z","rms":10.000,"major":57.600,"minor":6.100,"orient":-5.400,"lat":0.400,"lon":0.300,"alt":0.700}
{"class":"TPV","device":"/dev/ttyUSB0","status":2,"mode":3,"time":"2016-04-07T01:08:59.000Z","ept":0.005,"lat":44.068777510,"lon":-121.314124238,"alt":1137.510,"epx":4.011,"epy":4.110,"epv":18.975,"track":206.5651,"speed":0.022,"climb":0.030,"eps":8.22,"epc":37.95}
{"class":"GST","device":"/dev/ttyUSB0","time":"2016-04-07T04:10:40.000Z","rms":11.300,"major":44.400,"minor":6.100,"orient":-6.500,"lat":0.400,"lon":0.300,"alt":0.700}
{"class":"TPV","device":"/dev/ttyUSB0","status":2,"mode":3,"time":"2016-04-07T01:09:00.000Z","ept":0.005,"lat":44.068777713,"lon":-121.314124327,"alt":1137.505,"epx":4.011,"epy":4.110,"epv":18.975,"track":206.5651,"speed":0.022,"climb":0.060,"eps":8.22,"epc":37.95}
{"class":"SKY","device":"/dev/ttyUSB0","xdop":1.07,"ydop":1.10,"vdop":3.80,"tdop":1.50,"hdop":2.90,"gdop":2.78,"pdop":4.80,"satellites":[{"PRN":17,"el":80,"az":84,"ss":28,"used":true},{"PRN":19,"el":62,"az":207,"ss":23,"used":true},{"PRN":28,"el":50,"az":68,"ss":17,"used":false},{"PRN":133,"el":37,"az":147,"ss":31,"used":false},{"PRN":13,"el":30,"az":223,"ss":33,"used":true},{"PRN":24,"el":28,"az":310,"ss":17,"used":false},{"PRN":15,"el":28,"az":268,"ss":22,"used":false},{"PRN":30,"el":21,"az":139,"ss":33,"used":true},{"PRN":1,"el":21,"az":48,"ss":15,"used":false},{"PRN":6,"el":18,"az":160,"ss":36,"used":true},{"PRN":11,"el":8,"az":40,"ss":0,"used":false},{"PRN":12,"el":3,"az":275,"ss":0,"used":false},{"PRN":211,"el":62,"az":63,"ss":26,"used":true},{"PRN":212,"el":10,"az":43,"ss":0,"used":false},{"PRN":206,"el":6,"az":307,"ss":0,"used":false},{"PRN":209,"el":5,"az":333,"ss":0,"used":false}]}
{"class":"GST","device":"/dev/ttyUSB0","time":"2016-04-07T04:10:42.000Z","rms":11.700,"major":38.800,"minor":6.400,"orient":-6.600,"lat":0.400,"lon":0.300,"alt":0.700}
{"class":"TPV","device":"/dev/ttyUSB0","status":2,"mode":3,"time":"2016-04-07T01:09:01.000Z","ept":0.005,"lat":44.068777908,"lon":-121.314124372,"alt":1137.500,"epx":4.011,"epy":4.110,"epv":18.975,"track":206.5651,"speed":0.022,"climb":0.070,"eps":8.22,"epc":37.95}
{"class":"GST","device":"/dev/ttyUSB0","time":"2016-04-07T04:10:44.000Z","rms":11.700,"major":38.800,"minor":6.400,"orient":-6.600,"lat":0.400,"lon":0.300,"alt":0.700}
{"class":"TPV","device":"/dev/ttyUSB0","status":2,"mode":3,"time":"2016-04-07T01:09:02.000Z","ept":0.005,"lat":44.068778097,"lon":-121.314124435,"alt":1137.494,"epx":4.011,"epy":4.110,"epv":21.850,"track":225.0000,"speed":0.014,"climb":0.060,"eps":8.22,"epc":40.82}
{"class":"GST","device":"/dev/ttyUSB0","time":"2016-04-07T04:10:46.000Z","rms":11.000,"major":38.600,"minor":5.800,"orient":-6.100,"lat":0.400,"lon":0.300,"alt":0.700}
{"class":"TPV","device":"/dev/ttyUSB0","status":2,"mode":3,"time":"2016-04-07T01:09:03.000Z","ept":0.005,"lat":44.068778258,"lon":-121.314124445,"alt":1137.489,"epx":4.011,"epy":4.110,"epv":21.850,"track":270.0000,"speed":0.010,"climb":0.050,"eps":8.22,"epc":43.70}
{"class":"SKY","device":"/dev/ttyUSB0","xdop":1.07,"ydop":1.10,"vdop":3.80,"tdop":1.50,"hdop":2.90,"gdop":2.78,"pdop":4.80,"satellites":[{"PRN":17,"el":80,"az":84,"ss":28,"used":true},{"PRN":19,"el":62,"az":207,"ss":23,"used":true},{"PRN":28,"el":50,"az":68,"ss":16,"used":false},{"PRN":133,"el":37,"az":147,"ss":31,"used":false},{"PRN":13,"el":30,"az":223,"ss":33,"used":true},{"PRN":24,"el":28,"az":310,"ss":19,"used":false},{"PRN":15,"el":28,"az":268,"ss":22,"used":false},{"PRN":30,"el":21,"az":139,"ss":33,"used":true},{"PRN":1,"el":21,"az":48,"ss":16,"used":false},{"PRN":6,"el":18,"az":160,"ss":35,"used":true},{"PRN":11,"el":8,"az":40,"ss":0,"used":false},{"PRN":12,"el":3,"az":275,"ss":0,"used":false},{"PRN":211,"el":62,"az":63,"ss":25,"used":true},{"PRN":212,"el":10,"az":43,"ss":0,"used":false},{"PRN":206,"el":6,"az":307,"ss":0,"used":false},{"PRN":209,"el":5,"az":333,"ss":0,"used":false}]}
{"class":"GST","device":"/dev/ttyUSB0","time":"2016-04-07T04:10:48.000Z","rms":9.300,"major":38.500,"minor":5.700,"orient":-6.100,"lat":0.400,"lon":0.300,"alt":0.700}
{"class":"TPV","device":"/dev/ttyUSB0","status":2,"mode":3,"time":"2016-04-07T01:09:04.000Z","ept":0.005,"lat":44.068778443,"lon":-121.314124463,"alt":1137.487,"epx":4.011,"epy":4.110,"epv":21.850,"track":315.0000,"speed":0.014,"climb":0.040,"eps":8.22,"epc":43.70}
{"class":"GST","device":"/dev/ttyUSB0","time":"2016-04-07T04:10:50.000Z","rms":10.300,"major":38.500,"minor":5.700,"orient":-6.100,"lat":0.400,"lon":0.300,"alt":0.700}
{"class":"TPV","device":"/dev/ttyUSB0","status":2,"mode":3,"time":"2016-04-07T01:09:05.000Z","ept":0.005,"lat":44.068778613,"lon":-121.314124475,"alt":1137.482,"epx":4.011,"epy":4.110,"epv":21.850,"track":315.0000,"speed":0.014,"climb":0.030,"eps":8.22,"epc":43.70}
{"class":"GST","device":"/dev/ttyUSB0","time":"2016-04-07T04:10:52.000Z","rms":10.800,"major":38.500,"minor":5.700,"orient":-6.100,"lat":0.400,"lon":0.300,"alt":0.700}
{"class":"TPV","device":"/dev/ttyUSB0","status":2,"mode":3,"time":"2016-04-07T01:09:06.000Z","ept":0.005,"lat":44.068778760,"lon":-121.314124595,"alt":1137.473,"epx":4.011,"epy":4.110,"epv":21.850,"track":333.4349,"speed":0.022,"climb":0.030,"eps":8.22,"epc":43.70}
{"class":"SKY","device":"/dev/ttyUSB0","xdop":1.07,"ydop":1.10,"vdop":3.80,"tdop":1.50,"hdop":2.90,"gdop":2.78,"pdop":4.80,"satellites":[{"PRN":17,"el":80,"az":84,"ss":29,"used":true},{"PRN":19,"el":62,"az":207,"ss":23,"used":true},{"PRN":28,"el":50,"az":68,"ss":15,"used":false},{"PRN":133,"el":37,"az":147,"ss":31,"used":false},{"PRN":13,"el":30,"az":223,"ss":34,"used":true},{"PRN":24,"el":28,"az":310,"ss":20,"used":false},{"PRN":15,"el":28,"az":268,"ss":21,"used":false},{"PRN":30,"el":21,"az":139,"ss":33,"used":true},{"PRN":1,"el":21,"az":48,"ss":17,"used":false},{"PRN":6,"el":18,"az":160,"ss":35,"used":true},{"PRN":11,"el":8,"az":40,"ss":0,"used":false},{"PRN":12,"el":3,"az":275,"ss":0,"used":false},{"PRN":211,"el":62,"az":63,"ss":27,"used":true},{"PRN":212,"el":10,"az":43,"ss":0,"used":false},{"PRN":206,"el":6,"az":307,"ss":0,"used":false},{"PRN":209,"el":5,"az":333,"ss":0,"used":false}]}
{"class":"GST","device":"/dev/ttyUSB0","time":"2016-04-07T04:10:54.000Z","rms":11.100,"major":44.100,"minor":5.400,"orient":-5.900,"lat":0.400,"lon":0.300,"alt":0.700}
{"class":"TPV","device":"/dev/ttyUSB0","status":2,"mode":3,"time":"2016-04-07T01:09:07.000Z","ept":0.005,"lat":44.068778998,"lon":-121.314124688,"alt":1137.466,"epx":4.011,"epy":4.110,"epv":21.850,"track":326.3099,"speed":0.036,"climb":0.010,"eps":8.22,"epc":43.70}
{"class":"GST","device":"/dev/ttyUSB0","time":"2016-04-07T04:10:56.000Z","rms":10.900,"major":42.500,"minor":5.400,"orient":-6.000,"lat":0.500,"lon":0.300,"alt":0.700}
{"class":"TPV","device":"/dev/ttyUSB0","status":2,"mode":3,"time":"2016-04-07T01:09:08.000Z","ept":0.005,"lat":44.068779158,"lon":-121.314124812,"alt":1137.456,"epx":4.011,"epy":4.110,"epv":21.850,"track":270.0000,"speed":0.010,"climb":0.050,"eps":8.22,"epc":43.70}
{"class":"GST","device":"/dev/ttyUSB0","time":"2016-04-07T04:10:58.000Z","rms":13.200,"major":38.100,"minor":5.400,"orient":-6.700,"lat":0.500,"lon":0.300,"alt":0.700}
{"class":"TPV","device":"/dev/ttyUSB0","status":2,"mode":3,"time":"2016-04-07T01:09:09.000Z","ept":0.005,"lat":44.068779390,"lon":-121.314124925,"alt":1137.445,"epx":4.011,"epy":4.110,"epv":9.775,"track":270.0000,"speed":0.010,"climb":0.050,"eps":8.22,"epc":31.62}
{"class":"SKY","device":"/dev/ttyUSB0","xdop":1.07,"ydop":1.10,"vdop":1.70,"tdop":1.50,"hdop":1.50,"gdop":2.78,"pdop":2.20,"satellites":[{"PRN":17,"el":80,"az":84,"ss":29,"used":true},{"PRN":19,"el":62,"az":207,"ss":22,"used":true},{"PRN":28,"el":50,"az":68,"ss":13,"used":false},{"PRN":133,"el":37,"az":147,"ss":31,"used":false},{"PRN":13,"el":30,"az":223,"ss":34,"used":true},{"PRN":24,"el":28,"az":310,"ss":19,"used":false},{"PRN":15,"el":28,"az":268,"ss":22,"used":false},{"PRN":30,"el":21,"az":139,"ss":34,"used":true},{"PRN":1,"el":21,"az":48,"ss":19,"used":true},{"PRN":6,"el":18,"az":160,"ss":35,"used":true},{"PRN":11,"el":8,"az":40,"ss":0,"used":false},{"PRN":12,"el":3,"az":275,"ss":0,"used":false},{"PRN":211,"el":62,"az":63,"ss":27,"used":true},{"PRN":212,"el":10,"az":43,"ss":0,"used":false},{"PRN":206,"el":6,"az":307,"ss":0,"used":false},{"PRN":209,"el":5,"az":333,"ss":0,"used":false}]}
{"class":"GST","device":"/dev/ttyUSB0","time":"2016-04-07T04:11:00.000Z","rms":13.900,"major":40.000,"minor":5.400,"orient":-6.900,"lat":0.500,"lon":0.300,"alt":0.700}
{"class":"TPV","device":"/dev/ttyUSB0","status":2,"mode":3,"time":"2016-04-07T01:09:10.000Z","ept":0.005,"lat":44.068779635,"lon":-121.314125033,"alt":1137.436,"epx":4.011,"epy":4.110,"epv":9.775,"track":333.4349,"speed":0.022,"climb":0.020,"eps":8.22,"epc":19.55}
