# Name: skytraq
# Description: Skytraq S2525F8-BD-RTK DGPS NMEA
# Submitter: Gary E. Miller <gem@rellim.com>
# Date: 2016-04-07
# Location: Bend, OR, USA
#
# Notes: With valid DGPS fix, and a Beidou sat
$GPGGA,213121.000,4404.1295864,N,12118.8685453,W,2,07,1.2,1102.537,M,-20.300,M,,0000*5F
$GPGLL,4404.1295864,N,12118.8685453,W,213121.000,A,D*47
$GPGSA,A,3,09,23,08,11,27,28,,,,,,,2.5,1.2,2.2*39
$BDGSA,A,3,214,,,,,,,,,,,,2.5,1.2,2.2*10
$GPRMC,213121.000,A,4404.1295864,N,12118.8685453,W,000.0,122.7,070416,,,D*72
$GPVTG,122.7,T,,M,000.0,N,000.0,K,D*0E
$GPZDA,213121.000,07,04,2016,00,00*52
$GPGST,213121.000,16.1,22.2,10.2,2.0,0.4,0.6,1.4*57
$PSTI,030,213121.000,A,4404.1295864,N,12118.8685453,W,1102.537,-0.01,0.01,0.03,070416,D,0.0,0.0*13
$GPGGA,213122.000,4404.1296266,N,12118.8685655,W,2,08,1.2,1102.396,M,-20.300,M,,0000*51
$GPGLL,4404.1296266,N,12118.8685655,W,213122.000,A,D*4B
$GPGSA,A,3,09,23,08,11,27,30,28,,,,,,2.4,1.2,2.1*38
$BDGSA,A,3,214,,,,,,,,,,,,2.4,1.2,2.1*12
$GPRMC,213122.000,A,4404.1296266,N,12118.8685655,W,000.0,122.7,070416,,,D*7E
$GPVTG,122.7,T,,M,000.0,N,000.0,K,D*0E
$GPZDA,213122.000,07,04,2016,00,00*51
$GPGST,213122.000,15.7,22.8,11.6,-1.1,0.4,0.6,1.3*76
$PSTI,030,213122.000,A,4404.1296266,N,12118.8685655,W,1102.396,-0.00,-0.06,0.09,070416,D,0.0,0.0*33
$GPGGA,213123.000,4404.1296473,N,12118.8685846,W,2,08,1.2,1102.317,M,-20.300,M,,0000*57
$GPGLL,4404.1296473,N,12118.8685846,W,213123.000,A,D*44
$GPGSA,A,3,09,23,08,11,27,30,28,,,,,,2.4,1.2,2.1*38
$BDGSA,A,3,214,,,,,,,,,,,,2.4,1.2,2.1*12
$GPGSV,4,1,13,07,73,042,17,30,64,305,15,09,42,158,28,08,40,079,23*74
$GPGSV,4,2,13,28,39,225,27,51,37,160,31,05,23,288,,27,23,047,20*7B
$GPGSV,4,3,13,23,12,147,29,13,12,315,,193,08,299,,11,06,123,28*4C
$GPGSV,4,4,13,20,03,330,*4A
$BDGSV,1,1,03,214,34,246,25,206,08,330,,212,04,172,26*65
$GPRMC,213123.000,A,4404.1296473,N,12118.8685846,W,000.0,122.7,070416,,,D*71
$GPVTG,122.7,T,,M,000.0,N,000.0,K,D*0E
$GPZDA,213123.000,07,04,2016,00,00*50
$GPGST,213123.000,12.2,20.4,9.6,-8.2,0.4,0.6,1.3*48
$PSTI,030,213123.000,A,4404.1296473,N,12118.8685846,W,1102.317,0.02,-0.04,0.12,070416,D,0.0,0.0*12
$GPGGA,213124.000,4404.1296522,N,12118.8685802,W,2,08,1.2,1102.312,M,-20.300,M,,0000*50
$GPGLL,4404.1296522,N,12118.8685802,W,213124.000,A,D*46
$GPGSA,A,3,09,23,08,07,11,27,28,,,,,,2.1,1.2,1.7*3C
$BDGSA,A,3,214,,,,,,,,,,,,2.1,1.2,1.7*12
$GPRMC,213124.000,A,4404.1296522,N,12118.8685802,W,000.0,122.7,070416,,,D*73
$GPVTG,122.7,T,,M,000.0,N,000.0,K,D*0E
$GPZDA,213124.000,07,04,2016,00,00*57
$GPGST,213124.000,11.3,46.1,13.9,9.2,0.4,0.6,1.3*50
$PSTI,030,213124.000,A,4404.1296522,N,12118.8685802,W,1102.312,0.01,-0.05,0.12,070416,D,0.0,0.0*17
$GPGGA,213125.000,4404.1296466,N,12118.8685891,W,2,07,1.2,1102.351,M,-20.300,M,,0000*52
$GPGLL,4404.1296466,N,12118.8685891,W,213125.000,A,D*4C
$GPGSA,A,3,09,23,08,11,27,28,,,,,,,2.5,1.2,2.2*39
$BDGSA,A,3,214,,,,,,,,,,,,2.5,1.2,2.2*10
$GPRMC,213125.000,A,4404.1296466,N,12118.8685891,W,000.0,122.7,070416,,,D*79
$GPVTG,122.7,T,,M,000.0,N,000.0,K,D*0E
$GPZDA,213125.000,07,04,2016,00,00*56
$GPGST,213125.000,11.9,40.9,10.8,11.6,0.4,0.6,1.2*6B
$PSTI,030,213125.000,A,4404.1296466,N,12118.8685891,W,1102.351,0.03,-0.03,0.09,070416,D,0.0,0.0*14
$GPGGA,213126.000,4404.1296456,N,12118.8685796,W,2,07,1.2,1102.363,M,-20.300,M,,0000*5B
$GPGLL,4404.1296456,N,12118.8685796,W,213126.000,A,D*44
$GPGSA,A,3,09,23,08,11,27,28,,,,,,,2.5,1.2,2.2*39
$BDGSA,A,3,214,,,,,,,,,,,,2.5,1.2,2.2*10
$GPGSV,4,1,13,07,73,042,16,30,64,305,14,09,42,158,27,08,40,079,23*7B
$GPGSV,4,2,13,28,39,225,26,51,37,160,31,05,23,288,,27,23,047,20*7A
$GPGSV,4,3,13,23,12,147,30,13,12,315,,193,08,299,,11,06,123,28*44
$GPGSV,4,4,13,20,03,330,*4A
$BDGSV,1,1,03,214,34,246,24,206,08,330,,212,04,172,25*67
$GPRMC,213126.000,A,4404.1296456,N,12118.8685796,W,000.0,122.7,070416,,,D*71
$GPVTG,122.7,T,,M,000.0,N,000.0,K,D*0E
$GPZDA,213126.000,07,04,2016,00,00*55
$GPGST,213126.000,4.5,43.4,16.0,4.8,0.4,0.6,1.2*6A
$PSTI,030,213126.000,A,4404.1296456,N,12118.8685796,W,1102.363,0.03,-0.04,0.10,070416,D,0.0,0.0*12
$GPGGA,213127.000,4404.1296609,N,12118.8685699,W,2,07,1.2,1102.308,M,-20.300,M,,0000*51
$GPGLL,4404.1296609,N,12118.8685699,W,213127.000,A,D*43
$GPGSA,A,3,09,23,08,11,27,28,,,,,,,2.5,1.2,2.2*39
$BDGSA,A,3,214,,,,,,,,,,,,2.5,1.2,2.2*10
$GPRMC,213127.000,A,4404.1296609,N,12118.8685699,W,000.0,122.7,070416,,,D*76
$GPVTG,122.7,T,,M,000.0,N,000.0,K,D*0E
$GPZDA,213127.000,07,04,2016,00,00*54
$GPGST,213127.000,14.9,44.9,13.9,8.2,0.4,0.6,1.1*55
$PSTI,030,213127.000,A,4404.1296609,N,12118.8685699,W,1102.308,0.03,-0.06,0.12,070416,D,0.0,0.0*18
$GPGGA,213128.000,4404.1296549,N,12118.8685599,W,2,07,1.2,1102.336,M,-20.300,M,,0000*57
$GPGLL,4404.1296549,N,12118.8685599,W,213128.000,A,D*48
$GPGSA,A,3,09,23,08,11,27,28,,,,,,,2.5,1.2,2.2*39
$BDGSA,A,3,214,,,,,,,,,,,,2.5,1.2,2.2*10
$GPRMC,213128.000,A,4404.1296549,N,12118.8685599,W,000.0,122.7,070416,,,D*7D
$GPVTG,122.7,T,,M,000.0,N,000.0,K,D*0E
$GPZDA,213128.000,07,04,2016,00,00*5B
$GPGST,213128.000,14.3,27.2,14.5,-0.9,0.4,0.5,1.1*78
$PSTI,030,213128.000,A,4404.1296549,N,12118.8685599,W,1102.336,0.01,-0.09,0.11,070416,D,0.0,0.0*10
$GPGGA,213129.000,4404.1296508,N,12118.8685509,W,2,07,1.2,1102.360,M,-20.300,M,,0000*59
$GPGLL,4404.1296508,N,12118.8685509,W,213129.000,A,D*45
$GPGSA,A,3,09,23,08,11,27,28,,,,,,,2.5,1.2,2.2*39
$BDGSA,A,3,214,,,,,,,,,,,,2.5,1.2,2.2*10
$GPGSV,4,1,13,07,73,042,15,30,64,305,12,09,42,158,27,08,40,079,22*7F
$GPGSV,4,2,13,28,39,225,27,51,37,160,31,05,23,288,,27,23,047,19*71
$GPGSV,4,3,13,23,12,147,29,13,12,315,,193,08,299,,11,06,123,27*43
$GPGSV,4,4,13,20,03,330,*4A
$BDGSV,1,1,03,214,34,246,24,206,08,330,,212,04,172,25*67
$GPRMC,213129.000,A,4404.1296508,N,12118.8685509,W,000.0,122.7,070416,,,D*70
$GPVTG,122.7,T,,M,000.0,N,000.0,K,D*0E
$GPZDA,213129.000,07,04,2016,00,00*5A
$GPGST,213129.000,12.7,23.9,14.9,7.6,0.4,0.5,1.1*5D
$PSTI,030,213129.000,A,4404.1296508,N,12118.8685509,W,1102.360,0.01,-0.06,0.09,070416,D,0.0,0.0*18
$GPGGA,213130.000,4404.1296528,N,12118.8685474,W,2,07,1.2,1102.355,M,-20.300,M,,0000*5E
$GPGLL,4404.1296528,N,12118.8685474,W,213130.000,A,D*44
$GPGSA,A,3,09,23,08,11,27,28,,,,,,,2.5,1.2,2.2*39
$BDGSA,A,3,214,,,,,,,,,,,,2.5,1.2,2.2*10
$GPRMC,213130.000,A,4404.1296528,N,12118.8685474,W,000.0,122.7,070416,,,D*71
$GPVTG,122.7,T,,M,000.0,N,000.0,K,D*0E
$GPZDA,213130.000,07,04,2016,00,00*52
$GPGST,213130.000,12.7,45.5,13.0,8.5,0.4,0.5,1.0*5A
$PSTI,030,213130.000,A,4404.1296528,N,12118.8685474,W,1102.355,0.01,-0.08,0.12,070416,D,0.0,0.0*1B
$GPGGA,213131.000,4404.1296524,N,12118.8685296,W,2,07,1.2,1102.351,M,-20.300,M,,0000*5D
$GPGLL,4404.1296524,N,12118.8685296,W,213131.000,A,D*43
$GPGSA,A,3,09,23,08,11,27,28,,,,,,,2.5,1.2,2.2*39
$BDGSA,A,3,214,,,,,,,,,,,,2.5,1.2,2.2*10
$GPRMC,213131.000,A,4404.1296524,N,12118.8685296,W,000.0,122.7,070416,,,D*76
$GPVTG,122.7,T,,M,000.0,N,000.0,K,D*0E
$GPZDA,213131.000,07,04,2016,00,00*53
$GPGST,213131.000,9.8,49.4,13.7,7.2,0.4,0.5,1.0*6C
$PSTI,030,213131.000,A,4404.1296524,N,12118.8685296,W,1102.351,0.02,-0.12,0.16,070416,D,0.0,0.0*14
$GPGGA,213132.000,4404.1296553,N,12118.8685291,W,2,07,1.6,1102.338,M,-20.300,M,,0000*52
$GPGLL,4404.1296553,N,12118.8685291,W,213132.000,A,D*47
$GPGSA,A,3,09,23,08,11,30,28,,,,,,,3.0,1.6,2.5*38
$BDGSA,A,3,214,,,,,,,,,,,,3.0,1.6,2.5*17
$GPGSV,4,1,13,07,73,042,14,30,64,305,14,09,42,158,29,08,40,079,21*75
$GPGSV,4,2,13,28,39,225,27,51,37,160,31,05,23,288,,27,23,047,18*70
$GPGSV,4,3,13,13,12,315,,23,11,147,29,193,08,299,,11,06,123,27*40
$GPGSV,4,4,13,20,03,330,*4A
$BDGSV,1,1,03,214,34,246,23,206,08,330,,212,04,172,25*60
$GPRMC,213132.000,A,4404.1296553,N,12118.8685291,W,000.0,122.7,070416,,,D*72
$GPVTG,122.7,T,,M,000.0,N,000.0,K,D*0E
$GPZDA,213132.000,07,04,2016,00,00*50
$GPGST,213132.000,14.1,39.6,14.0,9.4,0.4,0.5,0.9*5F
$PSTI,030,213132.000,A,4404.1296553,N,12118.8685291,W,1102.338,0.01,-0.12,0.16,070416,D,0.0,0.0*1C
$GPGGA,213133.000,4404.1296749,N,12118.8685322,W,2,09,1.1,1102.275,M,-20.300,M,,0000*52
$GPGLL,4404.1296749,N,12118.8685322,W,213133.000,A,D*46
$GPGSA,A,3,09,23,08,07,11,27,30,28,,,,,2.1,1.1,1.7*3C
$BDGSA,A,3,214,,,,,,,,,,,,2.1,1.1,1.7*11
$GPRMC,213133.000,A,4404.1296749,N,12118.8685322,W,000.0,122.7,070416,,,D*73
$GPVTG,122.7,T,,M,000.0,N,000.0,K,D*0E
$GPZDA,213133.000,07,04,2016,00,00*51
$GPGST,213133.000,13.0,47.2,13.0,9.0,0.4,0.5,0.9*56
$PSTI,030,213133.000,A,4404.1296749,N,12118.8685322,W,1102.275,0.01,-0.12,0.15,070416,D,0.0,0.0*16
$GPGGA,213134.000,4404.1296723,N,12118.8685215,W,2,09,1.1,1102.293,M,-20.300,M,,0000*54
$GPGLL,4404.1296723,N,12118.8685215,W,213134.000,A,D*48
$GPGSA,A,3,09,23,08,07,11,27,30,28,,,,,2.1,1.1,1.7*3C
$BDGSA,A,3,214,,,,,,,,,,,,2.1,1.1,1.7*11
$GPRMC,213134.000,A,4404.1296723,N,12118.8685215,W,000.0,122.7,070416,,,D*7D
$GPVTG,122.7,T,,M,000.0,N,000.0,K,D*0E
$GPZDA,213134.000,07,04,2016,00,00*56
$GPGST,213134.000,13.4,45.4,13.0,8.5,0.3,0.4,0.8*52
$PSTI,030,213134.000,A,4404.1296723,N,12118.8685215,W,1102.293,0.02,-0.10,0.12,070416,D,0.0,0.0*16
$GPGGA,213135.000,4404.1296693,N,12118.8685040,W,2,08,1.2,1102.320,M,-20.300,M,,0000*56
$GPGLL,4404.1296693,N,12118.8685040,W,213135.000,A,D*41
$GPGSA,A,3,09,23,07,11,27,30,28,,,,,,2.2,1.2,1.8*3B
$BDGSA,A,3,214,,,,,,,,,,,,2.2,1.2,1.8*1E
$GPGSV,4,1,13,07,73,042,16,30,64,305,17,09,42,158,28,08,40,079,20*74
$GPGSV,4,2,13,28,39,225,27,51,37,160,31,05,23,288,,27,23,047,20*7B
$GPGSV,4,3,13,13,12,315,,23,11,147,30,193,08,299,,11,06,123,27*48
$GPGSV,4,4,13,20,03,330,*4A
$BDGSV,1,1,03,214,34,246,23,206,08,330,,212,04,172,24*61
$GPRMC,213135.000,A,4404.1296693,N,12118.8685040,W,000.0,122.7,070416,,,D*74
$GPVTG,122.7,T,,M,000.0,N,000.0,K,D*0E
$GPZDA,213135.000,07,04,2016,00,00*57
$GPGST,213135.000,15.2,45.7,13.1,8.9,0.3,0.4,1.4*50
$PSTI,030,213135.000,A,4404.1296693,N,12118.8685040,W,1102.320,0.03,-0.02,0.07,070416,D,0.0,0.0*10
$GPGGA,213136.000,4404.1296710,N,12118.8684924,W,2,07,1.3,1102.329,M,-20.300,M,,0000*52
$GPGLL,4404.1296710,N,12118.8684924,W,213136.000,A,D*42
$GPGSA,A,3,09,23,11,27,30,28,,,,,,,2.7,1.3,2.4*37
$BDGSA,A,3,214,,,,,,,,,,,,2.7,1.3,2.4*15
$GPRMC,213136.000,A,4404.1296710,N,12118.8684924,W,000.0,122.7,070416,,,D*77
$GPVTG,122.7,T,,M,000.0,N,000.0,K,D*0E
$GPZDA,213136.000,07,04,2016,00,00*54
$GPGST,213136.000,13.5,43.0,13.2,7.7,0.3,0.4,1.3*56
$PSTI,030,213136.000,A,4404.1296710,N,12118.8684924,W,1102.329,0.02,0.04,0.02,070416,D,0.0,0.0*35
$GPGGA,213137.000,4404.1296550,N,12118.8684745,W,2,08,1.2,1102.391,M,-20.300,M,,0000*51
$GPGLL,4404.1296550,N,12118.8684745,W,213137.000,A,D*4C
$GPGSA,A,3,09,23,08,11,27,30,28,,,,,,2.4,1.2,2.1*38
$BDGSA,A,3,214,,,,,,,,,,,,2.4,1.2,2.1*12
$GPRMC,213137.000,A,4404.1296550,N,12118.8684745,W,000.0,122.7,070416,,,D*79
$GPVTG,122.7,T,,M,000.0,N,000.0,K,D*0E
$GPZDA,213137.000,07,04,2016,00,00*55
$GPGST,213137.000,7.9,47.1,15.0,6.0,0.3,0.4,1.3*69
$PSTI,030,213137.000,A,4404.1296550,N,12118.8684745,W,1102.391,0.02,0.01,0.05,070416,D,0.0,0.0*3A
$GPGGA,213138.000,4404.1296587,N,12118.8684709,W,2,09,1.1,1102.380,M,-20.300,M,,0000*5E
$GPGLL,4404.1296587,N,12118.8684709,W,213138.000,A,D*41
$GPGSA,A,3,09,23,08,07,11,27,30,28,,,,,2.1,1.1,1.7*3C
$BDGSA,A,3,214,,,,,,,,,,,,2.1,1.1,1.7*11
$GPGSV,4,1,13,07,73,042,19,30,64,305,16,09,42,158,29,28,40,226,26*77
$GPGSV,4,2,13,08,40,079,19,51,37,160,31,05,23,288,,27,23,047,19*7B
$GPGSV,4,3,13,13,12,315,,23,11,147,31,193,08,299,,11,06,123,26*48
$GPGSV,4,4,13,20,03,330,*4A
$BDGSV,1,1,03,214,34,246,22,206,08,330,,212,04,172,24*60
$GPRMC,213138.000,A,4404.1296587,N,12118.8684709,W,000.0,122.7,070416,,,D*74
$GPVTG,122.7,T,,M,000.0,N,000.0,K,D*0E
$GPZDA,213138.000,07,04,2016,00,00*5A
$GPGST,213138.000,12.1,45.6,12.8,8.7,0.3,0.4,1.2*58
$PSTI,030,213138.000,A,4404.1296587,N,12118.8684709,W,1102.380,0.00,0.01,0.05,070416,D,0.0,0.0*35
$GPGGA,213139.000,4404.1296534,N,12118.8684429,W,2,09,1.1,1102.409,M,-20.300,M,,0000*50
$GPGLL,4404.1296534,N,12118.8684429,W,213139.000,A,D*49
$GPGSA,A,3,09,23,08,07,11,27,30,28,,,,,2.1,1.1,1.7*3C
$BDGSA,A,3,214,,,,,,,,,,,,2.1,1.1,1.7*11
$GPRMC,213139.000,A,4404.1296534,N,12118.8684429,W,000.0,122.7,070416,,,D*7C
$GPVTG,122.7,T,,M,000.0,N,000.0,K,D*0E
$GPZDA,213139.000,07,04,2016,00,00*5B
$GPGST,213139.000,17.0,45.2,12.7,8.4,0.5,0.4,1.2*53
$PSTI,030,213139.000,A,4404.1296534,N,12118.8684429,W,1102.409,0.02,-0.02,0.07,070416,D,0.0,0.0*15
$GPGGA,213140.000,4404.1296588,N,12118.8684277,W,2,09,1.1,1102.411,M,-20.300,M,,0000*5D
$GPGLL,4404.1296588,N,12118.8684277,W,213140.000,A,D*4D
$GPGSA,A,3,09,23,08,07,11,27,30,28,,,,,2.1,1.1,1.7*3C
$BDGSA,A,3,214,,,,,,,,,,,,2.1,1.1,1.7*11
$GPRMC,213140.000,A,4404.1296588,N,12118.8684277,W,000.0,122.7,070416,,,D*78
$GPVTG,122.7,T,,M,000.0,N,000.0,K,D*0E
$GPZDA,213140.000,07,04,2016,00,00*55
$GPGST,213140.000,13.0,24.2,12.5,-7.6,0.5,0.3,1.1*78
$PSTI,030,213140.000,A,4404.1296588,N,12118.8684277,W,1102.411,0.00,-0.05,0.05,070416,D,0.0,0.0*1F
$GPGGA,213141.000,4404.1296617,N,12118.8684086,W,2,09,1.1,1102.405,M,-20.300,M,,0000*50
$GPGLL,4404.1296617,N,12118.8684086,W,213141.000,A,D*45
$GPGSA,A,3,09,23,08,07,11,27,30,28,,,,,2.1,1.1,1.7*3C
$BDGSA,A,3,214,,,,,,,,,,,,2.1,1.1,1.7*11
$GPGSV,4,1,13,07,73,042,19,30,64,305,15,09,42,158,29,28,40,226,26*74
$GPGSV,4,2,13,08,40,079,19,51,37,160,31,05,23,288,,27,23,047,19*7B
$GPGSV,4,3,13,13,12,315,,23,11,147,31,193,08,299,,11,06,123,26*48
$GPGSV,4,4,13,20,03,330,*4A
$BDGSV,1,1,03,214,34,246,22,206,08,330,,212,04,172,25*61
$GPRMC,213141.000,A,4404.1296617,N,12118.8684086,W,000.0,122.7,070416,,,D*70
$GPVTG,122.7,T,,M,000.0,N,000.0,K,D*0E
$GPZDA,213141.000,07,04,2016,00,00*54
$GPGST,213141.000,14.0,31.6,14.4,5.9,0.5,0.3,1.1*59
$PSTI,030,213141.000,A,4404.1296617,N,12118.8684086,W,1102.405,-0.00,-0.04,0.06,070416,D,0.0,0.0*3D
$GPGGA,213142.000,4404.1296602,N,12118.8683834,W,2,07,1.2,1102.428,M,-20.300,M,,0000*53
$GPGLL,4404.1296602,N,12118.8683834,W,213142.000,A,D*44
$GPGSA,A,3,09,23,07,11,27,28,,,,,,,2.2,1.2,1.8*38
$BDGSA,A,3,214,,,,,,,,,,,,2.2,1.2,1.8*1E
$GPRMC,213142.000,A,4404.1296602,N,12118.8683834,W,000.0,122.7,070416,,,D*71
$GPVTG,122.7,T,,M,000.0,N,000.0,K,D*0E
$GPZDA,213142.000,07,04,2016,00,00*57
$GPGST,213142.000,14.8,42.4,13.3,7.9,0.5,0.5,1.1*50
$PSTI,030,213142.000,A,4404.1296602,N,12118.8683834,W,1102.428,-0.01,-0.00,0.03,070416,D,0.0,0.0*33
$GPGGA,213143.000,4404.1296578,N,12118.8683694,W,2,07,1.2,1102.462,M,-20.300,M,,0000*56
$GPGLL,4404.1296578,N,12118.8683694,W,213143.000,A,D*4F
$GPGSA,A,3,09,23,07,11,27,28,,,,,,,2.2,1.2,1.8*38
$BDGSA,A,3,214,,,,,,,,,,,,2.2,1.2,1.8*1E
$GPRMC,213143.000,A,4404.1296578,N,12118.8683694,W,000.0,122.7,070416,,,D*7A
$GPVTG,122.7,T,,M,000.0,N,000.0,K,D*0E
$GPZDA,213143.000,07,04,2016,00,00*56
$GPGST,213143.000,15.7,37.0,11.0,10.8,0.4,0.5,1.0*6F
$PSTI,030,213143.000,A,4404.1296578,N,12118.8683694,W,1102.462,0.01,-0.01,0.04,070416,D,0.0,0.0*1D
$GPGGA,213144.000,4404.1296568,N,12118.8683649,W,2,07,1.2,1102.493,M,-20.300,M,,0000*5E
$GPGLL,4404.1296568,N,12118.8683649,W,213144.000,A,D*49
$GPGSA,A,3,09,23,07,11,27,28,,,,,,,2.2,1.2,1.8*38
$BDGSA,A,3,214,,,,,,,,,,,,2.2,1.2,1.8*1E
$GPGSV,4,1,13,07,73,042,20,30,64,305,14,09,42,158,29,28,40,226,26*7F
$GPGSV,4,2,13,08,40,079,17,51,37,160,31,05,23,288,,27,23,047,18*74
$GPGSV,4,3,13,13,12,315,,23,11,147,32,193,08,299,,11,06,123,26*4B
$GPGSV,4,4,13,20,03,330,*4A
$BDGSV,1,1,03,214,34,246,24,206,08,330,,212,04,172,27*65
$GPRMC,213144.000,A,4404.1296568,N,12118.8683649,W,000.0,122.7,070416,,,D*7C
$GPVTG,122.7,T,,M,000.0,N,000.0,K,D*0E
$GPZDA,213144.000,07,04,2016,00,00*51
$GPGST,213144.000,13.1,40.1,10.9,11.9,0.4,0.5,1.0*61
$PSTI,030,213144.000,A,4404.1296568,N,12118.8683649,W,1102.493,-0.00,0.00,0.04,070416,D,0.0,0.0*15
$GPGGA,213145.000,4404.1296538,N,12118.8683649,W,2,06,1.9,1102.509,M,-20.300,M,,0000*52
$GPGLL,4404.1296538,N,12118.8683649,W,213145.000,A,D*4D
$GPGSA,A,3,09,23,07,11,28,,,,,,,,3.0,1.9,2.3*3D
$BDGSA,A,3,214,,,,,,,,,,,,3.0,1.9,2.3*1E
$GPRMC,213145.000,A,4404.1296538,N,12118.8683649,W,000.0,122.7,070416,,,D*78
$GPVTG,122.7,T,,M,000.0,N,000.0,K,D*0E
$GPZDA,213145.000,07,04,2016,00,00*50
$GPGST,213145.000,7.6,42.3,13.0,7.8,0.4,0.4,1.0*6F
$PSTI,030,213145.000,A,4404.1296538,N,12118.8683649,W,1102.509,-0.01,-0.00,0.04,070416,D,0.0,0.0*3F
$GPGGA,213146.000,4404.1296650,N,12118.8683674,W,2,06,1.9,1102.484,M,-20.300,M,,0000*56
$GPGLL,4404.1296650,N,12118.8683674,W,213146.000,A,D*4D
$GPGSA,A,3,09,23,07,11,28,,,,,,,,3.0,1.9,2.3*3D
$BDGSA,A,3,214,,,,,,,,,,,,3.0,1.9,2.3*1E
$GPRMC,213146.000,A,4404.1296650,N,12118.8683674,W,000.0,122.7,070416,,,D*78
$GPVTG,122.7,T,,M,000.0,N,000.0,K,D*0E
$GPZDA,213146.000,07,04,2016,00,00*53
$GPGST,213146.000,9.5,42.2,13.0,7.8,0.4,0.4,1.0*60
$PSTI,030,213146.000,A,4404.1296650,N,12118.8683674,W,1102.484,-0.01,-0.02,0.06,070416,D,0.0,0.0*3B
$GPGGA,213147.000,4404.1296723,N,12118.8683731,W,2,06,1.9,1102.479,M,-20.300,M,,0000*50
$GPGLL,4404.1296723,N,12118.8683731,W,213147.000,A,D*49
$GPGSA,A,3,09,23,07,11,28,,,,,,,,3.0,1.9,2.3*3D
$BDGSA,A,3,214,,,,,,,,,,,,3.0,1.9,2.3*1E
$GPGSV,4,1,13,07,73,042,20,30,64,305,12,09,42,158,31,28,40,226,27*71
$GPGSV,4,2,13,08,40,079,14,51,37,160,31,05,23,288,,27,23,047,18*77
$GPGSV,4,3,13,13,12,315,,23,11,147,33,193,08,299,,11,06,123,26*4A
$GPGSV,4,4,13,20,03,330,*4A
$BDGSV,1,1,03,214,34,246,23,206,08,330,,212,04,172,29*6C
$GPRMC,213147.000,A,4404.1296723,N,12118.8683731,W,000.0,122.7,070416,,,D*7C
$GPVTG,122.7,T,,M,000.0,N,000.0,K,D*0E
$GPZDA,213147.000,07,04,2016,00,00*52
$GPGST,213147.000,8.0,42.1,12.3,7.5,0.4,0.4,0.9*61
$PSTI,030,213147.000,A,4404.1296723,N,12118.8683731,W,1102.479,-0.01,-0.04,0.07,070416,D,0.0,0.0*3A
$GPGGA,213148.000,4404.1296726,N,12118.8683699,W,2,07,1.2,1102.488,M,-20.300,M,,0000*5D
$GPGLL,4404.1296726,N,12118.8683699,W,213148.000,A,D*40
$GPGSA,A,3,09,23,07,11,27,28,,,,,,,2.2,1.2,1.8*38
$BDGSA,A,3,214,,,,,,,,,,,,2.2,1.2,1.8*1E
$GPRMC,213148.000,A,4404.1296726,N,12118.8683699,W,000.0,122.7,070416,,,D*75
$GPVTG,122.7,T,,M,000.0,N,000.0,K,D*0E
$GPZDA,213148.000,07,04,2016,00,00*5D
$GPGST,213148.000,8.3,40.3,12.3,6.6,0.4,0.4,0.9*6F
$PSTI,030,213148.000,A,4404.1296726,N,12118.8683699,W,1102.488,-0.00,-0.05,0.08,070416,D,0.0,0.0*32
$GPGGA,213149.000,4404.1296695,N,12118.8683769,W,2,07,1.2,1102.529,M,-20.300,M,,0000*51
$GPGLL,4404.1296695,N,12118.8683769,W,213149.000,A,D*46
$GPGSA,A,3,09,23,07,11,27,28,,,,,,,2.2,1.2,1.8*38
$BDGSA,A,3,214,,,,,,,,,,,,2.2,1.2,1.8*1E
$GPRMC,213149.000,A,4404.1296695,N,12118.8683769,W,000.0,122.7,070416,,,D*73
$GPVTG,122.7,T,,M,000.0,N,000.0,K,D*0E
$GPZDA,213149.000,07,04,2016,00,00*5C
$GPGST,213149.000,11.0,23.8,10.6,11.6,0.4,0.4,0.9*6A
$PSTI,030,213149.000,A,4404.1296695,N,12118.8683769,W,1102.529,-0.01,0.02,0.03,070416,D,0.0,0.0*1E
$GPGGA,213150.000,4404.1296638,N,12118.8683807,W,2,06,1.3,1102.569,M,-20.300,M,,0000*5D
$GPGLL,4404.1296638,N,12118.8683807,W,213150.000,A,D*4E
$GPGSA,A,3,09,23,11,27,28,,,,,,,,3.2,1.3,2.9*3D
$BDGSA,A,3,214,,,,,,,,,,,,3.2,1.3,2.9*1C
$GPGSV,4,1,13,07,73,042,19,30,64,305,13,09,42,158,31,28,40,226,27*7A
$GPGSV,4,2,13,08,40,079,,51,37,160,31,27,23,047,18,05,23,288,*72
$GPGSV,4,3,13,13,12,315,,23,11,147,31,193,08,299,,11,06,123,25*4B
$GPGSV,4,4,13,20,03,330,*4A
$BDGSV,1,1,03,214,34,246,24,206,09,330,,212,04,172,30*62
$GPRMC,213150.000,A,4404.1296638,N,12118.8683807,W,000.0,122.7,070416,,,D*7B
$GPVTG,122.7,T,,M,000.0,N,000.0,K,D*0E
$GPZDA,213150.000,07,04,2016,00,00*54
$GPGST,213150.000,11.6,39.9,10.5,11.8,0.4,0.4,0.9*63
$PSTI,030,213150.000,A,4404.1296638,N,12118.8683807,W,1102.569,-0.00,0.05,0.01,070416,D,0.0,0.0*16
$GPGGA,213151.000,4404.1296701,N,12118.8683640,W,2,06,1.3,1102.576,M,-20.300,M,,0000*54
$GPGLL,4404.1296701,N,12118.8683640,W,213151.000,A,D*49
$GPGSA,A,3,09,23,11,27,28,,,,,,,,3.2,1.3,2.9*3D
$BDGSA,A,3,214,,,,,,,,,,,,3.2,1.3,2.9*1C
$GPRMC,213151.000,A,4404.1296701,N,12118.8683640,W,000.0,122.7,070416,,,D*7C
$GPVTG,122.7,T,,M,000.0,N,000.0,K,D*0E
$GPZDA,213151.000,07,04,2016,00,00*55
$GPGST,213151.000,12.8,39.4,9.6,11.2,0.4,0.4,0.8*52
$PSTI,030,213151.000,A,4404.1296701,N,12118.8683640,W,1102.576,0.02,0.05,0.01,070416,D,0.0,0.0*30
$GPGGA,213152.000,4404.1296469,N,12118.8683443,W,2,07,1.2,1102.671,M,-20.300,M,,0000*5F
$GPGLL,4404.1296469,N,12118.8683443,W,213152.000,A,D*46
$GPGSA,A,3,09,23,07,11,27,28,,,,,,,2.2,1.2,1.8*38
$BDGSA,A,3,214,,,,,,,,,,,,2.2,1.2,1.8*1E
$GPRMC,213152.000,A,4404.1296469,N,12118.8683443,W,000.0,122.7,070416,,,D*73
$GPVTG,122.7,T,,M,000.0,N,000.0,K,D*0E
$GPZDA,213152.000,07,04,2016,00,00*56
$GPGST,213152.000,14.6,25.4,10.8,7.0,0.4,0.3,0.8*50
$PSTI,030,213152.000,A,4404.1296469,N,12118.8683443,W,1102.671,0.01,0.05,0.01,070416,D,0.0,0.0*38
$GPGGA,213153.000,4404.1296315,N,12118.8683284,W,2,06,1.3,1102.750,M,-20.300,M,,0000*5D
$GPGLL,4404.1296315,N,12118.8683284,W,213153.000,A,D*46
$GPGSA,A,3,09,23,11,27,28,,,,,,,,3.2,1.3,2.9*3D
$BDGSA,A,3,214,,,,,,,,,,,,3.2,1.3,2.9*1C
$GPGSV,4,1,13,07,73,042,19,30,64,305,,09,42,158,31,28,40,226,28*77
$GPGSV,4,2,13,08,40,079,16,51,37,160,31,27,23,047,20,05,23,288,*7E
$GPGSV,4,3,13,13,12,315,,23,11,147,32,193,08,299,,11,06,123,25*48
$GPGSV,4,4,13,20,03,330,*4A
$BDGSV,1,1,03,214,34,246,25,206,09,330,,212,04,172,29*6B
$GPRMC,213153.000,A,4404.1296315,N,12118.8683284,W,000.0,122.7,070416,,,D*73
$GPVTG,122.7,T,,M,000.0,N,000.0,K,D*0E
$GPZDA,213153.000,07,04,2016,00,00*57
$GPGST,213153.000,17.1,44.9,10.2,12.9,0.3,0.3,0.8*6F
$PSTI,030,213153.000,A,4404.1296315,N,12118.8683284,W,1102.750,0.01,0.01,0.05,070416,D,0.0,0.0*3A
$GPGGA,213154.000,4404.1296208,N,12118.8683150,W,2,07,1.2,1102.814,M,-20.300,M,,0000*52
$GPGLL,4404.1296208,N,12118.8683150,W,213154.000,A,D*46
$GPGSA,A,3,09,23,07,11,27,28,,,,,,,2.2,1.2,1.8*38
$BDGSA,A,3,214,,,,,,,,,,,,2.2,1.2,1.8*1E
$GPRMC,213154.000,A,4404.1296208,N,12118.8683150,W,000.0,122.7,070416,,,D*73
$GPVTG,122.7,T,,M,000.0,N,000.0,K,D*0E
$GPZDA,213154.000,07,04,2016,00,00*50
$GPGST,213154.000,15.0,44.7,9.5,12.7,0.3,0.3,0.8*54
$PSTI,030,213154.000,A,4404.1296208,N,12118.8683150,W,1102.814,0.01,-0.03,0.08,070416,D,0.0,0.0*17
$GPGGA,213155.000,4404.1296159,N,12118.8683075,W,2,06,1.9,1102.857,M,-20.300,M,,0000*5F
$GPGLL,4404.1296159,N,12118.8683075,W,213155.000,A,D*46
$GPGSA,A,3,09,23,07,11,28,,,,,,,,3.0,1.9,2.3*3D
$BDGSA,A,3,214,,,,,,,,,,,,3.0,1.9,2.3*1E
$GPRMC,213155.000,A,4404.1296159,N,12118.8683075,W,000.0,122.7,070416,,,D*73
$GPVTG,122.7,T,,M,000.0,N,000.0,K,D*0E
$GPZDA,213155.000,07,04,2016,00,00*51
$GPGST,213155.000,13.7,54.8,9.5,14.7,0.3,0.3,0.8*5C
$PSTI,030,213155.000,A,4404.1296159,N,12118.8683075,W,1102.857,0.00,-0.02,0.07,070416,D,0.0,0.0*1F
$GPGGA,213156.000,4404.1296267,N,12118.8683095,W,2,06,1.9,1102.830,M,-20.300,M,,0000*5D
$GPGLL,4404.1296267,N,12118.8683095,W,213156.000,A,D*45
$GPGSA,A,3,09,23,07,11,28,,,,,,,,3.0,1.9,2.3*3D
$BDGSA,A,3,214,,,,,,,,,,,,3.0,1.9,2.3*1E
$GPGSV,4,1,13,07,73,042,18,30,64,305,,09,42,158,32,28,40,226,27*7A
$GPGSV,4,2,13,08,40,079,13,51,37,160,31,27,23,047,20,05,23,288,*7B
$GPGSV,4,3,13,13,12,315,,23,11,147,32,193,08,299,,11,06,123,24*49
$GPGSV,4,4,13,20,03,330,*4A
$BDGSV,1,1,03,214,34,246,24,206,09,330,,212,04,172,28*6B
$GPRMC,213156.000,A,4404.1296267,N,12118.8683095,W,000.0,122.7,070416,,,D*70
$GPVTG,122.7,T,,M,000.0,N,000.0,K,D*0E
$GPZDA,213156.000,07,04,2016,00,00*52
$GPGST,213156.000,10.8,54.8,9.5,14.7,0.3,0.3,0.8*53
$PSTI,030,213156.000,A,4404.1296267,N,12118.8683095,W,1102.830,0.01,-0.01,0.07,070416,D,0.0,0.0*1F
$GPGGA,213157.000,4404.1296424,N,12118.8683302,W,2,07,1.2,1102.771,M,-20.300,M,,0000*50
$GPGLL,4404.1296424,N,12118.8683302,W,213157.000,A,D*48
$GPGSA,A,3,09,23,07,11,27,28,,,,,,,2.2,1.2,1.8*38
$BDGSA,A,3,214,,,,,,,,,,,,2.2,1.2,1.8*1E
$GPRMC,213157.000,A,4404.1296424,N,12118.8683302,W,000.0,122.7,070416,,,D*7D
$GPVTG,122.7,T,,M,000.0,N,000.0,K,D*0E
$GPZDA,213157.000,07,04,2016,00,00*53
$GPGST,213157.000,14.7,56.5,8.0,15.8,0.3,0.3,0.8*5C
$PSTI,030,213157.000,A,4404.1296424,N,12118.8683302,W,1102.771,-0.01,0.04,0.04,070416,D,0.0,0.0*1E
$GPGGA,213158.000,4404.1296373,N,12118.8683300,W,2,07,1.3,1102.798,M,-20.300,M,,0000*5E
$GPGLL,4404.1296373,N,12118.8683300,W,213158.000,A,D*40
$GPGSA,A,3,09,23,11,27,30,28,,,,,,,2.7,1.3,2.4*37
$BDGSA,A,3,214,,,,,,,,,,,,2.7,1.3,2.4*15
$GPRMC,213158.000,A,4404.1296373,N,12118.8683300,W,000.0,122.7,070416,,,D*75
$GPVTG,122.7,T,,M,000.0,N,000.0,K,D*0E
$GPZDA,213158.000,07,04,2016,00,00*5C
$GPGST,213158.000,14.4,48.2,10.2,13.4,0.3,0.3,0.8*69
$PSTI,030,213158.000,A,4404.1296373,N,12118.8683300,W,1102.798,-0.02,0.04,0.04,070416,D,0.0,0.0*12
$GPGGA,213159.000,4404.1296338,N,12118.8683383,W,2,08,1.2,1102.823,M,-20.300,M,,0000*5A
$GPGLL,4404.1296338,N,12118.8683383,W,213159.000,A,D*45
$GPGSA,A,3,09,23,07,11,27,30,28,,,,,,2.2,1.2,1.8*3B
$BDGSA,A,3,214,,,,,,,,,,,,2.2,1.2,1.8*1E
$GPGSV,4,1,13,07,73,042,17,30,64,305,15,09,42,158,32,08,40,079,11*7E
$GPGSV,4,2,13,28,40,226,26,51,37,160,31,05,23,288,06,27,23,047,22*73
$GPGSV,4,3,13,13,12,315,,23,11,147,30,193,08,299,,11,06,123,24*4B
$GPGSV,4,4,13,20,03,330,*4A
$BDGSV,1,1,03,214,34,246,25,206,09,330,,212,04,172,27*65
$GPRMC,213159.000,A,4404.1296338,N,12118.8683383,W,000.0,122.7,070416,,,D*70
$GPVTG,122.7,T,,M,000.0,N,000.0,K,D*0E
$GPZDA,213159.000,07,04,2016,00,00*5D
$GPGST,213159.000,10.5,48.0,9.5,13.2,0.3,0.3,0.8*56
$PSTI,030,213159.000,A,4404.1296338,N,12118.8683383,W,1102.823,-0.01,0.04,0.04,070416,D,0.0,0.0*1B
$GPGGA,213200.000,4404.1296347,N,12118.8683403,W,2,07,1.3,1102.839,M,-20.300,M,,0000*57
$GPGLL,4404.1296347,N,12118.8683403,W,213200.000,A,D*4D
$GPGSA,A,3,09,23,11,27,30,28,,,,,,,2.7,1.3,2.4*37
$BDGSA,A,3,214,,,,,,,,,,,,2.7,1.3,2.4*15
$GPRMC,213200.000,A,4404.1296347,N,12118.8683403,W,000.0,122.7,070416,,,D*78
$GPVTG,122.7,T,,M,000.0,N,000.0,K,D*0E
$GPZDA,213200.000,07,04,2016,00,00*52
$GPGST,213200.000,10.1,47.7,9.5,13.0,0.3,0.3,0.8*57
$PSTI,030,213200.000,A,4404.1296347,N,12118.8683403,W,1102.839,-0.01,0.02,0.06,070416,D,0.0,0.0*1C
$GPGGA,213201.000,4404.1296457,N,12118.8683490,W,2,08,1.2,1102.822,M,-20.300,M,,0000*5E
$GPGLL,4404.1296457,N,12118.8683490,W,213201.000,A,D*40
$GPGSA,A,3,09,23,07,11,27,30,28,,,,,,2.2,1.2,1.8*3B
$BDGSA,A,3,214,,,,,,,,,,,,2.2,1.2,1.8*1E
$GPRMC,213201.000,A,4404.1296457,N,12118.8683490,W,000.0,122.7,070416,,,D*75
$GPVTG,122.7,T,,M,000.0,N,000.0,K,D*0E
$GPZDA,213201.000,07,04,2016,00,00*53
$GPGST,213201.000,10.2,39.8,10.5,11.8,0.3,0.3,0.8*61
$PSTI,030,213201.000,A,4404.1296457,N,12118.8683490,W,1102.822,-0.00,-0.01,0.07,070416,D,0.0,0.0*35
$GPGGA,213202.000,4404.1296556,N,12118.8683505,W,2,07,1.3,1102.819,M,-20.300,M,,0000*56
$GPGLL,4404.1296556,N,12118.8683505,W,213202.000,A,D*4E
$GPGSA,A,3,09,23,11,27,30,28,,,,,,,2.7,1.3,2.4*37
$BDGSA,A,3,214,,,,,,,,,,,,2.7,1.3,2.4*15
$GPGSV,4,1,13,07,73,043,16,30,64,305,19,09,42,158,31,08,40,079,13*73
$GPGSV,4,2,13,28,40,226,27,51,37,160,32,05,23,288,05,27,23,047,21*71
$GPGSV,4,3,13,13,12,315,,23,11,147,32,193,08,299,,11,06,123,25*48
$GPGSV,4,4,13,20,03,330,*4A
$BDGSV,1,1,03,214,34,246,25,206,09,330,,212,04,172,28*6A
$GPRMC,213202.000,A,4404.1296556,N,12118.8683505,W,000.0,122.7,070416,,,D*7B
$GPVTG,122.7,T,,M,000.0,N,000.0,K,D*0E
$GPZDA,213202.000,07,04,2016,00,00*50
$GPGST,213202.000,10.5,35.0,10.1,15.5,0.3,0.3,0.8*6C
$PSTI,030,213202.000,A,4404.1296556,N,12118.8683505,W,1102.819,-0.01,-0.06,0.08,070416,D,0.0,0.0*3A
$GPGGA,213203.000,4404.1296641,N,12118.8683266,W,2,06,1.9,1102.830,M,-20.300,M,,0000*50
$GPGLL,4404.1296641,N,12118.8683266,W,213203.000,A,D*48
$GPGSA,A,3,09,23,11,30,28,,,,,,,,3.2,1.9,2.5*3D
$BDGSA,A,3,214,,,,,,,,,,,,3.2,1.9,2.5*1A
$GPRMC,213203.000,A,4404.1296641,N,12118.8683266,W,000.0,122.7,070416,,,D*7D
$GPVTG,122.7,T,,M,000.0,N,000.0,K,D*0E
$GPZDA,213203.000,07,04,2016,00,00*51
$GPGST,213203.000,18.1,42.8,10.3,12.0,0.3,0.3,0.8*69
$PSTI,030,213203.000,A,4404.1296641,N,12118.8683266,W,1102.830,-0.00,-0.04,0.07,070416,D,0.0,0.0*3B
$GPGGA,213204.000,4404.1296662,N,12118.8683111,W,2,07,1.3,1102.850,M,-20.300,M,,0000*58
$GPGLL,4404.1296662,N,12118.8683111,W,213204.000,A,D*4D
$GPGSA,A,3,09,23,11,27,30,28,,,,,,,2.7,1.3,2.4*37
$BDGSA,A,3,214,,,,,,,,,,,,2.7,1.3,2.4*15
$GPRMC,213204.000,A,4404.1296662,N,12118.8683111,W,000.0,122.7,070416,,,D*78
$GPVTG,122.7,T,,M,000.0,N,000.0,K,D*0E
$GPZDA,213204.000,07,04,2016,00,00*56
$GPGST,213204.000,12.2,42.7,9.5,11.8,0.3,0.3,0.8*5D
$PSTI,030,213204.000,A,4404.1296662,N,12118.8683111,W,1102.850,0.02,-0.03,0.06,070416,D,0.0,0.0*11
$GPGGA,213205.000,4404.1296664,N,12118.8683024,W,2,07,1.3,1102.863,M,-20.300,M,,0000*58
$GPGLL,4404.1296664,N,12118.8683024,W,213205.000,A,D*4D
$GPGSA,A,3,09,23,11,27,30,28,,,,,,,2.7,1.3,2.4*37
$BDGSA,A,3,214,,,,,,,,,,,,2.7,1.3,2.4*15
$GPGSV,4,1,13,07,73,043,15,30,64,305,19,09,41,158,32,08,40,079,13*70
$GPGSV,4,2,13,28,40,226,29,51,37,160,31,05,23,288,10,27,23,047,20*79
$GPGSV,4,3,13,13,12,315,,23,11,147,31,193,08,299,,11,06,123,26*48
$GPGSV,4,4,13,20,03,330,*4A
$BDGSV,1,1,03,214,34,246,25,206,09,330,,212,04,172,29*6B
$GPRMC,213205.000,A,4404.1296664,N,12118.8683024,W,000.0,122.7,070416,,,D*78
$GPVTG,122.7,T,,M,000.0,N,000.0,K,D*0E
$GPZDA,213205.000,07,04,2016,00,00*57
$GPGST,213205.000,14.9,38.2,8.2,13.4,0.3,0.3,0.8*51
$PSTI,030,213205.000,A,4404.1296664,N,12118.8683024,W,1102.863,0.02,-0.04,0.08,070416,D,0.0,0.0*18
$GPGGA,213206.000,4404.1296756,N,12118.8682829,W,2,07,1.3,1102.855,M,-20.300,M,,0000*5A
$GPGLL,4404.1296756,N,12118.8682829,W,213206.000,A,D*4A
$GPGSA,A,3,09,23,11,27,30,28,,,,,,,2.7,1.3,2.4*37
$BDGSA,A,3,214,,,,,,,,,,,,2.7,1.3,2.4*15
$GPRMC,213206.000,A,4404.1296756,N,12118.8682829,W,000.0,122.7,070416,,,D*7F
$GPVTG,122.7,T,,M,000.0,N,000.0,K,D*0E
$GPZDA,213206.000,07,04,2016,00,00*54
$GPGST,213206.000,15.2,39.4,10.4,11.4,0.3,0.3,0.8*62
$PSTI,030,213206.000,A,4404.1296756,N,12118.8682829,W,1102.855,0.00,-0.03,0.07,070416,D,0.0,0.0*10
$GPGGA,213207.000,4404.1296800,N,12118.8682629,W,2,06,1.9,1102.876,M,-20.300,M,,0000*53
$GPGLL,4404.1296800,N,12118.8682629,W,213207.000,A,D*49
$GPGSA,A,3,09,23,11,30,28,,,,,,,,3.2,1.9,2.5*3D
$BDGSA,A,3,214,,,,,,,,,,,,3.2,1.9,2.5*1A
$GPRMC,213207.000,A,4404.1296800,N,12118.8682629,W,000.0,122.7,070416,,,D*7C
$GPVTG,122.7,T,,M,000.0,N,000.0,K,D*0E
$GPZDA,213207.000,07,04,2016,00,00*55
$GPGST,213207.000,14.9,39.2,9.7,11.2,0.3,0.3,0.8*52
$PSTI,030,213207.000,A,4404.1296800,N,12118.8682629,W,1102.876,0.00,-0.07,0.09,070416,D,0.0,0.0*18
$GPGGA,213208.000,4404.1296911,N,12118.8682628,W,2,07,1.3,1102.873,M,-20.300,M,,0000*52
$GPGLL,4404.1296911,N,12118.8682628,W,213208.000,A,D*46
$GPGSA,A,3,09,23,11,27,30,28,,,,,,,2.7,1.3,2.4*37
$BDGSA,A,3,214,,,,,,,,,,,,2.7,1.3,2.4*15
$GPGSV,4,1,13,07,73,043,14,30,64,305,19,09,41,158,31,28,40,226,28*70
$GPGSV,4,2,13,08,40,079,15,51,37,160,31,05,23,288,,27,23,047,19*77
$GPGSV,4,3,13,13,12,315,,23,11,147,32,193,08,299,,11,06,123,25*48
$GPGSV,4,4,13,20,03,330,*4A
$BDGSV,1,1,03,214,34,246,25,206,09,330,,212,04,172,30*63
$GPRMC,213208.000,A,4404.1296911,N,12118.8682628,W,000.0,122.7,070416,,,D*73
$GPVTG,122.7,T,,M,000.0,N,000.0,K,D*0E
$GPZDA,213208.000,07,04,2016,00,00*5A
$GPGST,213208.000,14.0,29.7,8.5,13.9,0.3,0.3,0.8*5A
$PSTI,030,213208.000,A,4404.1296911,N,12118.8682628,W,1102.873,-0.00,-0.04,0.08,070416,D,0.0,0.0*3D
$GPGGA,213209.000,4404.1297082,N,12118.8682703,W,2,07,1.3,1102.870,M,-20.300,M,,0000*5A
$GPGLL,4404.1297082,N,12118.8682703,W,213209.000,A,D*4D
$GPGSA,A,3,09,23,11,27,30,28,,,,,,,2.7,1.3,2.4*37
$BDGSA,A,3,214,,,,,,,,,,,,2.7,1.3,2.4*15
$GPRMC,213209.000,A,4404.1297082,N,12118.8682703,W,000.0,122.7,070416,,,D*78
$GPVTG,122.7,T,,M,000.0,N,000.0,K,D*0E
$GPZDA,213209.000,07,04,2016,00,00*5B
$GPGST,213209.000,14.4,38.3,9.0,13.6,0.2,0.3,0.8*51
$PSTI,030,213209.000,A,4404.1297082,N,12118.8682703,W,1102.870,-0.00,-0.04,0.08,070416,D,0.0,0.0*35
$GPGGA,213210.000,4404.1297147,N,12118.8682675,W,2,08,1.2,1102.885,M,-20.300,M,,0000*5E
$GPGLL,4404.1297147,N,12118.8682675,W,213210.000,A,D*4D
$GPGSA,A,3,09,23,08,11,27,30,28,,,,,,2.4,1.2,2.1*38
$BDGSA,A,3,214,,,,,,,,,,,,2.4,1.2,2.1*12
$GPRMC,213210.000,A,4404.1297147,N,12118.8682675,W,000.0,122.7,070416,,,D*78
$GPVTG,122.7,T,,M,000.0,N,000.0,K,D*0E
$GPZDA,213210.000,07,04,2016,00,00*53
$GPGST,213210.000,11.8,39.3,10.4,11.4,0.2,0.3,0.8*6D
$PSTI,030,213210.000,A,4404.1297147,N,12118.8682675,W,1102.885,-0.00,-0.04,0.08,070416,D,0.0,0.0*3F
$GPGGA,213211.000,4404.1297159,N,12118.8682644,W,2,07,1.6,1102.929,M,-20.300,M,,0000*5E
$GPGLL,4404.1297159,N,12118.8682644,W,213211.000,A,D*41
$GPGSA,A,3,09,23,08,11,30,28,,,,,,,3.0,1.6,2.5*38
$BDGSA,A,3,214,,,,,,,,,,,,3.0,1.6,2.5*17
$GPGSV,4,1,13,07,73,043,14,30,64,305,20,09,41,158,31,28,40,226,29*7B
$GPGSV,4,2,13,08,40,079,18,51,37,160,31,05,23,288,,27,23,047,18*7B
$GPGSV,4,3,13,13,12,315,,23,11,147,33,193,08,299,,11,06,123,25*49
$GPGSV,4,4,13,20,03,330,*4A
$BDGSV,1,1,03,214,34,246,26,206,09,330,,212,04,172,31*61
$GPRMC,213211.000,A,4404.1297159,N,12118.8682644,W,000.0,122.7,070416,,,D*74
$GPVTG,122.7,T,,M,000.0,N,000.0,K,D*0E
$GPZDA,213211.000,07,04,2016,00,00*52
$GPGST,213211.000,15.2,43.7,8.8,14.6,0.2,0.3,0.8*59
$PSTI,030,213211.000,A,4404.1297159,N,12118.8682644,W,1102.929,0.00,-0.03,0.08,070416,D,0.0,0.0*1E
$GPGGA,213212.000,4404.1296990,N,12118.8682526,W,2,07,1.6,1103.037,M,-20.300,M,,0000*51
$GPGLL,4404.1296990,N,12118.8682526,W,213212.000,A,D*49
$GPGSA,A,3,09,23,08,11,30,28,,,,,,,3.0,1.6,2.5*38
$BDGSA,A,3,214,,,,,,,,,,,,3.0,1.6,2.5*17
$GPRMC,213212.000,A,4404.1296990,N,12118.8682526,W,000.0,122.7,070416,,,D*7C
$GPVTG,122.7,T,,M,000.0,N,000.0,K,D*0E
$GPZDA,213212.000,07,04,2016,00,00*51
$GPGST,213212.000,14.1,42.3,8.1,14.4,0.2,0.3,0.8*56
$PSTI,030,213212.000,A,4404.1296990,N,12118.8682526,W,1103.037,-0.00,-0.02,0.07,070416,D,0.0,0.0*32
$GPGGA,213213.000,4404.1297057,N,12118.8682513,W,2,07,1.3,1103.076,M,-20.300,M,,0000*55
$GPGLL,4404.1297057,N,12118.8682513,W,213213.000,A,D*4D
$GPGSA,A,3,09,23,11,27,30,28,,,,,,,2.7,1.3,2.4*37
$BDGSA,A,3,214,,,,,,,,,,,,2.7,1.3,2.4*15
$GPRMC,213213.000,A,4404.1297057,N,12118.8682513,W,000.0,122.7,070416,,,D*78
$GPVTG,122.7,T,,M,000.0,N,000.0,K,D*0E
$GPZDA,213213.000,07,04,2016,00,00*50
$GPGST,213213.000,12.8,35.6,8.3,16.3,0.2,0.3,0.8*5A
$PSTI,030,213213.000,A,4404.1297057,N,12118.8682513,W,1103.076,-0.01,-0.01,0.02,070416,D,0.0,0.0*34
$GPGGA,213214.000,4404.1297112,N,12118.8682454,W,2,06,1.9,1103.097,M,-20.300,M,,0000*54
$GPGLL,4404.1297112,N,12118.8682454,W,213214.000,A,D*48
$GPGSA,A,3,09,23,11,30,28,,,,,,,,3.2,1.9,2.5*3D
$BDGSA,A,3,214,,,,,,,,,,,,3.2,1.9,2.5*1A
$GPGSV,4,1,13,07,73,043,14,30,64,305,21,09,41,158,32,28,40,226,30*71
$GPGSV,4,2,13,08,40,079,17,51,37,160,32,05,23,288,,27,23,047,17*78
$GPGSV,4,3,13,13,12,315,,23,11,147,32,193,08,299,,11,06,123,24*49
$GPGSV,4,4,13,20,03,330,*4A
$BDGSV,1,1,03,214,34,246,25,206,09,330,,212,04,172,31*62
$GPRMC,213214.000,A,4404.1297112,N,12118.8682454,W,000.0,122.7,070416,,,D*7D
$GPVTG,122.7,T,,M,000.0,N,000.0,K,D*0E
$GPZDA,213214.000,07,04,2016,00,00*57
$GPGST,213214.000,10.8,43.9,9.7,16.7,0.2,0.3,0.8*50
$PSTI,030,213214.000,A,4404.1297112,N,12118.8682454,W,1103.097,-0.01,-0.00,0.04,070416,D,0.0,0.0*39
$GPGGA,213215.000,4404.1297084,N,12118.8682350,W,2,06,1.9,1103.179,M,-20.300,M,,0000*59
$GPGLL,4404.1297084,N,12118.8682350,W,213215.000,A,D*44
$GPGSA,A,3,09,23,11,30,28,,,,,,,,3.2,1.9,2.5*3D
$BDGSA,A,3,214,,,,,,,,,,,,3.2,1.9,2.5*1A
$GPRMC,213215.000,A,4404.1297084,N,12118.8682350,W,000.0,122.7,070416,,,D*71
$GPVTG,122.7,T,,M,000.0,N,000.0,K,D*0E
$GPZDA,213215.000,07,04,2016,00,00*56
$GPGST,213215.000,15.3,43.2,8.1,16.2,0.2,0.3,0.9*57
$PSTI,030,213215.000,A,4404.1297084,N,12118.8682350,W,1103.179,0.01,-0.02,0.08,070416,D,0.0,0.0*17
$GPGGA,213216.000,4404.1296917,N,12118.8682154,W,2,07,1.3,1103.273,M,-20.300,M,,0000*5C
$GPGLL,4404.1296917,N,12118.8682154,W,213216.000,A,D*43
$GPGSA,A,3,09,23,11,27,30,28,,,,,,,2.7,1.3,2.4*37
$BDGSA,A,3,214,,,,,,,,,,,,2.7,1.3,2.4*15
$GPRMC,213216.000,A,4404.1296917,N,12118.8682154,W,000.0,122.7,070416,,,D*76
$GPVTG,122.7,T,,M,000.0,N,000.0,K,D*0E
$GPZDA,213216.000,07,04,2016,00,00*55
$GPGST,213216.000,15.9,44.6,10.3,12.9,0.2,0.3,0.9*69
$PSTI,030,213216.000,A,4404.1296917,N,12118.8682154,W,1103.273,-0.01,-0.07,0.12,070416,D,0.0,0.0*3A
$GPGGA,213217.000,4404.1296745,N,12118.8681677,W,2,06,1.8,1103.387,M,-20.300,M,,0000*51
$GPGLL,4404.1296745,N,12118.8681677,W,213217.000,A,D*4E
$GPGSA,A,3,09,23,08,11,28,,,,,,,,3.1,1.8,2.5*34
$BDGSA,A,3,214,,,,,,,,,,,,3.1,1.8,2.5*18
$GPGSV,4,1,13,07,73,043,13,30,64,305,19,09,41,158,30,28,40,226,31*7E
$GPGSV,4,2,13,08,40,079,16,51,37,160,32,05,23,288,,27,23,047,17*79
$GPGSV,4,3,13,13,12,315,,23,11,147,32,193,08,299,,11,06,123,24*49
$GPGSV,4,4,13,20,03,330,*4A
$BDGSV,1,1,03,214,34,246,25,206,09,330,,212,04,172,30*63
$GPRMC,213217.000,A,4404.1296745,N,12118.8681677,W,000.0,122.7,070416,,,D*7B
$GPVTG,122.7,T,,M,000.0,N,000.0,K,D*0E
$GPZDA,213217.000,07,04,2016,00,00*54
$GPGST,213217.000,20.8,56.1,12.6,12.2,0.2,0.3,0.9*67
$PSTI,030,213217.000,A,4404.1296745,N,12118.8681677,W,1103.387,-0.00,-0.08,0.12,070416,D,0.0,0.0*33
$GPGGA,213218.000,4404.1296683,N,12118.8681483,W,2,06,1.9,1103.464,M,-20.300,M,,0000*57
$GPGLL,4404.1296683,N,12118.8681483,W,213218.000,A,D*43
$GPGSA,A,3,09,23,11,30,28,,,,,,,,3.2,1.9,2.5*3D
$BDGSA,A,3,214,,,,,,,,,,,,3.2,1.9,2.5*1A
$GPRMC,213218.000,A,4404.1296683,N,12118.8681483,W,000.0,122.7,070416,,,D*76
$GPVTG,122.7,T,,M,000.0,N,000.0,K,D*0E
$GPZDA,213218.000,07,04,2016,00,00*5B
$GPGST,213218.000,16.4,54.6,10.1,14.6,0.2,0.3,0.9*63
$PSTI,030,213218.000,A,4404.1296683,N,12118.8681483,W,1103.464,-0.03,-0.06,0.11,070416,D,0.0,0.0*3A
$GPGGA,213219.000,4404.1296686,N,12118.8681399,W,2,07,1.6,1103.471,M,-20.300,M,,0000*55
$GPGLL,4404.1296686,N,12118.8681399,W,213219.000,A,D*4B
$GPGSA,A,3,09,23,08,11,30,28,,,,,,,3.0,1.6,2.5*38
$BDGSA,A,3,214,,,,,,,,,,,,3.0,1.6,2.5*17
$GPRMC,213219.000,A,4404.1296686,N,12118.8681399,W,000.0,122.7,070416,,,D*7E
$GPVTG,122.7,T,,M,000.0,N,000.0,K,D*0E
$GPZDA,213219.000,07,04,2016,00,00*5A
$GPGST,213219.000,7.7,35.1,13.8,13.1,0.2,0.3,0.9*5B
$PSTI,030,213219.000,A,4404.1296686,N,12118.8681399,W,1103.471,-0.02,-0.09,0.10,070416,D,0.0,0.0*39
$GPGGA,213220.000,4404.1296545,N,12118.8681215,W,2,08,1.2,1103.540,M,-20.300,M,,0000*5E
$GPGLL,4404.1296545,N,12118.8681215,W,213220.000,A,D*48
$GPGSA,A,3,09,23,08,11,27,30,28,,,,,,2.4,1.2,2.1*38
$BDGSA,A,3,214,,,,,,,,,,,,2.4,1.2,2.1*12
$GPGSV,4,1,13,07,73,043,12,30,64,305,19,09,41,158,31,28,40,226,30*7F
$GPGSV,4,2,13,08,40,079,18,51,37,160,32,05,23,288,,27,23,047,18*78
$GPGSV,4,3,13,13,12,315,,23,11,147,32,193,08,299,,11,06,123,24*49
$GPGSV,4,4,13,20,03,330,*4A
$BDGSV,1,1,03,214,34,246,24,206,09,330,,212,04,172,28*6B
$GPRMC,213220.000,A,4404.1296545,N,12118.8681215,W,000.0,122.7,070416,,,D*7D
$GPVTG,122.7,T,,M,000.0,N,000.0,K,D*0E
$GPZDA,213220.000,07,04,2016,00,00*50
$GPGST,213220.000,8.3,23.6,14.0,2.4,0.2,0.3,0.9*60
$PSTI,030,213220.000,A,4404.1296545,N,12118.8681215,W,1103.540,-0.01,-0.14,0.12,070416,D,0.0,0.0*34
$GPGGA,213221.000,4404.1296420,N,12118.8681005,W,2,08,1.2,1103.595,M,-20.300,M,,0000*56
$GPGLL,4404.1296420,N,12118.8681005,W,213221.000,A,D*48
$GPGSA,A,3,09,23,08,11,27,30,28,,,,,,2.4,1.2,2.1*38
$BDGSA,A,3,214,,,,,,,,,,,,2.4,1.2,2.1*12
$GPRMC,213221.000,A,4404.1296420,N,12118.8681005,W,000.0,122.7,070416,,,D*7D
$GPVTG,122.7,T,,M,000.0,N,000.0,K,D*0E
$GPZDA,213221.000,07,04,2016,00,00*51
$GPGST,213221.000,7.1,48.8,12.3,8.3,0.2,0.3,0.9*67
$PSTI,030,213221.000,A,4404.1296420,N,12118.8681005,W,1103.595,-0.01,-0.15,0.14,070416,D,0.0,0.0*3B
$GPGGA,213222.000,4404.1296298,N,12118.8680757,W,2,08,1.2,1103.668,M,-20.300,M,,0000*50
$GPGLL,4404.1296298,N,12118.8680757,W,213222.000,A,D*4F
$GPGSA,A,3,09,23,08,11,27,30,28,,,,,,2.4,1.2,2.1*38
$BDGSA,A,3,214,,,,,,,,,,,,2.4,1.2,2.1*12
$GPRMC,213222.000,A,4404.1296298,N,12118.8680757,W,000.0,122.7,070416,,,D*7A
$GPVTG,122.7,T,,M,000.0,N,000.0,K,D*0E
$GPZDA,213222.000,07,04,2016,00,00*52
$GPGST,213222.000,9.9,48.5,15.0,5.9,0.2,0.3,1.0*64
$PSTI,030,213222.000,A,4404.1296298,N,12118.8680757,W,1103.668,0.00,-0.16,0.14,070416,D,0.0,0.0*12
$GPGGA,213223.000,4404.1296095,N,12118.8680253,W,2,07,1.3,1103.770,M,-20.300,M,,0000*59
$GPGLL,4404.1296095,N,12118.8680253,W,213223.000,A,D*40
$GPGSA,A,3,09,23,11,27,30,28,,,,,,,2.7,1.3,2.4*37
$BDGSA,A,3,214,,,,,,,,,,,,2.7,1.3,2.4*15
$GPGSV,4,1,13,07,73,043,11,30,64,305,22,09,41,158,31,28,40,226,31*75
$GPGSV,4,2,13,08,40,079,17,51,37,160,31,05,23,288,,27,23,047,18*74
$GPGSV,4,3,13,13,12,315,,23,11,147,31,193,08,299,,11,06,123,24*4A
$GPGSV,4,4,13,20,03,330,*4A
$BDGSV,1,1,03,214,34,246,23,206,09,330,,212,04,172,28*6C
$GPRMC,213223.000,A,4404.1296095,N,12118.8680253,W,000.0,122.7,070416,,,D*75
$GPVTG,122.7,T,,M,000.0,N,000.0,K,D*0E
$GPZDA,213223.000,07,04,2016,00,00*53
$GPGST,213223.000,15.7,48.5,15.0,6.0,0.2,0.3,1.0*5C
$PSTI,030,213223.000,A,4404.1296095,N,12118.8680253,W,1103.770,0.01,-0.09,0.09,070416,D,0.0,0.0*16
$GPGGA,213224.000,4404.1295948,N,12118.8679826,W,2,08,1.2,1103.850,M,-20.300,M,,0000*59
$GPGLL,4404.1295948,N,12118.8679826,W,213224.000,A,D*43
$GPGSA,A,3,09,23,08,11,27,30,28,,,,,,2.4,1.2,2.1*38
$BDGSA,A,3,214,,,,,,,,,,,,2.4,1.2,2.1*12
$GPRMC,213224.000,A,4404.1295948,N,12118.8679826,W,000.0,122.7,070416,,,D*76
$GPVTG,122.7,T,,M,000.0,N,000.0,K,D*0E
$GPZDA,213224.000,07,04,2016,00,00*54
$GPGST,213224.000,10.7,25.6,13.6,5.7,0.3,0.4,1.0*54
$PSTI,030,213224.000,A,4404.1295948,N,12118.8679826,W,1103.850,0.01,0.00,0.10,070416,D,0.0,0.0*34
$GPGGA,213225.000,4404.1295756,N,12118.8679599,W,2,07,1.3,1103.935,M,-20.300,M,,0000*5C
$GPGLL,4404.1295756,N,12118.8679599,W,213225.000,A,D*4A
$GPGSA,A,3,09,23,11,27,30,28,,,,,,,2.7,1.3,2.4*37
$BDGSA,A,3,214,,,,,,,,,,,,2.7,1.3,2.4*15
$GPRMC,213225.000,A,4404.1295756,N,12118.8679599,W,000.0,122.7,070416,,,D*7F
$GPVTG,122.7,T,,M,000.0,N,000.0,K,D*0E
$GPZDA,213225.000,07,04,2016,00,00*55
$GPGST,213225.000,14.9,23.9,14.7,7.8,0.3,0.4,1.0*5D
$PSTI,030,213225.000,A,4404.1295756,N,12118.8679599,W,1103.935,0.01,0.02,0.06,070416,D,0.0,0.0*3A
$GPGGA,213226.000,4404.1295575,N,12118.8679433,W,2,07,1.3,1104.021,M,-20.300,M,,0000*56
$GPGLL,4404.1295575,N,12118.8679433,W,213226.000,A,D*4B
$GPGSA,A,3,09,23,11,27,30,28,,,,,,,2.7,1.3,2.4*37
$BDGSA,A,3,214,,,,,,,,,,,,2.7,1.3,2.4*15
$GPGSV,4,1,13,07,73,043,,30,64,306,21,09,41,158,30,28,40,226,30*75
$GPGSV,4,2,13,08,40,079,17,51,37,160,32,27,23,047,19,05,23,288,*76
$GPGSV,4,3,13,13,12,315,,23,11,147,31,193,08,299,,11,06,123,24*4A
$GPGSV,4,4,13,20,03,330,*4A
$BDGSV,1,1,03,214,34,246,22,206,09,330,,212,04,172,30*64
$GPRMC,213226.000,A,4404.1295575,N,12118.8679433,W,000.0,122.7,070416,,,D*7E
$GPVTG,122.7,T,,M,000.0,N,000.0,K,D*0E
$GPZDA,213226.000,07,04,2016,00,00*56
$GPGST,213226.000,12.4,60.2,15.2,10.0,0.3,0.4,1.0*63
$PSTI,030,213226.000,A,4404.1295575,N,12118.8679433,W,1104.021,-0.00,0.04,0.05,070416,D,0.0,0.0*19
$GPGGA,213227.000,4404.1295477,N,12118.8678991,W,2,07,1.3,1104.086,M,-20.300,M,,0000*5D
$GPGLL,4404.1295477,N,12118.8678991,W,213227.000,A,D*4D
$GPGSA,A,3,09,23,11,27,30,28,,,,,,,2.7,1.3,2.4*37
$BDGSA,A,3,214,,,,,,,,,,,,2.7,1.3,2.4*15
$GPRMC,213227.000,A,4404.1295477,N,12118.8678991,W,000.0,122.7,070416,,,D*78
$GPVTG,122.7,T,,M,000.0,N,000.0,K,D*0E
$GPZDA,213227.000,07,04,2016,00,00*57
$GPGST,213227.000,20.7,58.5,12.6,12.5,0.3,0.4,1.1*69
$PSTI,030,213227.000,A,4404.1295477,N,12118.8678991,W,1104.086,-0.02,0.04,0.04,070416,D,0.0,0.0*11
$GPGGA,213228.000,4404.1295201,N,12118.8678433,W,2,07,1.6,1104.213,M,-20.300,M,,0000*5B
$GPGLL,4404.1295201,N,12118.8678433,W,213228.000,A,D*40
$GPGSA,A,3,09,23,08,11,30,28,,,,,,,3.0,1.6,2.5*38
$BDGSA,A,3,214,,,,,,,,,,,,3.0,1.6,2.5*17
$GPRMC,213228.000,A,4404.1295201,N,12118.8678433,W,000.0,122.7,070416,,,D*75
$GPVTG,122.7,T,,M,000.0,N,000.0,K,D*0E
$GPZDA,213228.000,07,04,2016,00,00*58
$GPGST,213228.000,23.5,68.5,12.5,14.1,0.3,0.4,1.1*65
$PSTI,030,213228.000,A,4404.1295201,N,12118.8678433,W,1104.213,-0.01,0.04,0.04,070416,D,0.0,0.0*11
$GPGGA,213229.000,4404.1295079,N,12118.8678066,W,2,08,1.2,1104.272,M,-20.300,M,,0000*5F
$GPGLL,4404.1295079,N,12118.8678066,W,213229.000,A,D*48
$GPGSA,A,3,09,23,08,11,27,30,28,,,,,,2.4,1.2,2.1*38
$BDGSA,A,3,214,,,,,,,,,,,,2.4,1.2,2.1*12
$GPGSV,4,1,13,07,73,043,11,30,64,306,24,09,41,158,29,28,40,226,29*70
$GPGSV,4,2,13,08,40,079,18,51,37,160,32,05,23,288,,27,23,047,19*79
$GPGSV,4,3,13,13,12,315,,23,11,147,30,193,08,298,,11,06,123,23*4D
$GPGSV,4,4,13,20,03,330,*4A
$BDGSV,1,1,03,214,34,246,22,206,09,330,,212,04,172,30*64
$GPRMC,213229.000,A,4404.1295079,N,12118.8678066,W,000.0,122.7,070416,,,D*7D
$GPVTG,122.7,T,,M,000.0,N,000.0,K,D*0E
$GPZDA,213229.000,07,04,2016,00,00*59
$GPGST,213229.000,18.8,22.9,15.0,8.0,0.3,0.4,1.1*5D
$PSTI,030,213229.000,A,4404.1295079,N,12118.8678066,W,1104.272,0.00,0.06,0.06,070416,D,0.0,0.0*32
$GPGGA,213230.000,4404.1295100,N,12118.8677931,W,2,07,1.6,1104.281,M,-20.300,M,,0000*5B
$GPGLL,4404.1295100,N,12118.8677931,W,213230.000,A,D*4B
$GPGSA,A,3,09,23,08,11,30,28,,,,,,,3.0,1.6,2.5*38
$BDGSA,A,3,214,,,,,,,,,,,,3.0,1.6,2.5*17
$GPRMC,213230.000,A,4404.1295100,N,12118.8677931,W,000.0,122.7,070416,,,D*7E
$GPVTG,122.7,T,,M,000.0,N,000.0,K,D*0E
$GPZDA,213230.000,07,04,2016,00,00*51
$GPGST,213230.000,13.1,49.3,12.8,10.3,0.3,0.4,1.1*65
$PSTI,030,213230.000,A,4404.1295100,N,12118.8677931,W,1104.281,0.00,0.05,0.07,070416,D,0.0,0.0*3F
$GPGGA,213231.000,4404.1295300,N,12118.8678017,W,2,07,1.6,1104.218,M,-20.300,M,,0000*5A
$GPGLL,4404.1295300,N,12118.8678017,W,213231.000,A,D*4A
$GPGSA,A,3,09,23,08,11,30,28,,,,,,,3.0,1.6,2.5*38
$BDGSA,A,3,214,,,,,,,,,,,,3.0,1.6,2.5*17
$GPRMC,213231.000,A,4404.1295300,N,12118.8678017,W,000.0,122.7,070416,,,D*7F
$GPVTG,122.7,T,,M,000.0,N,000.0,K,D*0E
$GPZDA,213231.000,07,04,2016,00,00*50
$GPGST,213231.000,11.1,57.1,10.1,14.8,0.3,0.4,1.1*6F
$PSTI,030,213231.000,A,4404.1295300,N,12118.8678017,W,1104.218,0.01,0.07,0.05,070416,D,0.0,0.0*3F
$GPGGA,213232.000,4404.1295253,N,12118.8678115,W,2,07,1.6,1104.186,M,-20.300,M,,0000*59
$GPGLL,4404.1295253,N,12118.8678115,W,213232.000,A,D*4D
$GPGSA,A,3,09,23,08,11,30,28,,,,,,,3.0,1.6,2.5*38
$BDGSA,A,3,214,,,,,,,,,,,,3.0,1.6,2.5*17
$GPGSV,4,1,13,07,73,043,16,30,64,306,24,09,41,158,31,28,40,226,27*70
$GPGSV,4,2,13,08,40,079,19,51,37,160,32,05,23,288,,27,23,047,18*79
$GPGSV,4,3,13,13,12,315,,23,11,147,31,193,08,298,,11,06,123,23*4C
$GPGSV,4,4,13,20,03,330,*4A
$BDGSV,1,1,03,214,34,246,24,206,09,330,,212,04,172,30*62
$GPRMC,213232.000,A,4404.1295253,N,12118.8678115,W,000.0,122.7,070416,,,D*78
$GPVTG,122.7,T,,M,000.0,N,000.0,K,D*0E
$GPZDA,213232.000,07,04,2016,00,00*53
$GPGST,213232.000,8.9,27.4,11.8,13.3,0.3,0.4,1.2*59
$PSTI,030,213232.000,A,4404.1295253,N,12118.8678115,W,1104.186,0.01,0.04,0.06,070416,D,0.0,0.0*3C
$GPGGA,213233.000,4404.1295353,N,12118.8678120,W,2,08,1.2,1104.173,M,-20.300,M,,0000*5E
$GPGLL,4404.1295353,N,12118.8678120,W,213233.000,A,D*4B
$GPGSA,A,3,09,23,08,11,27,30,28,,,,,,2.4,1.2,2.1*38
$BDGSA,A,3,214,,,,,,,,,,,,2.4,1.2,2.1*12
$GPRMC,213233.000,A,4404.1295353,N,12118.8678120,W,000.0,122.7,070416,,,D*7E
$GPVTG,122.7,T,,M,000.0,N,000.0,K,D*0E
$GPZDA,213233.000,07,04,2016,00,00*52
$GPGST,213233.000,10.3,22.2,17.8,-11.6,0.3,0.4,1.2*44
$PSTI,030,213233.000,A,4404.1295353,N,12118.8678120,W,1104.173,0.02,0.03,0.04,070416,D,0.0,0.0*36
$GPGGA,213234.000,4404.1295511,N,12118.8678161,W,2,09,1.1,1104.142,M,-20.300,M,,0000*5C
$GPGLL,4404.1295511,N,12118.8678161,W,213234.000,A,D*49
$GPGSA,A,3,09,23,08,07,11,27,30,28,,,,,2.1,1.1,1.7*3C
$BDGSA,A,3,214,,,,,,,,,,,,2.1,1.1,1.7*11
$GPRMC,213234.000,A,4404.1295511,N,12118.8678161,W,000.0,122.7,070416,,,D*7C
$GPVTG,122.7,T,,M,000.0,N,000.0,K,D*0E
$GPZDA,213234.000,07,04,2016,00,00*55
$GPGST,213234.000,10.2,49.9,13.0,10.9,0.3,0.5,1.2*6A
$PSTI,030,213234.000,A,4404.1295511,N,12118.8678161,W,1104.142,0.03,0.03,0.04,070416,D,0.0,0.0*37
$GPGGA,213235.000,4404.1295312,N,12118.8677885,W,2,08,1.2,1104.187,M,-20.300,M,,0000*5F
$GPGLL,4404.1295312,N,12118.8677885,W,213235.000,A,D*41
$GPGSA,A,3,09,23,08,11,27,30,28,,,,,,2.4,1.2,2.1*38
$BDGSA,A,3,214,,,,,,,,,,,,2.4,1.2,2.1*12
$GPGSV,4,1,13,07,73,043,18,30,64,306,24,09,41,158,31,28,40,226,27*7E
$GPGSV,4,2,13,08,40,079,18,51,37,160,30,05,23,288,,27,23,047,19*7B
$GPGSV,4,3,13,13,12,315,,23,11,147,31,193,08,298,,11,06,123,23*4C
$GPGSV,4,4,13,20,03,330,*4A
$BDGSV,1,1,03,214,34,246,23,206,09,330,,212,04,172,30*65
$GPRMC,213235.000,A,4404.1295312,N,12118.8677885,W,000.0,122.7,070416,,,D*74
$GPVTG,122.7,T,,M,000.0,N,000.0,K,D*0E
$GPZDA,213235.000,07,04,2016,00,00*54
$GPGST,213235.000,9.8,20.2,15.1,2.3,0.3,0.5,1.2*63
$PSTI,030,213235.000,A,4404.1295312,N,12118.8677885,W,1104.187,0.04,-0.03,0.08,070416,D,0.0,0.0*10
$GPGGA,213236.000,4404.1295156,N,12118.8677805,W,2,09,1.1,1104.269,M,-20.300,M,,0000*57
$GPGLL,4404.1295156,N,12118.8677805,W,213236.000,A,D*48
$GPGSA,A,3,09,23,08,07,11,27,30,28,,,,,2.1,1.1,1.7*3C
$BDGSA,A,3,214,,,,,,,,,,,,2.1,1.1,1.7*11
$GPRMC,213236.000,A,4404.1295156,N,12118.8677805,W,000.0,122.7,070416,,,D*7D
$GPVTG,122.7,T,,M,000.0,N,000.0,K,D*0E
$GPZDA,213236.000,07,04,2016,00,00*57
$GPGST,213236.000,9.0,22.0,14.4,11.9,0.3,0.5,1.2*54
$PSTI,030,213236.000,A,4404.1295156,N,12118.8677805,W,1104.269,-0.01,-0.01,0.03,070416,D,0.0,0.0*3B
$GPGGA,213237.000,4404.1294986,N,12118.8677739,W,2,08,1.6,1104.364,M,-20.300,M,,0000*58
$GPGLL,4404.1294986,N,12118.8677739,W,213237.000,A,D*4D
$GPGSA,A,3,09,23,08,07,11,30,28,,,,,,2.8,1.6,2.3*30
$BDGSA,A,3,214,,,,,,,,,,,,2.8,1.6,2.3*18
$GPRMC,213237.000,A,4404.1294986,N,12118.8677739,W,000.0,122.7,070416,,,D*78
$GPVTG,122.7,T,,M,000.0,N,000.0,K,D*0E
$GPZDA,213237.000,07,04,2016,00,00*56
$GPGST,213237.000,9.7,39.1,13.6,11.3,0.3,0.5,1.2*56
$PSTI,030,213237.000,A,4404.1294986,N,12118.8677739,W,1104.364,-0.00,0.01,0.02,070416,D,0.0,0.0*1F
$GPGGA,213238.000,4404.1294856,N,12118.8677688,W,2,09,1.1,1104.368,M,-20.300,M,,0000*5A
$GPGLL,4404.1294856,N,12118.8677688,W,213238.000,A,D*45
$GPGSA,A,3,09,23,08,07,11,27,30,28,,,,,2.1,1.1,1.7*3C
$BDGSA,A,3,214,,,,,,,,,,,,2.1,1.1,1.7*11
$GPGSV,4,1,13,07,73,043,18,30,64,306,25,09,41,158,32,28,40,226,26*7D
$GPGSV,4,2,13,08,40,079,20,51,37,160,31,05,23,288,,27,23,047,18*70
$GPGSV,4,3,13,13,12,315,,23,11,147,30,193,08,298,,11,06,123,23*4D
$GPGSV,4,4,13,20,03,330,*4A
$BDGSV,1,1,03,214,34,246,23,206,09,330,,212,04,172,31*64
$GPRMC,213238.000,A,4404.1294856,N,12118.8677688,W,000.0,122.7,070416,,,D*70
$GPVTG,122.7,T,,M,000.0,N,000.0,K,D*0E
$GPZDA,213238.000,07,04,2016,00,00*59
$GPGST,213238.000,7.5,22.3,14.5,10.3,0.3,0.5,1.2*58
$PSTI,030,213238.000,A,4404.1294856,N,12118.8677688,W,1104.368,-0.01,0.02,0.02,070416,D,0.0,0.0*19
$GPGGA,213239.000,4404.1294738,N,12118.8677560,W,2,08,1.2,1104.361,M,-20.300,M,,0000*52
$GPGLL,4404.1294738,N,12118.8677560,W,213239.000,A,D*46
$GPGSA,A,3,09,23,07,11,27,30,28,,,,,,2.1,1.2,1.8*38
$BDGSA,A,3,214,,,,,,,,,,,,2.1,1.2,1.8*1D
$GPRMC,213239.000,A,4404.1294738,N,12118.8677560,W,000.0,122.7,070416,,,D*73
$GPVTG,122.7,T,,M,000.0,N,000.0,K,D*0E
$GPZDA,213239.000,07,04,2016,00,00*58
$GPGST,213239.000,7.2,24.5,15.6,16.4,0.3,0.5,1.2*5D
$PSTI,030,213239.000,A,4404.1294738,N,12118.8677560,W,1104.361,-0.01,0.00,0.02,070416,D,0.0,0.0*11
$GPGGA,213240.000,4404.1294568,N,12118.8677312,W,2,09,1.1,1104.356,M,-20.300,M,,0000*5E
$GPGLL,4404.1294568,N,12118.8677312,W,213240.000,A,D*4C
$GPGSA,A,3,09,23,08,07,11,27,30,28,,,,,2.1,1.1,1.7*3C
$BDGSA,A,3,214,,,,,,,,,,,,2.1,1.1,1.7*11
$GPRMC,213240.000,A,4404.1294568,N,12118.8677312,W,000.0,122.7,070416,,,D*79
$GPVTG,122.7,T,,M,000.0,N,000.0,K,D*0E
$GPZDA,213240.000,07,04,2016,00,00*56
$GPGST,213240.000,10.0,21.7,14.4,10.7,0.3,0.5,1.2*66
$PSTI,030,213240.000,A,4404.1294568,N,12118.8677312,W,1104.356,-0.01,0.01,0.00,070416,D,0.0,0.0*1C
$GPGGA,213241.000,4404.1294325,N,12118.8677127,W,2,08,1.2,1104.384,M,-20.300,M,,0000*59
$GPGLL,4404.1294325,N,12118.8677127,W,213241.000,A,D*46
$GPGSA,A,3,09,23,07,11,27,30,28,,,,,,2.1,1.2,1.8*38
$BDGSA,A,3,214,,,,,,,,,,,,2.1,1.2,1.8*1D
$GPGSV,4,1,13,07,73,043,19,30,64,306,25,09,41,158,33,28,40,226,25*7E
$GPGSV,4,2,13,08,40,079,18,51,37,160,32,05,23,288,,27,23,047,19*79
$GPGSV,4,3,13,13,12,315,,23,11,147,30,193,08,298,,11,06,123,24*4A
$GPGSV,4,4,13,20,03,330,*4A
$BDGSV,1,1,03,214,34,246,22,206,09,330,,212,04,172,30*64
$GPRMC,213241.000,A,4404.1294325,N,12118.8677127,W,000.0,122.7,070416,,,D*73
$GPVTG,122.7,T,,M,000.0,N,000.0,K,D*0E
$GPZDA,213241.000,07,04,2016,00,00*57
$GPGST,213241.000,7.9,20.0,18.9,-0.7,0.3,0.5,1.2*43
$PSTI,030,213241.000,A,4404.1294325,N,12118.8677127,W,1104.384,-0.02,-0.00,-0.01,070416,D,0.0,0.0*1A
$GPGGA,213242.000,4404.1294229,N,12118.8677106,W,2,08,1.2,1104.356,M,-20.300,M,,0000*5B
$GPGLL,4404.1294229,N,12118.8677106,W,213242.000,A,D*4B
$GPGSA,A,3,09,23,07,11,27,30,28,,,,,,2.1,1.2,1.8*38
$BDGSA,A,3,214,,,,,,,,,,,,2.1,1.2,1.8*1D
$GPRMC,213242.000,A,4404.1294229,N,12118.8677106,W,000.0,122.7,070416,,,D*7E
$GPVTG,122.7,T,,M,000.0,N,000.0,K,D*0E
$GPZDA,213242.000,07,04,2016,00,00*54
$GPGST,213242.000,6.8,28.9,16.3,21.1,0.4,0.3,1.2*5C
$PSTI,030,213242.000,A,4404.1294229,N,12118.8677106,W,1104.356,-0.01,-0.00,0.00,070416,D,0.0,0.0*37
$GPGGA,213243.000,4404.1294000,N,12118.8676948,W,2,08,1.2,1104.398,M,-20.300,M,,0000*52
$GPGLL,4404.1294000,N,12118.8676948,W,213243.000,A,D*40
$GPGSA,A,3,09,23,07,11,27,30,28,,,,,,2.1,1.2,1.8*38
$BDGSA,A,3,214,,,,,,,,,,,,2.1,1.2,1.8*1D
$GPRMC,213243.000,A,4404.1294000,N,12118.8676948,W,000.0,122.7,070416,,,D*75
$GPVTG,122.7,T,,M,000.0,N,000.0,K,D*0E
$GPZDA,213243.000,07,04,2016,00,00*55
$GPGST,213243.000,6.8,21.0,14.6,9.5,0.4,0.3,1.2*64
$PSTI,030,213243.000,A,4404.1294000,N,12118.8676948,W,1104.398,0.01,-0.01,0.03,070416,D,0.0,0.0*11
$GPGGA,213244.000,4404.1293810,N,12118.8676850,W,2,08,1.2,1104.436,M,-20.300,M,,0000*50
$GPGLL,4404.1293810,N,12118.8676850,W,213244.000,A,D*41
$GPGSA,A,3,09,23,07,11,27,30,28,,,,,,2.1,1.2,1.8*38
$BDGSA,A,3,214,,,,,,,,,,,,2.1,1.2,1.8*1D
$GPGSV,4,1,13,07,73,043,18,30,64,306,24,09,41,158,33,28,40,226,26*7D
$GPGSV,4,2,13,08,40,079,15,51,37,160,32,05,23,288,,27,23,047,19*74
$GPGSV,4,3,13,13,12,315,,23,11,147,30,193,08,298,,11,06,123,25*4B
$GPGSV,4,4,13,20,03,330,*4A
$BDGSV,1,1,03,214,34,246,23,206,09,330,,212,04,172,30*65
$GPRMC,213244.000,A,4404.1293810,N,12118.8676850,W,000.0,122.7,070416,,,D*74
$GPVTG,122.7,T,,M,000.0,N,000.0,K,D*0E
$GPZDA,213244.000,07,04,2016,00,00*52
$GPGST,213244.000,6.5,21.0,11.1,11.8,0.4,0.3,1.2*58
$PSTI,030,213244.000,A,4404.1293810,N,12118.8676850,W,1104.436,0.01,-0.02,0.04,070416,D,0.0,0.0*17
$GPGGA,213245.000,4404.1293471,N,12118.8676660,W,2,08,1.2,1104.513,M,-20.300,M,,0000*51
$GPGLL,4404.1293471,N,12118.8676660,W,213245.000,A,D*46
$GPGSA,A,3,09,23,07,11,27,30,28,,,,,,2.1,1.2,1.8*38
$BDGSA,A,3,214,,,,,,,,,,,,2.1,1.2,1.8*1D
$GPRMC,213245.000,A,4404.1293471,N,12118.8676660,W,000.0,122.7,070416,,,D*73
$GPVTG,122.7,T,,M,000.0,N,000.0,K,D*0E
$GPZDA,213245.000,07,04,2016,00,00*53
$GPGST,213245.000,8.1,21.0,14.6,9.4,0.4,0.3,1.2*64
$PSTI,030,213245.000,A,4404.1293471,N,12118.8676660,W,1104.513,0.03,-0.05,0.07,070416,D,0.0,0.0*10
$GPGGA,213246.000,4404.1293396,N,12118.8676517,W,2,08,1.2,1104.557,M,-20.300,M,,0000*5F
$GPGLL,4404.1293396,N,12118.8676517,W,213246.000,A,D*48
$GPGSA,A,3,09,23,07,11,27,30,28,,,,,,2.1,1.2,1.8*38
$BDGSA,A,3,214,,,,,,,,,,,,2.1,1.2,1.8*1D
$GPRMC,213246.000,A,4404.1293396,N,12118.8676517,W,000.0,122.7,070416,,,D*7D
$GPVTG,122.7,T,,M,000.0,N,000.0,K,D*0E
$GPZDA,213246.000,07,04,2016,00,00*50
$GPGST,213246.000,6.3,20.1,15.3,2.7,0.4,0.3,1.2*67
$PSTI,030,213246.000,A,4404.1293396,N,12118.8676517,W,1104.557,0.03,-0.05,0.09,070416,D,0.0,0.0*10
$GPGGA,213247.000,4404.1293330,N,12118.8676310,W,2,07,1.3,1104.614,M,-20.300,M,,0000*59
$GPGLL,4404.1293330,N,12118.8676310,W,213247.000,A,D*44
$GPGSA,A,3,09,23,11,27,30,28,,,,,,,2.7,1.3,2.4*37
$BDGSA,A,3,214,,,,,,,,,,,,2.7,1.3,2.4*15
$GPGSV,4,1,13,07,73,043,17,30,64,306,24,09,41,158,33,28,40,226,27*73
$GPGSV,4,2,13,08,40,079,16,51,37,160,32,05,23,288,,27,23,047,18*76
$GPGSV,4,3,13,13,12,315,,23,11,147,32,193,08,298,,11,06,123,25*49
$GPGSV,4,4,13,20,03,330,*4A
$BDGSV,1,1,03,214,34,246,23,206,09,330,,212,04,172,30*65
$GPRMC,213247.000,A,4404.1293330,N,12118.8676310,W,000.0,122.7,070416,,,D*71
$GPVTG,122.7,T,,M,000.0,N,000.0,K,D*0E
$GPZDA,213247.000,07,04,2016,00,00*51
$GPGST,213247.000,7.1,25.3,12.9,7.2,0.4,0.3,1.2*6F
$PSTI,030,213247.000,A,4404.1293330,N,12118.8676310,W,1104.614,0.03,-0.05,0.12,070416,D,0.0,0.0*12
$GPGGA,213248.000,4404.1293316,N,12118.8676297,W,2,07,1.3,1104.629,M,-20.300,M,,0000*52
$GPGLL,4404.1293316,N,12118.8676297,W,213248.000,A,D*41
$GPGSA,A,3,09,23,11,27,30,28,,,,,,,2.7,1.3,2.4*37
$BDGSA,A,3,214,,,,,,,,,,,,2.7,1.3,2.4*15
$GPRMC,213248.000,A,4404.1293316,N,12118.8676297,W,000.0,122.7,070416,,,D*74
$GPVTG,122.7,T,,M,000.0,N,000.0,K,D*0E
$GPZDA,213248.000,07,04,2016,00,00*5E
$GPGST,213248.000,6.1,22.8,10.5,14.4,0.4,0.3,1.2*57
$PSTI,030,213248.000,A,4404.1293316,N,12118.8676297,W,1104.629,0.03,-0.07,0.14,070416,D,0.0,0.0*1D
$GPGGA,213249.000,4404.1293376,N,12118.8676252,W,2,07,1.3,1104.602,M,-20.300,M,,0000*55
$GPGLL,4404.1293376,N,12118.8676252,W,213249.000,A,D*4F
$GPGSA,A,3,09,23,11,27,30,28,,,,,,,2.7,1.3,2.4*37
$BDGSA,A,3,214,,,,,,,,,,,,2.7,1.3,2.4*15
$GPRMC,213249.000,A,4404.1293376,N,12118.8676252,W,000.0,122.7,070416,,,D*7A
$GPVTG,122.7,T,,M,000.0,N,000.0,K,D*0E
$GPZDA,213249.000,07,04,2016,00,00*5F
$GPGST,213249.000,7.3,20.8,10.7,13.1,0.4,0.3,1.2*57
$PSTI,030,213249.000,A,4404.1293376,N,12118.8676252,W,1104.602,0.02,-0.05,0.12,070416,D,0.0,0.0*1F
$GPGGA,213250.000,4404.1292889,N,12118.8675890,W,2,07,1.3,1104.687,M,-20.300,M,,0000*5D
$GPGLL,4404.1292889,N,12118.8675890,W,213250.000,A,D*4A
$GPGSA,A,3,09,23,11,27,30,28,,,,,,,2.7,1.3,2.4*37
$BDGSA,A,3,214,,,,,,,,,,,,2.7,1.3,2.4*15
$GPGSV,4,1,13,07,72,044,18,30,64,306,26,09,41,158,33,08,40,078,15*72
$GPGSV,4,2,13,28,40,226,27,51,37,160,32,05,23,288,09,27,23,047,20*7C
$GPGSV,4,3,13,13,12,315,,23,11,147,32,193,08,298,,11,06,123,26*4A
$GPGSV,4,4,13,20,03,330,*4A
$BDGSV,1,1,03,214,34,246,23,206,09,330,,212,04,172,29*6D
$GPRMC,213250.000,A,4404.1292889,N,12118.8675890,W,000.0,122.7,070416,,,D*7F
$GPVTG,122.7,T,,M,000.0,N,000.0,K,D*0E
$GPZDA,213250.000,07,04,2016,00,00*57
$GPGST,213250.000,10.5,17.2,12.1,12.1,0.4,0.3,1.2*64
$PSTI,030,213250.000,A,4404.1292889,N,12118.8675890,W,1104.687,0.03,-0.05,0.13,070416,D,0.0,0.0*17
$GPGGA,213251.000,4404.1292851,N,12118.8675848,W,2,07,1.3,1104.693,M,-20.300,M,,0000*59
$GPGLL,4404.1292851,N,12118.8675848,W,213251.000,A,D*4B
$GPGSA,A,3,09,23,11,27,30,28,,,,,,,2.7,1.3,2.4*37
$BDGSA,A,3,214,,,,,,,,,,,,2.7,1.3,2.4*15
$GPRMC,213251.000,A,4404.1292851,N,12118.8675848,W,000.0,122.7,070416,,,D*7E
$GPVTG,122.7,T,,M,000.0,N,000.0,K,D*0E
$GPZDA,213251.000,07,04,2016,00,00*56
$GPGST,213251.000,11.5,13.3,12.7,0.3,0.4,0.3,1.2*56
$PSTI,030,213251.000,A,4404.1292851,N,12118.8675848,W,1104.693,0.05,-0.02,0.15,070416,D,0.0,0.0*14
$GPGGA,213252.000,4404.1292571,N,12118.8675667,W,2,07,1.3,1104.750,M,-20.300,M,,0000*58
$GPGLL,4404.1292571,N,12118.8675667,W,213252.000,A,D*44
$GPGSA,A,3,09,23,11,27,30,28,,,,,,,2.7,1.3,2.4*37
$BDGSA,A,3,214,,,,,,,,,,,,2.7,1.3,2.4*15
$GPRMC,213252.000,A,4404.1292571,N,12118.8675667,W,000.0,122.7,070416,,,D*71
$GPVTG,122.7,T,,M,000.0,N,000.0,K,D*0E
$GPZDA,213252.000,07,04,2016,00,00*55
$GPGST,213252.000,5.8,19.3,14.5,8.5,0.5,0.3,1.2*6C
$PSTI,030,213252.000,A,4404.1292571,N,12118.8675667,W,1104.750,0.06,-0.01,0.14,070416,D,0.0,0.0*14
$GPGGA,213253.000,4404.1292540,N,12118.8675636,W,2,07,1.3,1104.760,M,-20.300,M,,0000*5C
$GPGLL,4404.1292540,N,12118.8675636,W,213253.000,A,D*43
$GPGSA,A,3,09,23,11,27,30,28,,,,,,,2.7,1.3,2.4*37
$BDGSA,A,3,214,,,,,,,,,,,,2.7,1.3,2.4*15
$GPGSV,4,1,13,07,72,044,19,30,64,306,25,09,41,158,34,08,40,078,19*7B
$GPGSV,4,2,13,28,40,226,28,51,37,160,32,05,23,288,14,27,23,047,21*7E
$GPGSV,4,3,13,13,12,315,,23,11,147,32,193,08,298,,11,07,123,25*48
$GPGSV,4,4,13,20,03,330,*4A
$BDGSV,1,1,03,214,34,246,23,206,09,330,,212,04,172,29*6D
$GPRMC,213253.000,A,4404.1292540,N,12118.8675636,W,000.0,122.7,070416,,,D*76
$GPVTG,122.7,T,,M,000.0,N,000.0,K,D*0E
$GPZDA,213253.000,07,04,2016,00,00*54
$GPGST,213253.000,8.3,20.4,11.9,12.2,0.5,0.3,1.2*53
$PSTI,030,213253.000,A,4404.1292540,N,12118.8675636,W,1104.760,0.05,-0.02,0.13,070416,D,0.0,0.0*17
$GPGGA,213254.000,4404.1292190,N,12118.8675278,W,2,08,1.2,1104.884,M,-20.300,M,,0000*57
$GPGLL,4404.1292190,N,12118.8675278,W,213254.000,A,D*43
$GPGSA,A,3,09,23,08,11,27,30,28,,,,,,2.4,1.2,2.1*38
$BDGSA,A,3,214,,,,,,,,,,,,2.4,1.2,2.1*12
$GPRMC,213254.000,A,4404.1292190,N,12118.8675278,W,000.0,122.7,070416,,,D*76
$GPVTG,122.7,T,,M,000.0,N,000.0,K,D*0E
$GPZDA,213254.000,07,04,2016,00,00*53
$GPGST,213254.000,9.6,20.4,14.3,9.7,0.5,0.3,1.2*60
$PSTI,030,213254.000,A,4404.1292190,N,12118.8675278,W,1104.884,0.03,-0.00,0.10,070416,D,0.0,0.0*15
