$GPTXT,TELIT SW Version: SL869 v3.1.2.1 -STD -N96
$GPRMC,102136.000,V,3340.8472,S,15117.3205,E,0.0,0.0,251112,0.0,W*79
{"class":"TPV","mode":1}
$GPGGA,102136.000,3340.8472,S,15117.3205,E,0,02,99.0,064.19,M,22.4,M,,*41
{"class":"TPV","mode":1}
$GNGSA,A,1,10,17,,,,,,,,,,,99.0,99.0,99.0*19
{"class":"TPV","mode":1}
$GNGSA,A,1,,,,,,,,,,,,,99.0,99.0,99.0*1E
{"class":"TPV","mode":1}
$GNGSA,A,1,,,,,,,,,,,,,99.0,99.0,99.0*1E
{"class":"TPV","mode":1}
$GPGSV,3,1,10,02,86,086,,04,40,133,,05,20,023,39,09,36,327,*7F
$GPGSV,3,2,10,10,31,083,38,12,61,213,,17,07,105,20,24,38,321,*74
$GPGSV,3,3,10,25,25,224,31,29,12,267,34,,,,,,,,*72
{"class":"SKY","vdop":99.00,"hdop":99.00,"pdop":99.00,"satellites":[{"PRN":2,"el":86.0,"az":86.0,"ss":0.0,"used":false,"gnssid":0,"svid":2},{"PRN":4,"el":40.0,"az":133.0,"ss":0.0,"used":false,"gnssid":0,"svid":4},{"PRN":5,"el":20.0,"az":23.0,"ss":39.0,"used":false,"gnssid":0,"svid":5},{"PRN":9,"el":36.0,"az":327.0,"ss":0.0,"used":false,"gnssid":0,"svid":9},{"PRN":10,"el":31.0,"az":83.0,"ss":38.0,"used":true,"gnssid":0,"svid":10},{"PRN":12,"el":61.0,"az":213.0,"ss":0.0,"used":false,"gnssid":0,"svid":12},{"PRN":17,"el":7.0,"az":105.0,"ss":20.0,"used":true,"gnssid":0,"svid":17},{"PRN":24,"el":38.0,"az":321.0,"ss":0.0,"used":false,"gnssid":0,"svid":24},{"PRN":25,"el":25.0,"az":224.0,"ss":31.0,"used":false,"gnssid":0,"svid":25},{"PRN":29,"el":12.0,"az":267.0,"ss":34.0,"used":false,"gnssid":0,"svid":29}]}
$GLGSV,2,1,08,76,08,007,,65,10,040,,81,09,277,16,78,51,239,*60
$GLGSV,2,2,08,77,51,333,,88,48,233,,87,41,153,,71,11,142,*68
{"class":"SKY","vdop":99.00,"hdop":99.00,"pdop":99.00,"satellites":[{"PRN":2,"el":86.0,"az":86.0,"ss":0.0,"used":false,"gnssid":0,"svid":2},{"PRN":4,"el":40.0,"az":133.0,"ss":0.0,"used":false,"gnssid":0,"svid":4},{"PRN":5,"el":20.0,"az":23.0,"ss":39.0,"used":false,"gnssid":0,"svid":5},{"PRN":9,"el":36.0,"az":327.0,"ss":0.0,"used":false,"gnssid":0,"svid":9},{"PRN":10,"el":31.0,"az":83.0,"ss":38.0,"used":true,"gnssid":0,"svid":10},{"PRN":12,"el":61.0,"az":213.0,"ss":0.0,"used":false,"gnssid":0,"svid":12},{"PRN":17,"el":7.0,"az":105.0,"ss":20.0,"used":true,"gnssid":0,"svid":17},{"PRN":24,"el":38.0,"az":321.0,"ss":0.0,"used":false,"gnssid":0,"svid":24},{"PRN":25,"el":25.0,"az":224.0,"ss":31.0,"used":false,"gnssid":0,"svid":25},{"PRN":29,"el":12.0,"az":267.0,"ss":34.0,"used":false,"gnssid":0,"svid":29},{"PRN":76,"el":8.0,"az":7.0,"ss":0.0,"used":false,"gnssid":6,"svid":12},{"PRN":65,"el":10.0,"az":40.0,"ss":0.0,"used":false,"gnssid":6,"svid":1},{"PRN":81,"el":9.0,"az":277.0,"ss":16.0,"used":false,"gnssid":6,"svid":17},{"PRN":78,"el":51.0,"az":239.0,"ss":0.0,"used":false,"gnssid":6,"svid":14},{"PRN":77,"el":51.0,"az":333.0,"ss":0.0,"used":false,"gnssid":6,"svid":13},{"PRN":88,"el":48.0,"az":233.0,"ss":0.0,"used":false,"gnssid":6,"svid":24},{"PRN":87,"el":41.0,"az":153.0,"ss":0.0,"used":false,"gnssid":6,"svid":23},{"PRN":71,"el":11.0,"az":142.0,"ss":0.0,"used":false,"gnssid":6,"svid":7}]}
$QZGSV,1,1,01,193,34,332,,,,,,,,,,,,,*6A
{"class":"SKY","vdop":99.00,"hdop":99.00,"pdop":99.00,"satellites":[{"PRN":2,"el":86.0,"az":86.0,"ss":0.0,"used":false,"gnssid":0,"svid":2},{"PRN":4,"el":40.0,"az":133.0,"ss":0.0,"used":false,"gnssid":0,"svid":4},{"PRN":5,"el":20.0,"az":23.0,"ss":39.0,"used":false,"gnssid":0,"svid":5},{"PRN":9,"el":36.0,"az":327.0,"ss":0.0,"used":false,"gnssid":0,"svid":9},{"PRN":10,"el":31.0,"az":83.0,"ss":38.0,"used":true,"gnssid":0,"svid":10},{"PRN":12,"el":61.0,"az":213.0,"ss":0.0,"used":false,"gnssid":0,"svid":12},{"PRN":17,"el":7.0,"az":105.0,"ss":20.0,"used":true,"gnssid":0,"svid":17},{"PRN":24,"el":38.0,"az":321.0,"ss":0.0,"used":false,"gnssid":0,"svid":24},{"PRN":25,"el":25.0,"az":224.0,"ss":31.0,"used":false,"gnssid":0,"svid":25},{"PRN":29,"el":12.0,"az":267.0,"ss":34.0,"used":false,"gnssid":0,"svid":29},{"PRN":76,"el":8.0,"az":7.0,"ss":0.0,"used":false,"gnssid":6,"svid":12},{"PRN":65,"el":10.0,"az":40.0,"ss":0.0,"used":false,"gnssid":6,"svid":1},{"PRN":81,"el":9.0,"az":277.0,"ss":16.0,"used":false,"gnssid":6,"svid":17},{"PRN":78,"el":51.0,"az":239.0,"ss":0.0,"used":false,"gnssid":6,"svid":14},{"PRN":77,"el":51.0,"az":333.0,"ss":0.0,"used":false,"gnssid":6,"svid":13},{"PRN":88,"el":48.0,"az":233.0,"ss":0.0,"used":false,"gnssid":6,"svid":24},{"PRN":87,"el":41.0,"az":153.0,"ss":0.0,"used":false,"gnssid":6,"svid":23},{"PRN":71,"el":11.0,"az":142.0,"ss":0.0,"used":false,"gnssid":6,"svid":7},{"PRN":193,"el":34.0,"az":332.0,"ss":0.0,"used":false,"gnssid":5,"svid":1}]}
$GPRMC,102137.000,V,3340.8472,S,15117.3205,E,0.0,0.0,251112,0.0,W*78
{"class":"TPV","mode":1}
$GPGGA,102137.000,3340.8472,S,15117.3205,E,0,02,99.0,064.19,M,22.4,M,,*40
{"class":"TPV","mode":1}
$GNGSA,A,1,10,17,,,,,,,,,,,99.0,99.0,99.0*19
$GNGSA,A,1,,,,,,,,,,,,,99.0,99.0,99.0*1E
$GNGSA,A,1,,,,,,,,,,,,,99.0,99.0,99.0*1E
$GPGSV,3,1,10,02,86,086,,04,40,133,,05,20,023,39,09,36,327,*7F
$GPGSV,3,2,10,10,31,083,38,12,61,213,,17,07,105,20,24,38,321,*74
$GPGSV,3,3,10,25,25,224,31,29,12,267,34,,,,,,,,*72
$GLGSV,2,1,08,76,08,007,,65,10,040,,81,09,277,16,78,51,239,*60
$GLGSV,2,2,08,77,51,333,,88,48,233,,87,41,153,,71,11,142,*68
{"class":"SKY","vdop":99.00,"hdop":99.00,"pdop":99.00,"satellites":[{"PRN":2,"el":86.0,"az":86.0,"ss":0.0,"used":false,"gnssid":0,"svid":2},{"PRN":4,"el":40.0,"az":133.0,"ss":0.0,"used":false,"gnssid":0,"svid":4},{"PRN":5,"el":20.0,"az":23.0,"ss":39.0,"used":false,"gnssid":0,"svid":5},{"PRN":9,"el":36.0,"az":327.0,"ss":0.0,"used":false,"gnssid":0,"svid":9},{"PRN":10,"el":31.0,"az":83.0,"ss":38.0,"used":true,"gnssid":0,"svid":10},{"PRN":12,"el":61.0,"az":213.0,"ss":0.0,"used":false,"gnssid":0,"svid":12},{"PRN":17,"el":7.0,"az":105.0,"ss":20.0,"used":true,"gnssid":0,"svid":17},{"PRN":24,"el":38.0,"az":321.0,"ss":0.0,"used":false,"gnssid":0,"svid":24},{"PRN":25,"el":25.0,"az":224.0,"ss":31.0,"used":false,"gnssid":0,"svid":25},{"PRN":29,"el":12.0,"az":267.0,"ss":34.0,"used":false,"gnssid":0,"svid":29},{"PRN":76,"el":8.0,"az":7.0,"ss":0.0,"used":false,"gnssid":6,"svid":12},{"PRN":65,"el":10.0,"az":40.0,"ss":0.0,"used":false,"gnssid":6,"svid":1},{"PRN":81,"el":9.0,"az":277.0,"ss":16.0,"used":false,"gnssid":6,"svid":17},{"PRN":78,"el":51.0,"az":239.0,"ss":0.0,"used":false,"gnssid":6,"svid":14},{"PRN":77,"el":51.0,"az":333.0,"ss":0.0,"used":false,"gnssid":6,"svid":13},{"PRN":88,"el":48.0,"az":233.0,"ss":0.0,"used":false,"gnssid":6,"svid":24},{"PRN":87,"el":41.0,"az":153.0,"ss":0.0,"used":false,"gnssid":6,"svid":23},{"PRN":71,"el":11.0,"az":142.0,"ss":0.0,"used":false,"gnssid":6,"svid":7}]}
$QZGSV,1,1,01,193,34,332,,,,,,,,,,,,,*6A
{"class":"SKY","vdop":99.00,"hdop":99.00,"pdop":99.00,"satellites":[{"PRN":2,"el":86.0,"az":86.0,"ss":0.0,"used":false,"gnssid":0,"svid":2},{"PRN":4,"el":40.0,"az":133.0,"ss":0.0,"used":false,"gnssid":0,"svid":4},{"PRN":5,"el":20.0,"az":23.0,"ss":39.0,"used":false,"gnssid":0,"svid":5},{"PRN":9,"el":36.0,"az":327.0,"ss":0.0,"used":false,"gnssid":0,"svid":9},{"PRN":10,"el":31.0,"az":83.0,"ss":38.0,"used":true,"gnssid":0,"svid":10},{"PRN":12,"el":61.0,"az":213.0,"ss":0.0,"used":false,"gnssid":0,"svid":12},{"PRN":17,"el":7.0,"az":105.0,"ss":20.0,"used":true,"gnssid":0,"svid":17},{"PRN":24,"el":38.0,"az":321.0,"ss":0.0,"used":false,"gnssid":0,"svid":24},{"PRN":25,"el":25.0,"az":224.0,"ss":31.0,"used":false,"gnssid":0,"svid":25},{"PRN":29,"el":12.0,"az":267.0,"ss":34.0,"used":false,"gnssid":0,"svid":29},{"PRN":76,"el":8.0,"az":7.0,"ss":0.0,"used":false,"gnssid":6,"svid":12},{"PRN":65,"el":10.0,"az":40.0,"ss":0.0,"used":false,"gnssid":6,"svid":1},{"PRN":81,"el":9.0,"az":277.0,"ss":16.0,"used":false,"gnssid":6,"svid":17},{"PRN":78,"el":51.0,"az":239.0,"ss":0.0,"used":false,"gnssid":6,"svid":14},{"PRN":77,"el":51.0,"az":333.0,"ss":0.0,"used":false,"gnssid":6,"svid":13},{"PRN":88,"el":48.0,"az":233.0,"ss":0.0,"used":false,"gnssid":6,"svid":24},{"PRN":87,"el":41.0,"az":153.0,"ss":0.0,"used":false,"gnssid":6,"svid":23},{"PRN":71,"el":11.0,"az":142.0,"ss":0.0,"used":false,"gnssid":6,"svid":7},{"PRN":193,"el":34.0,"az":332.0,"ss":0.0,"used":false,"gnssid":5,"svid":1}]}
$GPRMC,102138.000,V,3340.8472,S,15117.3205,E,0.0,0.0,251112,0.0,W*77
$GPGGA,102138.000,3340.8472,S,15117.3205,E,0,02,99.0,064.19,M,22.4,M,,*4F
{"class":"TPV","mode":1}
$GNGSA,A,1,10,17,,,,,,,,,,,99.0,99.0,99.0*19
$GNGSA,A,1,,,,,,,,,,,,,99.0,99.0,99.0*1E
$GNGSA,A,1,,,,,,,,,,,,,99.0,99.0,99.0*1E
$GPGSV,3,1,10,02,86,086,,04,40,133,,05,20,023,39,09,36,327,*7F
$GPGSV,3,2,10,10,31,083,38,12,61,213,,17,07,105,20,24,38,321,*74
$GPGSV,3,3,10,25,25,224,31,29,12,267,34,,,,,,,,*72
$GLGSV,2,1,08,76,08,007,,65,10,040,,81,09,277,16,78,51,239,*60
$GLGSV,2,2,08,77,51,333,,88,48,233,,87,41,153,,71,11,142,*68
{"class":"SKY","vdop":99.00,"hdop":99.00,"pdop":99.00,"satellites":[{"PRN":2,"el":86.0,"az":86.0,"ss":0.0,"used":false,"gnssid":0,"svid":2},{"PRN":4,"el":40.0,"az":133.0,"ss":0.0,"used":false,"gnssid":0,"svid":4},{"PRN":5,"el":20.0,"az":23.0,"ss":39.0,"used":false,"gnssid":0,"svid":5},{"PRN":9,"el":36.0,"az":327.0,"ss":0.0,"used":false,"gnssid":0,"svid":9},{"PRN":10,"el":31.0,"az":83.0,"ss":38.0,"used":true,"gnssid":0,"svid":10},{"PRN":12,"el":61.0,"az":213.0,"ss":0.0,"used":false,"gnssid":0,"svid":12},{"PRN":17,"el":7.0,"az":105.0,"ss":20.0,"used":true,"gnssid":0,"svid":17},{"PRN":24,"el":38.0,"az":321.0,"ss":0.0,"used":false,"gnssid":0,"svid":24},{"PRN":25,"el":25.0,"az":224.0,"ss":31.0,"used":false,"gnssid":0,"svid":25},{"PRN":29,"el":12.0,"az":267.0,"ss":34.0,"used":false,"gnssid":0,"svid":29},{"PRN":76,"el":8.0,"az":7.0,"ss":0.0,"used":false,"gnssid":6,"svid":12},{"PRN":65,"el":10.0,"az":40.0,"ss":0.0,"used":false,"gnssid":6,"svid":1},{"PRN":81,"el":9.0,"az":277.0,"ss":16.0,"used":false,"gnssid":6,"svid":17},{"PRN":78,"el":51.0,"az":239.0,"ss":0.0,"used":false,"gnssid":6,"svid":14},{"PRN":77,"el":51.0,"az":333.0,"ss":0.0,"used":false,"gnssid":6,"svid":13},{"PRN":88,"el":48.0,"az":233.0,"ss":0.0,"used":false,"gnssid":6,"svid":24},{"PRN":87,"el":41.0,"az":153.0,"ss":0.0,"used":false,"gnssid":6,"svid":23},{"PRN":71,"el":11.0,"az":142.0,"ss":0.0,"used":false,"gnssid":6,"svid":7}]}
$QZGSV,1,1,01,193,34,332,,,,,,,,,,,,,*6A
{"class":"SKY","vdop":99.00,"hdop":99.00,"pdop":99.00,"satellites":[{"PRN":2,"el":86.0,"az":86.0,"ss":0.0,"used":false,"gnssid":0,"svid":2},{"PRN":4,"el":40.0,"az":133.0,"ss":0.0,"used":false,"gnssid":0,"svid":4},{"PRN":5,"el":20.0,"az":23.0,"ss":39.0,"used":false,"gnssid":0,"svid":5},{"PRN":9,"el":36.0,"az":327.0,"ss":0.0,"used":false,"gnssid":0,"svid":9},{"PRN":10,"el":31.0,"az":83.0,"ss":38.0,"used":true,"gnssid":0,"svid":10},{"PRN":12,"el":61.0,"az":213.0,"ss":0.0,"used":false,"gnssid":0,"svid":12},{"PRN":17,"el":7.0,"az":105.0,"ss":20.0,"used":true,"gnssid":0,"svid":17},{"PRN":24,"el":38.0,"az":321.0,"ss":0.0,"used":false,"gnssid":0,"svid":24},{"PRN":25,"el":25.0,"az":224.0,"ss":31.0,"used":false,"gnssid":0,"svid":25},{"PRN":29,"el":12.0,"az":267.0,"ss":34.0,"used":false,"gnssid":0,"svid":29},{"PRN":76,"el":8.0,"az":7.0,"ss":0.0,"used":false,"gnssid":6,"svid":12},{"PRN":65,"el":10.0,"az":40.0,"ss":0.0,"used":false,"gnssid":6,"svid":1},{"PRN":81,"el":9.0,"az":277.0,"ss":16.0,"used":false,"gnssid":6,"svid":17},{"PRN":78,"el":51.0,"az":239.0,"ss":0.0,"used":false,"gnssid":6,"svid":14},{"PRN":77,"el":51.0,"az":333.0,"ss":0.0,"used":false,"gnssid":6,"svid":13},{"PRN":88,"el":48.0,"az":233.0,"ss":0.0,"used":false,"gnssid":6,"svid":24},{"PRN":87,"el":41.0,"az":153.0,"ss":0.0,"used":false,"gnssid":6,"svid":23},{"PRN":71,"el":11.0,"az":142.0,"ss":0.0,"used":false,"gnssid":6,"svid":7},{"PRN":193,"el":34.0,"az":332.0,"ss":0.0,"used":false,"gnssid":5,"svid":1}]}
$GPRMC,102139.000,V,3340.8472,S,15117.3205,E,0.0,0.0,251112,0.0,W*76
$GPGGA,102139.000,3340.8472,S,15117.3205,E,0,02,99.0,064.19,M,22.4,M,,*4E
{"class":"TPV","mode":1}
$GNGSA,A,1,10,17,,,,,,,,,,,99.0,99.0,99.0*19
$GNGSA,A,1,,,,,,,,,,,,,99.0,99.0,99.0*1E
$GNGSA,A,1,,,,,,,,,,,,,99.0,99.0,99.0*1E
$GPGSV,3,1,10,02,86,086,,04,40,133,,05,20,023,39,09,36,327,*7F
$GPGSV,3,2,10,10,31,083,38,12,61,213,,17,07,105,20,24,38,321,*74
$GPGSV,3,3,10,25,25,224,31,29,12,267,34,,,,,,,,*72
$GLGSV,2,1,08,76,08,007,,65,10,040,,81,09,277,,78,51,239,*67
$GLGSV,2,2,08,77,51,333,,88,48,233,,87,41,153,,71,11,142,*68
{"class":"SKY","vdop":99.00,"hdop":99.00,"pdop":99.00,"satellites":[{"PRN":2,"el":86.0,"az":86.0,"ss":0.0,"used":false,"gnssid":0,"svid":2},{"PRN":4,"el":40.0,"az":133.0,"ss":0.0,"used":false,"gnssid":0,"svid":4},{"PRN":5,"el":20.0,"az":23.0,"ss":39.0,"used":false,"gnssid":0,"svid":5},{"PRN":9,"el":36.0,"az":327.0,"ss":0.0,"used":false,"gnssid":0,"svid":9},{"PRN":10,"el":31.0,"az":83.0,"ss":38.0,"used":true,"gnssid":0,"svid":10},{"PRN":12,"el":61.0,"az":213.0,"ss":0.0,"used":false,"gnssid":0,"svid":12},{"PRN":17,"el":7.0,"az":105.0,"ss":20.0,"used":true,"gnssid":0,"svid":17},{"PRN":24,"el":38.0,"az":321.0,"ss":0.0,"used":false,"gnssid":0,"svid":24},{"PRN":25,"el":25.0,"az":224.0,"ss":31.0,"used":false,"gnssid":0,"svid":25},{"PRN":29,"el":12.0,"az":267.0,"ss":34.0,"used":false,"gnssid":0,"svid":29},{"PRN":76,"el":8.0,"az":7.0,"ss":0.0,"used":false,"gnssid":6,"svid":12},{"PRN":65,"el":10.0,"az":40.0,"ss":0.0,"used":false,"gnssid":6,"svid":1},{"PRN":81,"el":9.0,"az":277.0,"ss":0.0,"used":false,"gnssid":6,"svid":17},{"PRN":78,"el":51.0,"az":239.0,"ss":0.0,"used":false,"gnssid":6,"svid":14},{"PRN":77,"el":51.0,"az":333.0,"ss":0.0,"used":false,"gnssid":6,"svid":13},{"PRN":88,"el":48.0,"az":233.0,"ss":0.0,"used":false,"gnssid":6,"svid":24},{"PRN":87,"el":41.0,"az":153.0,"ss":0.0,"used":false,"gnssid":6,"svid":23},{"PRN":71,"el":11.0,"az":142.0,"ss":0.0,"used":false,"gnssid":6,"svid":7}]}
$QZGSV,1,1,01,193,34,332,,,,,,,,,,,,,*6A
{"class":"SKY","vdop":99.00,"hdop":99.00,"pdop":99.00,"satellites":[{"PRN":2,"el":86.0,"az":86.0,"ss":0.0,"used":false,"gnssid":0,"svid":2},{"PRN":4,"el":40.0,"az":133.0,"ss":0.0,"used":false,"gnssid":0,"svid":4},{"PRN":5,"el":20.0,"az":23.0,"ss":39.0,"used":false,"gnssid":0,"svid":5},{"PRN":9,"el":36.0,"az":327.0,"ss":0.0,"used":false,"gnssid":0,"svid":9},{"PRN":10,"el":31.0,"az":83.0,"ss":38.0,"used":true,"gnssid":0,"svid":10},{"PRN":12,"el":61.0,"az":213.0,"ss":0.0,"used":false,"gnssid":0,"svid":12},{"PRN":17,"el":7.0,"az":105.0,"ss":20.0,"used":true,"gnssid":0,"svid":17},{"PRN":24,"el":38.0,"az":321.0,"ss":0.0,"used":false,"gnssid":0,"svid":24},{"PRN":25,"el":25.0,"az":224.0,"ss":31.0,"used":false,"gnssid":0,"svid":25},{"PRN":29,"el":12.0,"az":267.0,"ss":34.0,"used":false,"gnssid":0,"svid":29},{"PRN":76,"el":8.0,"az":7.0,"ss":0.0,"used":false,"gnssid":6,"svid":12},{"PRN":65,"el":10.0,"az":40.0,"ss":0.0,"used":false,"gnssid":6,"svid":1},{"PRN":81,"el":9.0,"az":277.0,"ss":0.0,"used":false,"gnssid":6,"svid":17},{"PRN":78,"el":51.0,"az":239.0,"ss":0.0,"used":false,"gnssid":6,"svid":14},{"PRN":77,"el":51.0,"az":333.0,"ss":0.0,"used":false,"gnssid":6,"svid":13},{"PRN":88,"el":48.0,"az":233.0,"ss":0.0,"used":false,"gnssid":6,"svid":24},{"PRN":87,"el":41.0,"az":153.0,"ss":0.0,"used":false,"gnssid":6,"svid":23},{"PRN":71,"el":11.0,"az":142.0,"ss":0.0,"used":false,"gnssid":6,"svid":7},{"PRN":193,"el":34.0,"az":332.0,"ss":0.0,"used":false,"gnssid":5,"svid":1}]}
$GPRMC,102140.000,V,3340.8472,S,15117.3205,E,0.0,0.0,251112,0.0,W*78
$GPGGA,102140.000,3340.8472,S,15117.3205,E,0,02,99.0,064.19,M,22.4,M,,*40
{"class":"TPV","mode":1}
$GNGSA,A,1,10,17,,,,,,,,,,,99.0,99.0,99.0*19
$GNGSA,A,1,,,,,,,,,,,,,99.0,99.0,99.0*1E
$GNGSA,A,1,,,,,,,,,,,,,99.0,99.0,99.0*1E
$GPGSV,3,1,10,02,86,086,,04,40,133,,05,20,023,39,09,36,327,*7F
$GPGSV,3,2,10,10,31,083,38,12,61,213,,17,07,105,20,24,38,321,*74
$GPGSV,3,3,10,25,25,224,31,29,12,267,34,,,,,,,,*72
$GLGSV,2,1,08,76,08,007,,65,10,040,,81,09,277,15,78,51,239,*63
$GLGSV,2,2,08,77,51,333,,88,48,233,,87,41,153,,71,11,142,*68
{"class":"SKY","vdop":99.00,"hdop":99.00,"pdop":99.00,"satellites":[{"PRN":2,"el":86.0,"az":86.0,"ss":0.0,"used":false,"gnssid":0,"svid":2},{"PRN":4,"el":40.0,"az":133.0,"ss":0.0,"used":false,"gnssid":0,"svid":4},{"PRN":5,"el":20.0,"az":23.0,"ss":39.0,"used":false,"gnssid":0,"svid":5},{"PRN":9,"el":36.0,"az":327.0,"ss":0.0,"used":false,"gnssid":0,"svid":9},{"PRN":10,"el":31.0,"az":83.0,"ss":38.0,"used":true,"gnssid":0,"svid":10},{"PRN":12,"el":61.0,"az":213.0,"ss":0.0,"used":false,"gnssid":0,"svid":12},{"PRN":17,"el":7.0,"az":105.0,"ss":20.0,"used":true,"gnssid":0,"svid":17},{"PRN":24,"el":38.0,"az":321.0,"ss":0.0,"used":false,"gnssid":0,"svid":24},{"PRN":25,"el":25.0,"az":224.0,"ss":31.0,"used":false,"gnssid":0,"svid":25},{"PRN":29,"el":12.0,"az":267.0,"ss":34.0,"used":false,"gnssid":0,"svid":29},{"PRN":76,"el":8.0,"az":7.0,"ss":0.0,"used":false,"gnssid":6,"svid":12},{"PRN":65,"el":10.0,"az":40.0,"ss":0.0,"used":false,"gnssid":6,"svid":1},{"PRN":81,"el":9.0,"az":277.0,"ss":15.0,"used":false,"gnssid":6,"svid":17},{"PRN":78,"el":51.0,"az":239.0,"ss":0.0,"used":false,"gnssid":6,"svid":14},{"PRN":77,"el":51.0,"az":333.0,"ss":0.0,"used":false,"gnssid":6,"svid":13},{"PRN":88,"el":48.0,"az":233.0,"ss":0.0,"used":false,"gnssid":6,"svid":24},{"PRN":87,"el":41.0,"az":153.0,"ss":0.0,"used":false,"gnssid":6,"svid":23},{"PRN":71,"el":11.0,"az":142.0,"ss":0.0,"used":false,"gnssid":6,"svid":7}]}
$QZGSV,1,1,01,193,34,332,,,,,,,,,,,,,*6A
{"class":"SKY","vdop":99.00,"hdop":99.00,"pdop":99.00,"satellites":[{"PRN":2,"el":86.0,"az":86.0,"ss":0.0,"used":false,"gnssid":0,"svid":2},{"PRN":4,"el":40.0,"az":133.0,"ss":0.0,"used":false,"gnssid":0,"svid":4},{"PRN":5,"el":20.0,"az":23.0,"ss":39.0,"used":false,"gnssid":0,"svid":5},{"PRN":9,"el":36.0,"az":327.0,"ss":0.0,"used":false,"gnssid":0,"svid":9},{"PRN":10,"el":31.0,"az":83.0,"ss":38.0,"used":true,"gnssid":0,"svid":10},{"PRN":12,"el":61.0,"az":213.0,"ss":0.0,"used":false,"gnssid":0,"svid":12},{"PRN":17,"el":7.0,"az":105.0,"ss":20.0,"used":true,"gnssid":0,"svid":17},{"PRN":24,"el":38.0,"az":321.0,"ss":0.0,"used":false,"gnssid":0,"svid":24},{"PRN":25,"el":25.0,"az":224.0,"ss":31.0,"used":false,"gnssid":0,"svid":25},{"PRN":29,"el":12.0,"az":267.0,"ss":34.0,"used":false,"gnssid":0,"svid":29},{"PRN":76,"el":8.0,"az":7.0,"ss":0.0,"used":false,"gnssid":6,"svid":12},{"PRN":65,"el":10.0,"az":40.0,"ss":0.0,"used":false,"gnssid":6,"svid":1},{"PRN":81,"el":9.0,"az":277.0,"ss":15.0,"used":false,"gnssid":6,"svid":17},{"PRN":78,"el":51.0,"az":239.0,"ss":0.0,"used":false,"gnssid":6,"svid":14},{"PRN":77,"el":51.0,"az":333.0,"ss":0.0,"used":false,"gnssid":6,"svid":13},{"PRN":88,"el":48.0,"az":233.0,"ss":0.0,"used":false,"gnssid":6,"svid":24},{"PRN":87,"el":41.0,"az":153.0,"ss":0.0,"used":false,"gnssid":6,"svid":23},{"PRN":71,"el":11.0,"az":142.0,"ss":0.0,"used":false,"gnssid":6,"svid":7},{"PRN":193,"el":34.0,"az":332.0,"ss":0.0,"used":false,"gnssid":5,"svid":1}]}
$GPRMC,102141.000,V,3340.8472,S,15117.3205,E,0.0,0.0,251112,0.0,W*79
$GPGGA,102141.000,3340.8472,S,15117.3205,E,0,02,99.0,064.19,M,22.4,M,,*41
{"class":"TPV","mode":1}
$GNGSA,A,1,10,17,,,,,,,,,,,99.0,99.0,99.0*19
$GNGSA,A,1,,,,,,,,,,,,,99.0,99.0,99.0*1E
$GNGSA,A,1,,,,,,,,,,,,,99.0,99.0,99.0*1E
$GPGSV,3,1,10,02,86,086,43,04,40,133,,05,20,023,39,09,36,327,*78
$GPGSV,3,2,10,10,31,083,38,12,61,213,,17,07,105,21,24,38,321,*75
$GPGSV,3,3,10,25,25,224,31,29,12,267,34,,,,,,,,*72
$GLGSV,2,1,08,76,08,007,,65,10,040,,81,09,277,15,78,51,239,*63
$GLGSV,2,2,08,77,51,333,,88,48,233,,87,41,153,,71,11,142,*68
{"class":"SKY","vdop":99.00,"hdop":99.00,"pdop":99.00,"satellites":[{"PRN":2,"el":86.0,"az":86.0,"ss":43.0,"used":false,"gnssid":0,"svid":2},{"PRN":4,"el":40.0,"az":133.0,"ss":0.0,"used":false,"gnssid":0,"svid":4},{"PRN":5,"el":20.0,"az":23.0,"ss":39.0,"used":false,"gnssid":0,"svid":5},{"PRN":9,"el":36.0,"az":327.0,"ss":0.0,"used":false,"gnssid":0,"svid":9},{"PRN":10,"el":31.0,"az":83.0,"ss":38.0,"used":true,"gnssid":0,"svid":10},{"PRN":12,"el":61.0,"az":213.0,"ss":0.0,"used":false,"gnssid":0,"svid":12},{"PRN":17,"el":7.0,"az":105.0,"ss":21.0,"used":true,"gnssid":0,"svid":17},{"PRN":24,"el":38.0,"az":321.0,"ss":0.0,"used":false,"gnssid":0,"svid":24},{"PRN":25,"el":25.0,"az":224.0,"ss":31.0,"used":false,"gnssid":0,"svid":25},{"PRN":29,"el":12.0,"az":267.0,"ss":34.0,"used":false,"gnssid":0,"svid":29},{"PRN":76,"el":8.0,"az":7.0,"ss":0.0,"used":false,"gnssid":6,"svid":12},{"PRN":65,"el":10.0,"az":40.0,"ss":0.0,"used":false,"gnssid":6,"svid":1},{"PRN":81,"el":9.0,"az":277.0,"ss":15.0,"used":false,"gnssid":6,"svid":17},{"PRN":78,"el":51.0,"az":239.0,"ss":0.0,"used":false,"gnssid":6,"svid":14},{"PRN":77,"el":51.0,"az":333.0,"ss":0.0,"used":false,"gnssid":6,"svid":13},{"PRN":88,"el":48.0,"az":233.0,"ss":0.0,"used":false,"gnssid":6,"svid":24},{"PRN":87,"el":41.0,"az":153.0,"ss":0.0,"used":false,"gnssid":6,"svid":23},{"PRN":71,"el":11.0,"az":142.0,"ss":0.0,"used":false,"gnssid":6,"svid":7}]}
$QZGSV,1,1,01,193,34,332,,,,,,,,,,,,,*6A
{"class":"SKY","vdop":99.00,"hdop":99.00,"pdop":99.00,"satellites":[{"PRN":2,"el":86.0,"az":86.0,"ss":43.0,"used":false,"gnssid":0,"svid":2},{"PRN":4,"el":40.0,"az":133.0,"ss":0.0,"used":false,"gnssid":0,"svid":4},{"PRN":5,"el":20.0,"az":23.0,"ss":39.0,"used":false,"gnssid":0,"svid":5},{"PRN":9,"el":36.0,"az":327.0,"ss":0.0,"used":false,"gnssid":0,"svid":9},{"PRN":10,"el":31.0,"az":83.0,"ss":38.0,"used":true,"gnssid":0,"svid":10},{"PRN":12,"el":61.0,"az":213.0,"ss":0.0,"used":false,"gnssid":0,"svid":12},{"PRN":17,"el":7.0,"az":105.0,"ss":21.0,"used":true,"gnssid":0,"svid":17},{"PRN":24,"el":38.0,"az":321.0,"ss":0.0,"used":false,"gnssid":0,"svid":24},{"PRN":25,"el":25.0,"az":224.0,"ss":31.0,"used":false,"gnssid":0,"svid":25},{"PRN":29,"el":12.0,"az":267.0,"ss":34.0,"used":false,"gnssid":0,"svid":29},{"PRN":76,"el":8.0,"az":7.0,"ss":0.0,"used":false,"gnssid":6,"svid":12},{"PRN":65,"el":10.0,"az":40.0,"ss":0.0,"used":false,"gnssid":6,"svid":1},{"PRN":81,"el":9.0,"az":277.0,"ss":15.0,"used":false,"gnssid":6,"svid":17},{"PRN":78,"el":51.0,"az":239.0,"ss":0.0,"used":false,"gnssid":6,"svid":14},{"PRN":77,"el":51.0,"az":333.0,"ss":0.0,"used":false,"gnssid":6,"svid":13},{"PRN":88,"el":48.0,"az":233.0,"ss":0.0,"used":false,"gnssid":6,"svid":24},{"PRN":87,"el":41.0,"az":153.0,"ss":0.0,"used":false,"gnssid":6,"svid":23},{"PRN":71,"el":11.0,"az":142.0,"ss":0.0,"used":false,"gnssid":6,"svid":7},{"PRN":193,"el":34.0,"az":332.0,"ss":0.0,"used":false,"gnssid":5,"svid":1}]}
$GPRMC,102142.000,V,3340.8472,S,15117.3205,E,0.0,0.0,251112,0.0,W*7A
$GPGGA,102142.000,3340.8472,S,15117.3205,E,0,02,99.0,064.19,M,22.4,M,,*42
{"class":"TPV","mode":1}
$GNGSA,A,1,10,17,,,,,,,,,,,99.0,99.0,99.0*19
$GNGSA,A,1,,,,,,,,,,,,,99.0,99.0,99.0*1E
$GNGSA,A,1,,,,,,,,,,,,,99.0,99.0,99.0*1E
$GPGSV,3,1,10,02,86,086,42,04,40,133,,05,20,023,38,09,36,327,*78
$GPGSV,3,2,10,10,31,083,37,12,61,213,,17,07,105,20,24,38,321,*7B
$GPGSV,3,3,10,25,25,224,30,29,12,267,34,,,,,,,,*73
$GLGSV,2,1,08,76,08,007,,65,10,040,,81,09,277,15,78,51,239,*63
$GLGSV,2,2,08,77,51,333,,88,48,233,,87,41,152,,71,11,142,*69
{"class":"SKY","vdop":99.00,"hdop":99.00,"pdop":99.00,"satellites":[{"PRN":2,"el":86.0,"az":86.0,"ss":42.0,"used":false,"gnssid":0,"svid":2},{"PRN":4,"el":40.0,"az":133.0,"ss":0.0,"used":false,"gnssid":0,"svid":4},{"PRN":5,"el":20.0,"az":23.0,"ss":38.0,"used":false,"gnssid":0,"svid":5},{"PRN":9,"el":36.0,"az":327.0,"ss":0.0,"used":false,"gnssid":0,"svid":9},{"PRN":10,"el":31.0,"az":83.0,"ss":37.0,"used":true,"gnssid":0,"svid":10},{"PRN":12,"el":61.0,"az":213.0,"ss":0.0,"used":false,"gnssid":0,"svid":12},{"PRN":17,"el":7.0,"az":105.0,"ss":20.0,"used":true,"gnssid":0,"svid":17},{"PRN":24,"el":38.0,"az":321.0,"ss":0.0,"used":false,"gnssid":0,"svid":24},{"PRN":25,"el":25.0,"az":224.0,"ss":30.0,"used":false,"gnssid":0,"svid":25},{"PRN":29,"el":12.0,"az":267.0,"ss":34.0,"used":false,"gnssid":0,"svid":29},{"PRN":76,"el":8.0,"az":7.0,"ss":0.0,"used":false,"gnssid":6,"svid":12},{"PRN":65,"el":10.0,"az":40.0,"ss":0.0,"used":false,"gnssid":6,"svid":1},{"PRN":81,"el":9.0,"az":277.0,"ss":15.0,"used":false,"gnssid":6,"svid":17},{"PRN":78,"el":51.0,"az":239.0,"ss":0.0,"used":false,"gnssid":6,"svid":14},{"PRN":77,"el":51.0,"az":333.0,"ss":0.0,"used":false,"gnssid":6,"svid":13},{"PRN":88,"el":48.0,"az":233.0,"ss":0.0,"used":false,"gnssid":6,"svid":24},{"PRN":87,"el":41.0,"az":152.0,"ss":0.0,"used":false,"gnssid":6,"svid":23},{"PRN":71,"el":11.0,"az":142.0,"ss":0.0,"used":false,"gnssid":6,"svid":7}]}
$QZGSV,1,1,01,193,34,332,,,,,,,,,,,,,*6A
{"class":"SKY","vdop":99.00,"hdop":99.00,"pdop":99.00,"satellites":[{"PRN":2,"el":86.0,"az":86.0,"ss":42.0,"used":false,"gnssid":0,"svid":2},{"PRN":4,"el":40.0,"az":133.0,"ss":0.0,"used":false,"gnssid":0,"svid":4},{"PRN":5,"el":20.0,"az":23.0,"ss":38.0,"used":false,"gnssid":0,"svid":5},{"PRN":9,"el":36.0,"az":327.0,"ss":0.0,"used":false,"gnssid":0,"svid":9},{"PRN":10,"el":31.0,"az":83.0,"ss":37.0,"used":true,"gnssid":0,"svid":10},{"PRN":12,"el":61.0,"az":213.0,"ss":0.0,"used":false,"gnssid":0,"svid":12},{"PRN":17,"el":7.0,"az":105.0,"ss":20.0,"used":true,"gnssid":0,"svid":17},{"PRN":24,"el":38.0,"az":321.0,"ss":0.0,"used":false,"gnssid":0,"svid":24},{"PRN":25,"el":25.0,"az":224.0,"ss":30.0,"used":false,"gnssid":0,"svid":25},{"PRN":29,"el":12.0,"az":267.0,"ss":34.0,"used":false,"gnssid":0,"svid":29},{"PRN":76,"el":8.0,"az":7.0,"ss":0.0,"used":false,"gnssid":6,"svid":12},{"PRN":65,"el":10.0,"az":40.0,"ss":0.0,"used":false,"gnssid":6,"svid":1},{"PRN":81,"el":9.0,"az":277.0,"ss":15.0,"used":false,"gnssid":6,"svid":17},{"PRN":78,"el":51.0,"az":239.0,"ss":0.0,"used":false,"gnssid":6,"svid":14},{"PRN":77,"el":51.0,"az":333.0,"ss":0.0,"used":false,"gnssid":6,"svid":13},{"PRN":88,"el":48.0,"az":233.0,"ss":0.0,"used":false,"gnssid":6,"svid":24},{"PRN":87,"el":41.0,"az":152.0,"ss":0.0,"used":false,"gnssid":6,"svid":23},{"PRN":71,"el":11.0,"az":142.0,"ss":0.0,"used":false,"gnssid":6,"svid":7},{"PRN":193,"el":34.0,"az":332.0,"ss":0.0,"used":false,"gnssid":5,"svid":1}]}
$GPRMC,102143.000,A,3340.7732,S,15117.4478,E,6.7,155.1,251112,0.0,W*6E
$GPGGA,102143.000,3340.7732,S,15117.4478,E,1,03,4.1,063.76,M,22.4,M,,*7B
{"class":"TPV","mode":2,"time":"2012-11-25T10:21:43.000Z","ept":0.005,"lat":-33.679553333,"lon":151.290796667,"altHAE":86.160,"altMSL":63.760,"epv":2277.000,"track":155.1000,"magtrack":167.6820,"magvar":12.6,"speed":3.447,"eph":1881.000,"sep":1881.000}
$GNGSA,A,2,10,17,12,,,,,,,,,,4.2,4.1,1.0*2B
$GNGSA,A,2,,,,,,,,,,,,,4.2,4.1,1.0*2F
$GNGSA,A,2,,,,,,,,,,,,,4.2,4.1,1.0*2F
$GPGSV,3,1,10,02,86,086,42,04,40,133,,05,20,023,38,09,36,327,*78
$GPGSV,3,2,10,10,31,083,37,12,61,213,39,17,07,105,21,24,38,321,*70
$GPGSV,3,3,10,25,25,224,30,29,12,267,34,,,,,,,,*73
$GLGSV,2,1,08,76,08,007,,65,10,040,,81,09,277,15,78,51,239,*63
$GLGSV,2,2,08,77,51,333,,88,48,233,,87,41,152,,71,11,142,*69
{"class":"SKY","vdop":1.00,"hdop":4.10,"pdop":4.20,"satellites":[{"PRN":2,"el":86.0,"az":86.0,"ss":42.0,"used":false,"gnssid":0,"svid":2},{"PRN":4,"el":40.0,"az":133.0,"ss":0.0,"used":false,"gnssid":0,"svid":4},{"PRN":5,"el":20.0,"az":23.0,"ss":38.0,"used":false,"gnssid":0,"svid":5},{"PRN":9,"el":36.0,"az":327.0,"ss":0.0,"used":false,"gnssid":0,"svid":9},{"PRN":10,"el":31.0,"az":83.0,"ss":37.0,"used":true,"gnssid":0,"svid":10},{"PRN":12,"el":61.0,"az":213.0,"ss":39.0,"used":true,"gnssid":0,"svid":12},{"PRN":17,"el":7.0,"az":105.0,"ss":21.0,"used":true,"gnssid":0,"svid":17},{"PRN":24,"el":38.0,"az":321.0,"ss":0.0,"used":false,"gnssid":0,"svid":24},{"PRN":25,"el":25.0,"az":224.0,"ss":30.0,"used":false,"gnssid":0,"svid":25},{"PRN":29,"el":12.0,"az":267.0,"ss":34.0,"used":false,"gnssid":0,"svid":29},{"PRN":76,"el":8.0,"az":7.0,"ss":0.0,"used":false,"gnssid":6,"svid":12},{"PRN":65,"el":10.0,"az":40.0,"ss":0.0,"used":false,"gnssid":6,"svid":1},{"PRN":81,"el":9.0,"az":277.0,"ss":15.0,"used":false,"gnssid":6,"svid":17},{"PRN":78,"el":51.0,"az":239.0,"ss":0.0,"used":false,"gnssid":6,"svid":14},{"PRN":77,"el":51.0,"az":333.0,"ss":0.0,"used":false,"gnssid":6,"svid":13},{"PRN":88,"el":48.0,"az":233.0,"ss":0.0,"used":false,"gnssid":6,"svid":24},{"PRN":87,"el":41.0,"az":152.0,"ss":0.0,"used":false,"gnssid":6,"svid":23},{"PRN":71,"el":11.0,"az":142.0,"ss":0.0,"used":false,"gnssid":6,"svid":7}]}
$QZGSV,1,1,01,193,34,332,,,,,,,,,,,,,*6A
{"class":"SKY","vdop":1.00,"hdop":4.10,"pdop":4.20,"satellites":[{"PRN":2,"el":86.0,"az":86.0,"ss":42.0,"used":false,"gnssid":0,"svid":2},{"PRN":4,"el":40.0,"az":133.0,"ss":0.0,"used":false,"gnssid":0,"svid":4},{"PRN":5,"el":20.0,"az":23.0,"ss":38.0,"used":false,"gnssid":0,"svid":5},{"PRN":9,"el":36.0,"az":327.0,"ss":0.0,"used":false,"gnssid":0,"svid":9},{"PRN":10,"el":31.0,"az":83.0,"ss":37.0,"used":true,"gnssid":0,"svid":10},{"PRN":12,"el":61.0,"az":213.0,"ss":39.0,"used":true,"gnssid":0,"svid":12},{"PRN":17,"el":7.0,"az":105.0,"ss":21.0,"used":true,"gnssid":0,"svid":17},{"PRN":24,"el":38.0,"az":321.0,"ss":0.0,"used":false,"gnssid":0,"svid":24},{"PRN":25,"el":25.0,"az":224.0,"ss":30.0,"used":false,"gnssid":0,"svid":25},{"PRN":29,"el":12.0,"az":267.0,"ss":34.0,"used":false,"gnssid":0,"svid":29},{"PRN":76,"el":8.0,"az":7.0,"ss":0.0,"used":false,"gnssid":6,"svid":12},{"PRN":65,"el":10.0,"az":40.0,"ss":0.0,"used":false,"gnssid":6,"svid":1},{"PRN":81,"el":9.0,"az":277.0,"ss":15.0,"used":false,"gnssid":6,"svid":17},{"PRN":78,"el":51.0,"az":239.0,"ss":0.0,"used":false,"gnssid":6,"svid":14},{"PRN":77,"el":51.0,"az":333.0,"ss":0.0,"used":false,"gnssid":6,"svid":13},{"PRN":88,"el":48.0,"az":233.0,"ss":0.0,"used":false,"gnssid":6,"svid":24},{"PRN":87,"el":41.0,"az":152.0,"ss":0.0,"used":false,"gnssid":6,"svid":23},{"PRN":71,"el":11.0,"az":142.0,"ss":0.0,"used":false,"gnssid":6,"svid":7},{"PRN":193,"el":34.0,"az":332.0,"ss":0.0,"used":false,"gnssid":5,"svid":1}]}
$GPRMC,102143.990,A,3340.7753,S,15117.4475,E,6.7,155.8,251112,0.0,W*6D
$GPGGA,102143.990,3340.7753,S,15117.4475,E,1,03,99.0,063.79,M,22.4,M,,*4B
{"class":"TPV","mode":3,"time":"2012-11-25T10:21:43.990Z","ept":0.005,"lat":-33.679588333,"lon":151.290791667,"altHAE":86.190,"altMSL":63.790,"epv":23.000,"track":155.8000,"magtrack":168.3820,"magvar":12.6,"speed":3.447,"epc":2323.23,"geoidSep":22.400,"eph":77.900,"sep":79.800}
$GNGSA,A,2,10,17,12,,,,,,,,,,99.0,99.0,99.0*19
$GNGSA,A,2,,,,,,,,,,,,,99.0,99.0,99.0*1D
$GNGSA,A,2,,,,,,,,,,,,,99.0,99.0,99.0*1D
$GPGSV,3,1,10,02,86,086,42,04,40,133,,05,20,023,38,09,36,327,*78
$GPGSV,3,2,10,10,31,083,37,12,61,213,40,17,07,105,20,24,38,321,*7F
$GPGSV,3,3,10,25,25,224,30,29,12,267,34,,,,,,,,*73
$GLGSV,2,1,08,76,08,007,,65,10,040,,81,09,277,15,78,51,239,*63
$GLGSV,2,2,08,77,51,333,,88,48,233,,87,41,152,,71,11,142,*69
{"class":"SKY","vdop":99.00,"hdop":99.00,"pdop":99.00,"satellites":[{"PRN":2,"el":86.0,"az":86.0,"ss":42.0,"used":false,"gnssid":0,"svid":2},{"PRN":4,"el":40.0,"az":133.0,"ss":0.0,"used":false,"gnssid":0,"svid":4},{"PRN":5,"el":20.0,"az":23.0,"ss":38.0,"used":false,"gnssid":0,"svid":5},{"PRN":9,"el":36.0,"az":327.0,"ss":0.0,"used":false,"gnssid":0,"svid":9},{"PRN":10,"el":31.0,"az":83.0,"ss":37.0,"used":true,"gnssid":0,"svid":10},{"PRN":12,"el":61.0,"az":213.0,"ss":40.0,"used":true,"gnssid":0,"svid":12},{"PRN":17,"el":7.0,"az":105.0,"ss":20.0,"used":true,"gnssid":0,"svid":17},{"PRN":24,"el":38.0,"az":321.0,"ss":0.0,"used":false,"gnssid":0,"svid":24},{"PRN":25,"el":25.0,"az":224.0,"ss":30.0,"used":false,"gnssid":0,"svid":25},{"PRN":29,"el":12.0,"az":267.0,"ss":34.0,"used":false,"gnssid":0,"svid":29},{"PRN":76,"el":8.0,"az":7.0,"ss":0.0,"used":false,"gnssid":6,"svid":12},{"PRN":65,"el":10.0,"az":40.0,"ss":0.0,"used":false,"gnssid":6,"svid":1},{"PRN":81,"el":9.0,"az":277.0,"ss":15.0,"used":false,"gnssid":6,"svid":17},{"PRN":78,"el":51.0,"az":239.0,"ss":0.0,"used":false,"gnssid":6,"svid":14},{"PRN":77,"el":51.0,"az":333.0,"ss":0.0,"used":false,"gnssid":6,"svid":13},{"PRN":88,"el":48.0,"az":233.0,"ss":0.0,"used":false,"gnssid":6,"svid":24},{"PRN":87,"el":41.0,"az":152.0,"ss":0.0,"used":false,"gnssid":6,"svid":23},{"PRN":71,"el":11.0,"az":142.0,"ss":0.0,"used":false,"gnssid":6,"svid":7}]}
$QZGSV,1,1,01,193,34,332,,,,,,,,,,,,,*6A
{"class":"SKY","vdop":99.00,"hdop":99.00,"pdop":99.00,"satellites":[{"PRN":2,"el":86.0,"az":86.0,"ss":42.0,"used":false,"gnssid":0,"svid":2},{"PRN":4,"el":40.0,"az":133.0,"ss":0.0,"used":false,"gnssid":0,"svid":4},{"PRN":5,"el":20.0,"az":23.0,"ss":38.0,"used":false,"gnssid":0,"svid":5},{"PRN":9,"el":36.0,"az":327.0,"ss":0.0,"used":false,"gnssid":0,"svid":9},{"PRN":10,"el":31.0,"az":83.0,"ss":37.0,"used":true,"gnssid":0,"svid":10},{"PRN":12,"el":61.0,"az":213.0,"ss":40.0,"used":true,"gnssid":0,"svid":12},{"PRN":17,"el":7.0,"az":105.0,"ss":20.0,"used":true,"gnssid":0,"svid":17},{"PRN":24,"el":38.0,"az":321.0,"ss":0.0,"used":false,"gnssid":0,"svid":24},{"PRN":25,"el":25.0,"az":224.0,"ss":30.0,"used":false,"gnssid":0,"svid":25},{"PRN":29,"el":12.0,"az":267.0,"ss":34.0,"used":false,"gnssid":0,"svid":29},{"PRN":76,"el":8.0,"az":7.0,"ss":0.0,"used":false,"gnssid":6,"svid":12},{"PRN":65,"el":10.0,"az":40.0,"ss":0.0,"used":false,"gnssid":6,"svid":1},{"PRN":81,"el":9.0,"az":277.0,"ss":15.0,"used":false,"gnssid":6,"svid":17},{"PRN":78,"el":51.0,"az":239.0,"ss":0.0,"used":false,"gnssid":6,"svid":14},{"PRN":77,"el":51.0,"az":333.0,"ss":0.0,"used":false,"gnssid":6,"svid":13},{"PRN":88,"el":48.0,"az":233.0,"ss":0.0,"used":false,"gnssid":6,"svid":24},{"PRN":87,"el":41.0,"az":152.0,"ss":0.0,"used":false,"gnssid":6,"svid":23},{"PRN":71,"el":11.0,"az":142.0,"ss":0.0,"used":false,"gnssid":6,"svid":7},{"PRN":193,"el":34.0,"az":332.0,"ss":0.0,"used":false,"gnssid":5,"svid":1}]}
$GPRMC,102144.000,A,3340.7753,S,15117.4473,E,6.6,155.8,251112,0.0,W*6D
$GPGGA,102144.000,3340.7753,S,15117.4473,E,1,03,99.0,063.79,M,22.4,M,,*4A
{"class":"TPV","mode":3,"time":"2012-11-25T10:21:44.000Z","ept":0.005,"lat":-33.679588333,"lon":151.290788333,"altHAE":86.190,"altMSL":63.790,"epv":23.000,"track":155.8000,"magtrack":168.3820,"magvar":12.6,"speed":3.395,"climb":0.000,"epc":2323.23,"geoidSep":22.400,"eph":77.900,"sep":79.800}
$GNGSA,A,2,10,17,12,,,,,,,,,,99.0,99.0,99.0*19
$GNGSA,A,2,,,,,,,,,,,,,99.0,99.0,99.0*1D
$GNGSA,A,2,,,,,,,,,,,,,99.0,99.0,99.0*1D
$GPGSV,3,1,10,02,86,086,42,04,40,133,,05,20,023,38,09,36,327,*78
$GPGSV,3,2,10,10,31,083,37,12,61,213,40,17,07,105,20,24,38,321,*7F
$GPGSV,3,3,10,25,25,224,30,29,12,267,34,,,,,,,,*73
$GLGSV,2,1,08,76,08,007,,65,10,040,,81,09,277,15,78,51,239,*63
$GLGSV,2,2,08,77,51,333,,88,48,233,,87,41,152,,71,11,142,*69
{"class":"SKY","vdop":99.00,"hdop":99.00,"pdop":99.00,"satellites":[{"PRN":2,"el":86.0,"az":86.0,"ss":42.0,"used":false,"gnssid":0,"svid":2},{"PRN":4,"el":40.0,"az":133.0,"ss":0.0,"used":false,"gnssid":0,"svid":4},{"PRN":5,"el":20.0,"az":23.0,"ss":38.0,"used":false,"gnssid":0,"svid":5},{"PRN":9,"el":36.0,"az":327.0,"ss":0.0,"used":false,"gnssid":0,"svid":9},{"PRN":10,"el":31.0,"az":83.0,"ss":37.0,"used":true,"gnssid":0,"svid":10},{"PRN":12,"el":61.0,"az":213.0,"ss":40.0,"used":true,"gnssid":0,"svid":12},{"PRN":17,"el":7.0,"az":105.0,"ss":20.0,"used":true,"gnssid":0,"svid":17},{"PRN":24,"el":38.0,"az":321.0,"ss":0.0,"used":false,"gnssid":0,"svid":24},{"PRN":25,"el":25.0,"az":224.0,"ss":30.0,"used":false,"gnssid":0,"svid":25},{"PRN":29,"el":12.0,"az":267.0,"ss":34.0,"used":false,"gnssid":0,"svid":29},{"PRN":76,"el":8.0,"az":7.0,"ss":0.0,"used":false,"gnssid":6,"svid":12},{"PRN":65,"el":10.0,"az":40.0,"ss":0.0,"used":false,"gnssid":6,"svid":1},{"PRN":81,"el":9.0,"az":277.0,"ss":15.0,"used":false,"gnssid":6,"svid":17},{"PRN":78,"el":51.0,"az":239.0,"ss":0.0,"used":false,"gnssid":6,"svid":14},{"PRN":77,"el":51.0,"az":333.0,"ss":0.0,"used":false,"gnssid":6,"svid":13},{"PRN":88,"el":48.0,"az":233.0,"ss":0.0,"used":false,"gnssid":6,"svid":24},{"PRN":87,"el":41.0,"az":152.0,"ss":0.0,"used":false,"gnssid":6,"svid":23},{"PRN":71,"el":11.0,"az":142.0,"ss":0.0,"used":false,"gnssid":6,"svid":7}]}
$QZGSV,1,1,01,193,34,332,,,,,,,,,,,,,*6A
{"class":"SKY","vdop":99.00,"hdop":99.00,"pdop":99.00,"satellites":[{"PRN":2,"el":86.0,"az":86.0,"ss":42.0,"used":false,"gnssid":0,"svid":2},{"PRN":4,"el":40.0,"az":133.0,"ss":0.0,"used":false,"gnssid":0,"svid":4},{"PRN":5,"el":20.0,"az":23.0,"ss":38.0,"used":false,"gnssid":0,"svid":5},{"PRN":9,"el":36.0,"az":327.0,"ss":0.0,"used":false,"gnssid":0,"svid":9},{"PRN":10,"el":31.0,"az":83.0,"ss":37.0,"used":true,"gnssid":0,"svid":10},{"PRN":12,"el":61.0,"az":213.0,"ss":40.0,"used":true,"gnssid":0,"svid":12},{"PRN":17,"el":7.0,"az":105.0,"ss":20.0,"used":true,"gnssid":0,"svid":17},{"PRN":24,"el":38.0,"az":321.0,"ss":0.0,"used":false,"gnssid":0,"svid":24},{"PRN":25,"el":25.0,"az":224.0,"ss":30.0,"used":false,"gnssid":0,"svid":25},{"PRN":29,"el":12.0,"az":267.0,"ss":34.0,"used":false,"gnssid":0,"svid":29},{"PRN":76,"el":8.0,"az":7.0,"ss":0.0,"used":false,"gnssid":6,"svid":12},{"PRN":65,"el":10.0,"az":40.0,"ss":0.0,"used":false,"gnssid":6,"svid":1},{"PRN":81,"el":9.0,"az":277.0,"ss":15.0,"used":false,"gnssid":6,"svid":17},{"PRN":78,"el":51.0,"az":239.0,"ss":0.0,"used":false,"gnssid":6,"svid":14},{"PRN":77,"el":51.0,"az":333.0,"ss":0.0,"used":false,"gnssid":6,"svid":13},{"PRN":88,"el":48.0,"az":233.0,"ss":0.0,"used":false,"gnssid":6,"svid":24},{"PRN":87,"el":41.0,"az":152.0,"ss":0.0,"used":false,"gnssid":6,"svid":23},{"PRN":71,"el":11.0,"az":142.0,"ss":0.0,"used":false,"gnssid":6,"svid":7},{"PRN":193,"el":34.0,"az":332.0,"ss":0.0,"used":false,"gnssid":5,"svid":1}]}
$GPRMC,102145.000,A,3340.8097,S,15117.4692,E,0.3,311.5,251112,0.0,W*6D
$GPGGA,102145.000,3340.8097,S,15117.4692,E,1,05,2.0,077.22,M,22.4,M,,*79
{"class":"TPV","mode":3,"time":"2012-11-25T10:21:45.000Z","ept":0.005,"lat":-33.680161667,"lon":151.291153333,"altHAE":99.620,"altMSL":77.220,"epv":2277.000,"track":311.5000,"magtrack":324.0823,"magvar":12.6,"speed":0.154,"climb":13.430,"epc":2300.00,"geoidSep":22.400,"eph":1881.000,"sep":1881.000}
$GNGSA,A,3,10,17,12,24,09,,,,,,,,3.7,2.0,3.1*23
$GNGSA,A,3,,,,,,,,,,,,,3.7,2.0,3.1*28
$GNGSA,A,3,,,,,,,,,,,,,3.7,2.0,3.1*28
$GPGSV,3,1,10,02,86,086,41,04,40,133,38,05,20,023,38,09,36,327,37*74
$GPGSV,3,2,10,10,31,083,36,12,61,213,40,17,07,105,20,24,38,321,37*7A
$GPGSV,3,3,10,25,25,224,30,29,12,267,33,,,,,,,,*74
$GLGSV,2,1,08,76,08,007,,65,10,040,,81,09,277,15,78,51,239,*63
$GLGSV,2,2,08,77,51,333,,88,48,233,,87,41,152,,71,11,142,*69
{"class":"SKY","xdop":1.37,"ydop":1.38,"vdop":3.10,"tdop":1.99,"hdop":2.00,"gdop":4.18,"pdop":3.70,"satellites":[{"PRN":2,"el":86.0,"az":86.0,"ss":41.0,"used":false,"gnssid":0,"svid":2},{"PRN":4,"el":40.0,"az":133.0,"ss":38.0,"used":false,"gnssid":0,"svid":4},{"PRN":5,"el":20.0,"az":23.0,"ss":38.0,"used":false,"gnssid":0,"svid":5},{"PRN":9,"el":36.0,"az":327.0,"ss":37.0,"used":true,"gnssid":0,"svid":9},{"PRN":10,"el":31.0,"az":83.0,"ss":36.0,"used":true,"gnssid":0,"svid":10},{"PRN":12,"el":61.0,"az":213.0,"ss":40.0,"used":true,"gnssid":0,"svid":12},{"PRN":17,"el":7.0,"az":105.0,"ss":20.0,"used":true,"gnssid":0,"svid":17},{"PRN":24,"el":38.0,"az":321.0,"ss":37.0,"used":true,"gnssid":0,"svid":24},{"PRN":25,"el":25.0,"az":224.0,"ss":30.0,"used":false,"gnssid":0,"svid":25},{"PRN":29,"el":12.0,"az":267.0,"ss":33.0,"used":false,"gnssid":0,"svid":29},{"PRN":76,"el":8.0,"az":7.0,"ss":0.0,"used":false,"gnssid":6,"svid":12},{"PRN":65,"el":10.0,"az":40.0,"ss":0.0,"used":false,"gnssid":6,"svid":1},{"PRN":81,"el":9.0,"az":277.0,"ss":15.0,"used":false,"gnssid":6,"svid":17},{"PRN":78,"el":51.0,"az":239.0,"ss":0.0,"used":false,"gnssid":6,"svid":14},{"PRN":77,"el":51.0,"az":333.0,"ss":0.0,"used":false,"gnssid":6,"svid":13},{"PRN":88,"el":48.0,"az":233.0,"ss":0.0,"used":false,"gnssid":6,"svid":24},{"PRN":87,"el":41.0,"az":152.0,"ss":0.0,"used":false,"gnssid":6,"svid":23},{"PRN":71,"el":11.0,"az":142.0,"ss":0.0,"used":false,"gnssid":6,"svid":7}]}
$QZGSV,1,1,01,193,34,332,,,,,,,,,,,,,*6A
{"class":"SKY","xdop":1.37,"ydop":1.38,"vdop":3.10,"tdop":1.99,"hdop":2.00,"gdop":4.18,"pdop":3.70,"satellites":[{"PRN":2,"el":86.0,"az":86.0,"ss":41.0,"used":false,"gnssid":0,"svid":2},{"PRN":4,"el":40.0,"az":133.0,"ss":38.0,"used":false,"gnssid":0,"svid":4},{"PRN":5,"el":20.0,"az":23.0,"ss":38.0,"used":false,"gnssid":0,"svid":5},{"PRN":9,"el":36.0,"az":327.0,"ss":37.0,"used":true,"gnssid":0,"svid":9},{"PRN":10,"el":31.0,"az":83.0,"ss":36.0,"used":true,"gnssid":0,"svid":10},{"PRN":12,"el":61.0,"az":213.0,"ss":40.0,"used":true,"gnssid":0,"svid":12},{"PRN":17,"el":7.0,"az":105.0,"ss":20.0,"used":true,"gnssid":0,"svid":17},{"PRN":24,"el":38.0,"az":321.0,"ss":37.0,"used":true,"gnssid":0,"svid":24},{"PRN":25,"el":25.0,"az":224.0,"ss":30.0,"used":false,"gnssid":0,"svid":25},{"PRN":29,"el":12.0,"az":267.0,"ss":33.0,"used":false,"gnssid":0,"svid":29},{"PRN":76,"el":8.0,"az":7.0,"ss":0.0,"used":false,"gnssid":6,"svid":12},{"PRN":65,"el":10.0,"az":40.0,"ss":0.0,"used":false,"gnssid":6,"svid":1},{"PRN":81,"el":9.0,"az":277.0,"ss":15.0,"used":false,"gnssid":6,"svid":17},{"PRN":78,"el":51.0,"az":239.0,"ss":0.0,"used":false,"gnssid":6,"svid":14},{"PRN":77,"el":51.0,"az":333.0,"ss":0.0,"used":false,"gnssid":6,"svid":13},{"PRN":88,"el":48.0,"az":233.0,"ss":0.0,"used":false,"gnssid":6,"svid":24},{"PRN":87,"el":41.0,"az":152.0,"ss":0.0,"used":false,"gnssid":6,"svid":23},{"PRN":71,"el":11.0,"az":142.0,"ss":0.0,"used":false,"gnssid":6,"svid":7},{"PRN":193,"el":34.0,"az":332.0,"ss":0.0,"used":false,"gnssid":5,"svid":1}]}
$GPRMC,102146.000,A,3340.8150,S,15117.4708,E,0.2,0.0,251112,0.0,W*61
$GPGGA,102146.000,3340.8150,S,15117.4708,E,1,05,2.0,080.46,M,22.4,M,,*78
{"class":"TPV","mode":3,"time":"2012-11-25T10:21:46.000Z","ept":0.005,"lat":-33.680250000,"lon":151.291180000,"altHAE":102.860,"altMSL":80.460,"epx":20.582,"epy":20.708,"epv":71.300,"track":0.0000,"magtrack":12.5824,"magvar":12.6,"speed":0.103,"climb":3.240,"eps":41.42,"epc":2348.30,"geoidSep":22.400,"eph":38.000,"sep":70.300}
$GNGSA,A,3,10,17,12,24,09,,,,,,,,3.7,2.0,3.1*23
$GNGSA,A,3,,,,,,,,,,,,,3.7,2.0,3.1*28
$GNGSA,A,3,,,,,,,,,,,,,3.7,2.0,3.1*28
$GPGSV,3,1,10,02,86,086,41,04,40,133,38,05,20,023,38,09,36,327,38*7B
$GPGSV,3,2,10,10,31,083,36,12,61,213,40,17,07,105,20,24,38,321,37*7A
$GPGSV,3,3,10,25,25,224,30,29,12,267,33,,,,,,,,*74
$GLGSV,2,1,08,76,08,007,,65,10,040,,81,09,277,14,78,51,239,*62
$GLGSV,2,2,08,77,51,333,,88,48,233,,87,41,152,,71,10,143,*69
{"class":"SKY","xdop":1.37,"ydop":1.38,"vdop":3.10,"tdop":1.99,"hdop":2.00,"gdop":4.18,"pdop":3.70,"satellites":[{"PRN":2,"el":86.0,"az":86.0,"ss":41.0,"used":false,"gnssid":0,"svid":2},{"PRN":4,"el":40.0,"az":133.0,"ss":38.0,"used":false,"gnssid":0,"svid":4},{"PRN":5,"el":20.0,"az":23.0,"ss":38.0,"used":false,"gnssid":0,"svid":5},{"PRN":9,"el":36.0,"az":327.0,"ss":38.0,"used":true,"gnssid":0,"svid":9},{"PRN":10,"el":31.0,"az":83.0,"ss":36.0,"used":true,"gnssid":0,"svid":10},{"PRN":12,"el":61.0,"az":213.0,"ss":40.0,"used":true,"gnssid":0,"svid":12},{"PRN":17,"el":7.0,"az":105.0,"ss":20.0,"used":true,"gnssid":0,"svid":17},{"PRN":24,"el":38.0,"az":321.0,"ss":37.0,"used":true,"gnssid":0,"svid":24},{"PRN":25,"el":25.0,"az":224.0,"ss":30.0,"used":false,"gnssid":0,"svid":25},{"PRN":29,"el":12.0,"az":267.0,"ss":33.0,"used":false,"gnssid":0,"svid":29},{"PRN":76,"el":8.0,"az":7.0,"ss":0.0,"used":false,"gnssid":6,"svid":12},{"PRN":65,"el":10.0,"az":40.0,"ss":0.0,"used":false,"gnssid":6,"svid":1},{"PRN":81,"el":9.0,"az":277.0,"ss":14.0,"used":false,"gnssid":6,"svid":17},{"PRN":78,"el":51.0,"az":239.0,"ss":0.0,"used":false,"gnssid":6,"svid":14},{"PRN":77,"el":51.0,"az":333.0,"ss":0.0,"used":false,"gnssid":6,"svid":13},{"PRN":88,"el":48.0,"az":233.0,"ss":0.0,"used":false,"gnssid":6,"svid":24},{"PRN":87,"el":41.0,"az":152.0,"ss":0.0,"used":false,"gnssid":6,"svid":23},{"PRN":71,"el":10.0,"az":143.0,"ss":0.0,"used":false,"gnssid":6,"svid":7}]}
$QZGSV,1,1,01,193,34,332,36,,,,,,,,,,,,*6F
{"class":"SKY","xdop":1.37,"ydop":1.38,"vdop":3.10,"tdop":1.99,"hdop":2.00,"gdop":4.18,"pdop":3.70,"satellites":[{"PRN":2,"el":86.0,"az":86.0,"ss":41.0,"used":false,"gnssid":0,"svid":2},{"PRN":4,"el":40.0,"az":133.0,"ss":38.0,"used":false,"gnssid":0,"svid":4},{"PRN":5,"el":20.0,"az":23.0,"ss":38.0,"used":false,"gnssid":0,"svid":5},{"PRN":9,"el":36.0,"az":327.0,"ss":38.0,"used":true,"gnssid":0,"svid":9},{"PRN":10,"el":31.0,"az":83.0,"ss":36.0,"used":true,"gnssid":0,"svid":10},{"PRN":12,"el":61.0,"az":213.0,"ss":40.0,"used":true,"gnssid":0,"svid":12},{"PRN":17,"el":7.0,"az":105.0,"ss":20.0,"used":true,"gnssid":0,"svid":17},{"PRN":24,"el":38.0,"az":321.0,"ss":37.0,"used":true,"gnssid":0,"svid":24},{"PRN":25,"el":25.0,"az":224.0,"ss":30.0,"used":false,"gnssid":0,"svid":25},{"PRN":29,"el":12.0,"az":267.0,"ss":33.0,"used":false,"gnssid":0,"svid":29},{"PRN":76,"el":8.0,"az":7.0,"ss":0.0,"used":false,"gnssid":6,"svid":12},{"PRN":65,"el":10.0,"az":40.0,"ss":0.0,"used":false,"gnssid":6,"svid":1},{"PRN":81,"el":9.0,"az":277.0,"ss":14.0,"used":false,"gnssid":6,"svid":17},{"PRN":78,"el":51.0,"az":239.0,"ss":0.0,"used":false,"gnssid":6,"svid":14},{"PRN":77,"el":51.0,"az":333.0,"ss":0.0,"used":false,"gnssid":6,"svid":13},{"PRN":88,"el":48.0,"az":233.0,"ss":0.0,"used":false,"gnssid":6,"svid":24},{"PRN":87,"el":41.0,"az":152.0,"ss":0.0,"used":false,"gnssid":6,"svid":23},{"PRN":71,"el":10.0,"az":143.0,"ss":0.0,"used":false,"gnssid":6,"svid":7},{"PRN":193,"el":34.0,"az":332.0,"ss":36.0,"used":false,"gnssid":5,"svid":1}]}
$GPRMC,102147.000,A,3340.8169,S,15117.4716,E,0.1,0.0,251112,0.0,W*66
$GPGGA,102147.000,3340.8169,S,15117.4716,E,1,05,2.0,081.88,M,22.4,M,,*7F
{"class":"TPV","mode":3,"time":"2012-11-25T10:21:47.000Z","ept":0.005,"lat":-33.680281667,"lon":151.291193333,"altHAE":104.280,"altMSL":81.880,"epx":20.582,"epy":20.708,"epv":71.300,"track":0.0000,"magtrack":12.5824,"magvar":12.6,"speed":0.051,"climb":1.420,"eps":41.42,"epc":142.60,"geoidSep":22.400,"eph":38.000,"sep":70.300}
$GNGSA,A,3,10,17,12,24,09,,,,,,,,3.7,2.0,3.1*23
$GNGSA,A,3,,,,,,,,,,,,,3.7,2.0,3.1*28
$GNGSA,A,3,,,,,,,,,,,,,3.7,2.0,3.1*28
$GPGSV,3,1,10,02,86,086,41,04,40,133,38,05,20,023,38,09,36,327,38*7B
$GPGSV,3,2,10,10,31,083,35,12,61,213,40,17,07,105,19,24,38,321,37*73
$GPGSV,3,3,10,25,25,224,29,29,12,267,33,,,,,,,,*7C
$GLGSV,2,1,08,76,08,007,,65,10,040,,81,09,277,15,78,51,239,*63
$GLGSV,2,2,08,77,51,333,,88,48,233,,87,41,152,,71,10,143,*69
{"class":"SKY","xdop":1.37,"ydop":1.38,"vdop":3.10,"tdop":1.99,"hdop":2.00,"gdop":4.18,"pdop":3.70,"satellites":[{"PRN":2,"el":86.0,"az":86.0,"ss":41.0,"used":false,"gnssid":0,"svid":2},{"PRN":4,"el":40.0,"az":133.0,"ss":38.0,"used":false,"gnssid":0,"svid":4},{"PRN":5,"el":20.0,"az":23.0,"ss":38.0,"used":false,"gnssid":0,"svid":5},{"PRN":9,"el":36.0,"az":327.0,"ss":38.0,"used":true,"gnssid":0,"svid":9},{"PRN":10,"el":31.0,"az":83.0,"ss":35.0,"used":true,"gnssid":0,"svid":10},{"PRN":12,"el":61.0,"az":213.0,"ss":40.0,"used":true,"gnssid":0,"svid":12},{"PRN":17,"el":7.0,"az":105.0,"ss":19.0,"used":true,"gnssid":0,"svid":17},{"PRN":24,"el":38.0,"az":321.0,"ss":37.0,"used":true,"gnssid":0,"svid":24},{"PRN":25,"el":25.0,"az":224.0,"ss":29.0,"used":false,"gnssid":0,"svid":25},{"PRN":29,"el":12.0,"az":267.0,"ss":33.0,"used":false,"gnssid":0,"svid":29},{"PRN":76,"el":8.0,"az":7.0,"ss":0.0,"used":false,"gnssid":6,"svid":12},{"PRN":65,"el":10.0,"az":40.0,"ss":0.0,"used":false,"gnssid":6,"svid":1},{"PRN":81,"el":9.0,"az":277.0,"ss":15.0,"used":false,"gnssid":6,"svid":17},{"PRN":78,"el":51.0,"az":239.0,"ss":0.0,"used":false,"gnssid":6,"svid":14},{"PRN":77,"el":51.0,"az":333.0,"ss":0.0,"used":false,"gnssid":6,"svid":13},{"PRN":88,"el":48.0,"az":233.0,"ss":0.0,"used":false,"gnssid":6,"svid":24},{"PRN":87,"el":41.0,"az":152.0,"ss":0.0,"used":false,"gnssid":6,"svid":23},{"PRN":71,"el":10.0,"az":143.0,"ss":0.0,"used":false,"gnssid":6,"svid":7}]}
$QZGSV,1,1,01,193,34,332,35,,,,,,,,,,,,*6C
{"class":"SKY","xdop":1.37,"ydop":1.38,"vdop":3.10,"tdop":1.99,"hdop":2.00,"gdop":4.18,"pdop":3.70,"satellites":[{"PRN":2,"el":86.0,"az":86.0,"ss":41.0,"used":false,"gnssid":0,"svid":2},{"PRN":4,"el":40.0,"az":133.0,"ss":38.0,"used":false,"gnssid":0,"svid":4},{"PRN":5,"el":20.0,"az":23.0,"ss":38.0,"used":false,"gnssid":0,"svid":5},{"PRN":9,"el":36.0,"az":327.0,"ss":38.0,"used":true,"gnssid":0,"svid":9},{"PRN":10,"el":31.0,"az":83.0,"ss":35.0,"used":true,"gnssid":0,"svid":10},{"PRN":12,"el":61.0,"az":213.0,"ss":40.0,"used":true,"gnssid":0,"svid":12},{"PRN":17,"el":7.0,"az":105.0,"ss":19.0,"used":true,"gnssid":0,"svid":17},{"PRN":24,"el":38.0,"az":321.0,"ss":37.0,"used":true,"gnssid":0,"svid":24},{"PRN":25,"el":25.0,"az":224.0,"ss":29.0,"used":false,"gnssid":0,"svid":25},{"PRN":29,"el":12.0,"az":267.0,"ss":33.0,"used":false,"gnssid":0,"svid":29},{"PRN":76,"el":8.0,"az":7.0,"ss":0.0,"used":false,"gnssid":6,"svid":12},{"PRN":65,"el":10.0,"az":40.0,"ss":0.0,"used":false,"gnssid":6,"svid":1},{"PRN":81,"el":9.0,"az":277.0,"ss":15.0,"used":false,"gnssid":6,"svid":17},{"PRN":78,"el":51.0,"az":239.0,"ss":0.0,"used":false,"gnssid":6,"svid":14},{"PRN":77,"el":51.0,"az":333.0,"ss":0.0,"used":false,"gnssid":6,"svid":13},{"PRN":88,"el":48.0,"az":233.0,"ss":0.0,"used":false,"gnssid":6,"svid":24},{"PRN":87,"el":41.0,"az":152.0,"ss":0.0,"used":false,"gnssid":6,"svid":23},{"PRN":71,"el":10.0,"az":143.0,"ss":0.0,"used":false,"gnssid":6,"svid":7},{"PRN":193,"el":34.0,"az":332.0,"ss":35.0,"used":false,"gnssid":5,"svid":1}]}
$GPRMC,102148.020,A,3340.8149,S,15117.4711,E,0.1,0.0,251112,0.0,W*6E
$GPGGA,102148.020,3340.8149,S,15117.4711,E,1,05,2.0,082.56,M,22.4,M,,*77
{"class":"TPV","mode":3,"time":"2012-11-25T10:21:48.020Z","ept":0.005,"lat":-33.680248333,"lon":151.291185000,"altHAE":104.960,"altMSL":82.560,"epx":20.582,"epy":20.708,"epv":71.300,"track":0.0000,"magtrack":12.5824,"magvar":12.6,"speed":0.051,"climb":0.667,"eps":40.60,"epc":139.80,"geoidSep":22.400,"eph":38.000,"sep":70.300}
$GNGSA,A,3,10,17,12,24,09,,,,,,,,3.7,2.0,3.1*23
$GNGSA,A,3,,,,,,,,,,,,,3.7,2.0,3.1*28
$GNGSA,A,3,,,,,,,,,,,,,3.7,2.0,3.1*28
$GPGSV,3,1,10,02,86,086,41,04,40,133,38,05,20,023,37,09,36,327,37*7B
$GPGSV,3,2,10,10,31,083,35,12,61,213,40,17,07,105,18,24,38,321,37*72
$GPGSV,3,3,10,25,25,224,29,29,12,267,33,,,,,,,,*7C
$GLGSV,2,1,08,76,08,007,,65,10,040,,81,09,277,15,78,51,239,*63
$GLGSV,2,2,08,77,51,333,,88,48,233,,87,41,152,,71,10,143,*69
{"class":"SKY","xdop":1.37,"ydop":1.38,"vdop":3.10,"tdop":1.99,"hdop":2.00,"gdop":4.18,"pdop":3.70,"satellites":[{"PRN":2,"el":86.0,"az":86.0,"ss":41.0,"used":false,"gnssid":0,"svid":2},{"PRN":4,"el":40.0,"az":133.0,"ss":38.0,"used":false,"gnssid":0,"svid":4},{"PRN":5,"el":20.0,"az":23.0,"ss":37.0,"used":false,"gnssid":0,"svid":5},{"PRN":9,"el":36.0,"az":327.0,"ss":37.0,"used":true,"gnssid":0,"svid":9},{"PRN":10,"el":31.0,"az":83.0,"ss":35.0,"used":true,"gnssid":0,"svid":10},{"PRN":12,"el":61.0,"az":213.0,"ss":40.0,"used":true,"gnssid":0,"svid":12},{"PRN":17,"el":7.0,"az":105.0,"ss":18.0,"used":true,"gnssid":0,"svid":17},{"PRN":24,"el":38.0,"az":321.0,"ss":37.0,"used":true,"gnssid":0,"svid":24},{"PRN":25,"el":25.0,"az":224.0,"ss":29.0,"used":false,"gnssid":0,"svid":25},{"PRN":29,"el":12.0,"az":267.0,"ss":33.0,"used":false,"gnssid":0,"svid":29},{"PRN":76,"el":8.0,"az":7.0,"ss":0.0,"used":false,"gnssid":6,"svid":12},{"PRN":65,"el":10.0,"az":40.0,"ss":0.0,"used":false,"gnssid":6,"svid":1},{"PRN":81,"el":9.0,"az":277.0,"ss":15.0,"used":false,"gnssid":6,"svid":17},{"PRN":78,"el":51.0,"az":239.0,"ss":0.0,"used":false,"gnssid":6,"svid":14},{"PRN":77,"el":51.0,"az":333.0,"ss":0.0,"used":false,"gnssid":6,"svid":13},{"PRN":88,"el":48.0,"az":233.0,"ss":0.0,"used":false,"gnssid":6,"svid":24},{"PRN":87,"el":41.0,"az":152.0,"ss":0.0,"used":false,"gnssid":6,"svid":23},{"PRN":71,"el":10.0,"az":143.0,"ss":0.0,"used":false,"gnssid":6,"svid":7}]}
$QZGSV,1,1,01,193,34,332,35,,,,,,,,,,,,*6C
{"class":"SKY","xdop":1.37,"ydop":1.38,"vdop":3.10,"tdop":1.99,"hdop":2.00,"gdop":4.18,"pdop":3.70,"satellites":[{"PRN":2,"el":86.0,"az":86.0,"ss":41.0,"used":false,"gnssid":0,"svid":2},{"PRN":4,"el":40.0,"az":133.0,"ss":38.0,"used":false,"gnssid":0,"svid":4},{"PRN":5,"el":20.0,"az":23.0,"ss":37.0,"used":false,"gnssid":0,"svid":5},{"PRN":9,"el":36.0,"az":327.0,"ss":37.0,"used":true,"gnssid":0,"svid":9},{"PRN":10,"el":31.0,"az":83.0,"ss":35.0,"used":true,"gnssid":0,"svid":10},{"PRN":12,"el":61.0,"az":213.0,"ss":40.0,"used":true,"gnssid":0,"svid":12},{"PRN":17,"el":7.0,"az":105.0,"ss":18.0,"used":true,"gnssid":0,"svid":17},{"PRN":24,"el":38.0,"az":321.0,"ss":37.0,"used":true,"gnssid":0,"svid":24},{"PRN":25,"el":25.0,"az":224.0,"ss":29.0,"used":false,"gnssid":0,"svid":25},{"PRN":29,"el":12.0,"az":267.0,"ss":33.0,"used":false,"gnssid":0,"svid":29},{"PRN":76,"el":8.0,"az":7.0,"ss":0.0,"used":false,"gnssid":6,"svid":12},{"PRN":65,"el":10.0,"az":40.0,"ss":0.0,"used":false,"gnssid":6,"svid":1},{"PRN":81,"el":9.0,"az":277.0,"ss":15.0,"used":false,"gnssid":6,"svid":17},{"PRN":78,"el":51.0,"az":239.0,"ss":0.0,"used":false,"gnssid":6,"svid":14},{"PRN":77,"el":51.0,"az":333.0,"ss":0.0,"used":false,"gnssid":6,"svid":13},{"PRN":88,"el":48.0,"az":233.0,"ss":0.0,"used":false,"gnssid":6,"svid":24},{"PRN":87,"el":41.0,"az":152.0,"ss":0.0,"used":false,"gnssid":6,"svid":23},{"PRN":71,"el":10.0,"az":143.0,"ss":0.0,"used":false,"gnssid":6,"svid":7},{"PRN":193,"el":34.0,"az":332.0,"ss":35.0,"used":false,"gnssid":5,"svid":1}]}
$GPRMC,102149.000,A,3340.8139,S,15117.4712,E,0.2,0.0,251112,0.0,W*6A
$GPGGA,102149.000,3340.8139,S,15117.4712,E,1,05,2.0,083.12,M,22.4,M,,*71
{"class":"TPV","mode":3,"time":"2012-11-25T10:21:49.000Z","ept":0.005,"lat":-33.680231667,"lon":151.291186667,"altHAE":105.520,"altMSL":83.120,"epx":20.582,"epy":20.708,"epv":71.300,"track":0.0000,"magtrack":12.5824,"magvar":12.6,"speed":0.103,"climb":0.571,"eps":42.26,"epc":145.51,"geoidSep":22.400,"eph":38.000,"sep":70.300}
$GNGSA,A,3,10,17,12,24,09,,,,,,,,3.7,2.0,3.1*23
$GNGSA,A,3,,,,,,,,,,,,,3.7,2.0,3.1*28
$GNGSA,A,3,,,,,,,,,,,,,3.7,2.0,3.1*28
$GPGSV,3,1,10,02,86,086,41,04,40,133,38,05,20,023,37,09,36,327,37*7B
$GPGSV,3,2,10,10,31,083,34,12,61,213,40,17,07,105,17,24,38,321,37*7C
$GPGSV,3,3,10,25,25,224,29,29,12,267,33,,,,,,,,*7C
$GLGSV,2,1,08,76,08,007,,65,10,040,,81,09,277,15,78,51,239,*63
$GLGSV,2,2,08,77,51,333,,88,48,233,,87,41,152,,71,10,143,*69
{"class":"SKY","xdop":1.37,"ydop":1.38,"vdop":3.10,"tdop":1.99,"hdop":2.00,"gdop":4.18,"pdop":3.70,"satellites":[{"PRN":2,"el":86.0,"az":86.0,"ss":41.0,"used":false,"gnssid":0,"svid":2},{"PRN":4,"el":40.0,"az":133.0,"ss":38.0,"used":false,"gnssid":0,"svid":4},{"PRN":5,"el":20.0,"az":23.0,"ss":37.0,"used":false,"gnssid":0,"svid":5},{"PRN":9,"el":36.0,"az":327.0,"ss":37.0,"used":true,"gnssid":0,"svid":9},{"PRN":10,"el":31.0,"az":83.0,"ss":34.0,"used":true,"gnssid":0,"svid":10},{"PRN":12,"el":61.0,"az":213.0,"ss":40.0,"used":true,"gnssid":0,"svid":12},{"PRN":17,"el":7.0,"az":105.0,"ss":17.0,"used":true,"gnssid":0,"svid":17},{"PRN":24,"el":38.0,"az":321.0,"ss":37.0,"used":true,"gnssid":0,"svid":24},{"PRN":25,"el":25.0,"az":224.0,"ss":29.0,"used":false,"gnssid":0,"svid":25},{"PRN":29,"el":12.0,"az":267.0,"ss":33.0,"used":false,"gnssid":0,"svid":29},{"PRN":76,"el":8.0,"az":7.0,"ss":0.0,"used":false,"gnssid":6,"svid":12},{"PRN":65,"el":10.0,"az":40.0,"ss":0.0,"used":false,"gnssid":6,"svid":1},{"PRN":81,"el":9.0,"az":277.0,"ss":15.0,"used":false,"gnssid":6,"svid":17},{"PRN":78,"el":51.0,"az":239.0,"ss":0.0,"used":false,"gnssid":6,"svid":14},{"PRN":77,"el":51.0,"az":333.0,"ss":0.0,"used":false,"gnssid":6,"svid":13},{"PRN":88,"el":48.0,"az":233.0,"ss":0.0,"used":false,"gnssid":6,"svid":24},{"PRN":87,"el":41.0,"az":152.0,"ss":0.0,"used":false,"gnssid":6,"svid":23},{"PRN":71,"el":10.0,"az":143.0,"ss":0.0,"used":false,"gnssid":6,"svid":7}]}
$QZGSV,1,1,01,193,34,332,35,,,,,,,,,,,,*6C
{"class":"SKY","xdop":1.37,"ydop":1.38,"vdop":3.10,"tdop":1.99,"hdop":2.00,"gdop":4.18,"pdop":3.70,"satellites":[{"PRN":2,"el":86.0,"az":86.0,"ss":41.0,"used":false,"gnssid":0,"svid":2},{"PRN":4,"el":40.0,"az":133.0,"ss":38.0,"used":false,"gnssid":0,"svid":4},{"PRN":5,"el":20.0,"az":23.0,"ss":37.0,"used":false,"gnssid":0,"svid":5},{"PRN":9,"el":36.0,"az":327.0,"ss":37.0,"used":true,"gnssid":0,"svid":9},{"PRN":10,"el":31.0,"az":83.0,"ss":34.0,"used":true,"gnssid":0,"svid":10},{"PRN":12,"el":61.0,"az":213.0,"ss":40.0,"used":true,"gnssid":0,"svid":12},{"PRN":17,"el":7.0,"az":105.0,"ss":17.0,"used":true,"gnssid":0,"svid":17},{"PRN":24,"el":38.0,"az":321.0,"ss":37.0,"used":true,"gnssid":0,"svid":24},{"PRN":25,"el":25.0,"az":224.0,"ss":29.0,"used":false,"gnssid":0,"svid":25},{"PRN":29,"el":12.0,"az":267.0,"ss":33.0,"used":false,"gnssid":0,"svid":29},{"PRN":76,"el":8.0,"az":7.0,"ss":0.0,"used":false,"gnssid":6,"svid":12},{"PRN":65,"el":10.0,"az":40.0,"ss":0.0,"used":false,"gnssid":6,"svid":1},{"PRN":81,"el":9.0,"az":277.0,"ss":15.0,"used":false,"gnssid":6,"svid":17},{"PRN":78,"el":51.0,"az":239.0,"ss":0.0,"used":false,"gnssid":6,"svid":14},{"PRN":77,"el":51.0,"az":333.0,"ss":0.0,"used":false,"gnssid":6,"svid":13},{"PRN":88,"el":48.0,"az":233.0,"ss":0.0,"used":false,"gnssid":6,"svid":24},{"PRN":87,"el":41.0,"az":152.0,"ss":0.0,"used":false,"gnssid":6,"svid":23},{"PRN":71,"el":10.0,"az":143.0,"ss":0.0,"used":false,"gnssid":6,"svid":7},{"PRN":193,"el":34.0,"az":332.0,"ss":35.0,"used":false,"gnssid":5,"svid":1}]}
