$GPGGA,,,,,,0,,,,M,,M,,*66
{"class":"TPV","mode":1}
$GPGLL,,,,,,V,N*64
{"class":"TPV","mode":1}
$GPGSA,A,1,,,,,,,,,,,,,,,*1E
$GPGSV,1,1,00,,,,,,,,,,,,,,,,*79
$GPRMC,,V,,,,,,,,,,N*53
{"class":"TPV","mode":1}
$GPVTG,,T,,M,,N,,K,N*2C
$GPGGA,,,,,,0,,,,M,,M,,*66
{"class":"TPV","mode":1}
$GPGLL,,,,,,V,N*64
{"class":"TPV","mode":1}
$GPGSA,A,1,,,,,,,,,,,,,,,*1E
$GPGSV,1,1,02,15,00,000,,17,00,000,,,,,,,,,*79
$GPRMC,,V,,,,,,,,,,N*53
{"class":"TPV","mode":1}
$GPVTG,,T,,M,,N,,K,N*2C
$GPGGA,,,,,,0,,,,M,,M,,*66
{"class":"TPV","mode":1}
$GPGLL,,,,,,V,N*64
{"class":"TPV","mode":1}
$GPGSA,A,1,,,,,,,,,,,,,,,*1E
$GPGSV,1,1,04,15,00,000,44,17,00,000,37,24,00,000,40,28,00,000,46*71
$GPRMC,,V,,,,,,,,,,N*53
{"class":"TPV","mode":1}
$GPVTG,,T,,M,,N,,K,N*2C
$GPGGA,,,,,,0,,,,M,,M,,*66
{"class":"TPV","mode":1}
$GPGLL,,,,,,V,N*64
{"class":"TPV","mode":1}
$GPGSA,A,1,,,,,,,,,,,,,,,*1E
$GPGSV,1,1,04,15,00,000,44,17,00,000,37,24,00,000,40,28,00,000,47*70
$GPRMC,,V,,,,,,,,,,N*53
{"class":"TPV","mode":1}
$GPVTG,,T,,M,,N,,K,N*2C
$GPGGA,,,,,,0,,,,M,,M,,*66
{"class":"TPV","mode":1}
$GPGLL,,,,,,V,N*64
{"class":"TPV","mode":1}
$GPGSA,A,1,,,,,,,,,,,,,,,*1E
$GPGSV,1,1,04,15,00,000,44,17,00,000,37,24,00,000,40,28,00,000,47*70
$GPRMC,,V,,,,,,,,,,N*53
{"class":"TPV","mode":1}
$GPVTG,,T,,M,,N,,K,N*2C
$GPGGA,,,,,,0,,,,M,,M,,*66
{"class":"TPV","mode":1}
$GPGLL,,,,,,V,N*64
{"class":"TPV","mode":1}
$GPGSA,A,1,,,,,,,,,,,,,,,*1E
$GPGSV,1,1,04,15,00,000,44,17,00,000,36,24,00,000,40,28,00,000,47*71
$GPRMC,,V,,,,,,,,,,N*53
{"class":"TPV","mode":1}
$GPVTG,,T,,M,,N,,K,N*2C
$GPGGA,,,,,,0,,,,M,,M,,*66
{"class":"TPV","mode":1}
$GPGLL,,,,,,V,N*64
{"class":"TPV","mode":1}
$GPGSA,A,1,,,,,,,,,,,,,,,*1E
$GPGSV,1,1,04,15,00,000,44,17,00,000,36,24,00,000,40,28,00,000,47*71
$GPRMC,,V,,,,,,,,,,N*53
{"class":"TPV","mode":1}
$GPVTG,,T,,M,,N,,K,N*2C
$GPGGA,,,,,,0,,,,M,,M,,*66
{"class":"TPV","mode":1}
$GPGLL,,,,,,V,N*64
{"class":"TPV","mode":1}
$GPGSA,A,1,,,,,,,,,,,,,,,*1E
$GPGSV,1,1,04,15,00,000,44,17,00,000,36,24,00,000,39,28,00,000,47*7F
$GPRMC,,V,,,,,,,,,,N*53
{"class":"TPV","mode":1}
$GPVTG,,T,,M,,N,,K,N*2C
$GPGGA,,,,,,0,,,,M,,M,,*66
{"class":"TPV","mode":1}
$GPGLL,,,,,,V,N*64
{"class":"TPV","mode":1}
$GPGSA,A,1,,,,,,,,,,,,,,,*1E
$GPGSV,1,1,04,15,00,000,44,17,00,000,36,24,00,000,39,28,00,000,47*7F
$GPRMC,,V,,,,,,,,,,N*53
{"class":"TPV","mode":1}
$GPVTG,,T,,M,,N,,K,N*2C
$GPGGA,,,,,,0,,,,M,,M,,*66
{"class":"TPV","mode":1}
$GPGLL,,,,,,V,N*64
{"class":"TPV","mode":1}
$GPGSA,A,1,,,,,,,,,,,,,,,*1E
$GPGSV,1,1,04,15,00,000,44,17,00,000,37,24,00,000,39,28,00,000,47*7E
$GPRMC,,V,,,,,,,,,,N*53
{"class":"TPV","mode":1}
$GPVTG,,T,,M,,N,,K,N*2C
$GPGGA,,,,,,0,,,,M,,M,,*66
{"class":"TPV","mode":1}
$GPGLL,,,,,,V,N*64
{"class":"TPV","mode":1}
$GPGSA,A,1,,,,,,,,,,,,,,,*1E
$GPGSV,2,1,05,13,00,000,35,15,00,000,44,17,00,000,36,24,00,000,39*70
$GPGSV,2,2,05,28,00,000,47,,,,,,,,,,,,*45
$GPRMC,,V,,,,,,,,,,N*53
{"class":"TPV","mode":1}
$GPVTG,,T,,M,,N,,K,N*2C
$GPGGA,,,,,,0,,,,M,,M,,*66
{"class":"TPV","mode":1}
$GPGLL,,,,,,V,N*64
{"class":"TPV","mode":1}
$GPGSA,A,1,,,,,,,,,,,,,,,*1E
$GPGSV,2,1,05,13,00,000,35,15,00,000,44,17,00,000,37,24,00,000,39*71
$GPGSV,2,2,05,28,00,000,47,,,,,,,,,,,,*45
$GPRMC,,V,,,,,,,,,,N*53
{"class":"TPV","mode":1}
$GPVTG,,T,,M,,N,,K,N*2C
$GPGGA,,,,,,0,,,,M,,M,,*66
{"class":"TPV","mode":1}
$GPGLL,,,,,,V,N*64
{"class":"TPV","mode":1}
$GPGSA,A,1,,,,,,,,,,,,,,,*1E
$GPGSV,2,1,05,13,00,000,35,15,00,000,44,17,00,000,37,24,00,000,39*71
$GPGSV,2,2,05,28,00,000,47,,,,,,,,,,,,*45
$GPRMC,,V,,,,,,,,,,N*53
{"class":"TPV","mode":1}
$GPVTG,,T,,M,,N,,K,N*2C
$GPGGA,,,,,,0,,,,M,,M,,*66
{"class":"TPV","mode":1}
$GPGLL,,,,,,V,N*64
{"class":"TPV","mode":1}
$GPGSA,A,1,,,,,,,,,,,,,,,*1E
$GPGSV,2,1,05,13,00,000,36,15,00,000,44,17,00,000,37,24,00,000,39*72
$GPGSV,2,2,05,28,00,000,47,,,,,,,,,,,,*45
$GPRMC,,V,,,,,,,,,,N*53
{"class":"TPV","mode":1}
$GPVTG,,T,,M,,N,,K,N*2C
$GPGGA,,,,,,0,,,,M,,M,,*66
{"class":"TPV","mode":1}
$GPGLL,,,,,,V,N*64
{"class":"TPV","mode":1}
$GPGSA,A,1,,,,,,,,,,,,,,,*1E
$GPGSV,2,1,05,13,00,000,36,15,00,000,44,17,00,000,37,24,00,000,39*72
$GPGSV,2,2,05,28,00,000,47,,,,,,,,,,,,*45
$GPRMC,,V,,,,,,,,,,N*53
{"class":"TPV","mode":1}
$GPVTG,,T,,M,,N,,K,N*2C
$GPGGA,,,,,,0,,,,M,,M,,*66
{"class":"TPV","mode":1}
$GPGLL,,,,,,V,N*64
{"class":"TPV","mode":1}
$GPGSA,A,1,,,,,,,,,,,,,,,*1E
$GPGSV,2,1,05,13,00,000,36,15,00,000,44,17,00,000,37,24,00,000,39*72
$GPGSV,2,2,05,28,00,000,47,,,,,,,,,,,,*45
$GPRMC,,V,,,,,,,,,,N*53
{"class":"TPV","mode":1}
$GPVTG,,T,,M,,N,,K,N*2C
$GPGGA,,,,,,0,,,,M,,M,,*66
{"class":"TPV","mode":1}
$GPGLL,,,,,,V,N*64
{"class":"TPV","mode":1}
$GPGSA,A,1,,,,,,,,,,,,,,,*1E
$GPGSV,2,1,05,13,00,000,36,15,00,000,44,17,00,000,36,24,00,000,39*73
$GPGSV,2,2,05,28,00,000,47,,,,,,,,,,,,*45
$GPRMC,,V,,,,,,,,,,N*53
{"class":"TPV","mode":1}
$GPVTG,,T,,M,,N,,K,N*2C
$GPGGA,,,,,,0,,,,M,,M,,*66
{"class":"TPV","mode":1}
$GPGLL,,,,,,V,N*64
{"class":"TPV","mode":1}
$GPGSA,A,1,,,,,,,,,,,,,,,*1E
$GPGSV,2,1,05,13,00,000,37,15,00,000,44,17,00,000,37,24,00,000,38*72
$GPGSV,2,2,05,28,00,000,47,,,,,,,,,,,,*45
$GPRMC,,V,,,,,,,,,,N*53
{"class":"TPV","mode":1}
$GPVTG,,T,,M,,N,,K,N*2C
$GPGGA,,,,,,0,,,,M,,M,,*66
{"class":"TPV","mode":1}
$GPGLL,,,,,,V,N*64
{"class":"TPV","mode":1}
$GPGSA,A,1,,,,,,,,,,,,,,,*1E
$GPGSV,2,1,05,13,00,000,37,15,00,000,44,17,00,000,36,24,00,000,38*73
$GPGSV,2,2,05,28,00,000,47,,,,,,,,,,,,*45
$GPRMC,,V,,,,,,,,,,N*53
{"class":"TPV","mode":1}
$GPVTG,,T,,M,,N,,K,N*2C
$GPGGA,,,,,,0,,,,M,,M,,*66
{"class":"TPV","mode":1}
$GPGLL,,,,,,V,N*64
{"class":"TPV","mode":1}
$GPGSA,A,1,,,,,,,,,,,,,,,*1E
$GPGSV,2,1,05,13,00,000,37,15,00,000,44,17,00,000,37,24,00,000,38*72
$GPGSV,2,2,05,28,00,000,47,,,,,,,,,,,,*45
$GPRMC,,V,,,,,,,,,,N*53
{"class":"TPV","mode":1}
$GPVTG,,T,,M,,N,,K,N*2C
$GPGGA,,,,,,0,,,,M,,M,,*66
{"class":"TPV","mode":1}
$GPGLL,,,,,,V,N*64
{"class":"TPV","mode":1}
$GPGSA,A,1,,,,,,,,,,,,,,,*1E
$GPGSV,2,1,05,13,00,000,37,15,00,000,44,17,00,000,36,24,00,000,38*73
$GPGSV,2,2,05,28,00,000,47,,,,,,,,,,,,*45
$GPRMC,,V,,,,,,,,,,N*53
{"class":"TPV","mode":1}
$GPVTG,,T,,M,,N,,K,N*2C
$GPGGA,,,,,,0,,,,M,,M,,*66
{"class":"TPV","mode":1}
$GPGLL,,,,,,V,N*64
{"class":"TPV","mode":1}
$GPGSA,A,1,,,,,,,,,,,,,,,*1E
$GPGSV,2,1,05,13,00,000,37,15,00,000,44,17,00,000,37,24,00,000,38*72
$GPGSV,2,2,05,28,00,000,47,,,,,,,,,,,,*45
$GPRMC,,V,,,,,,,,,,N*53
{"class":"TPV","mode":1}
$GPVTG,,T,,M,,N,,K,N*2C
$GPGGA,,,,,,0,,,,M,,M,,*66
{"class":"TPV","mode":1}
$GPGLL,,,,,,V,N*64
{"class":"TPV","mode":1}
$GPGSA,A,1,,,,,,,,,,,,,,,*1E
$GPGSV,2,1,05,13,00,000,36,15,00,000,44,17,00,000,37,24,00,000,38*73
$GPGSV,2,2,05,28,00,000,47,,,,,,,,,,,,*45
$GPRMC,,V,,,,,,,,,,N*53
{"class":"TPV","mode":1}
$GPVTG,,T,,M,,N,,K,N*2C
$GPGGA,,,,,,0,,,,M,,M,,*66
{"class":"TPV","mode":1}
$GPGLL,,,,,,V,N*64
{"class":"TPV","mode":1}
$GPGSA,A,1,,,,,,,,,,,,,,,*1E
$GPGSV,2,1,05,13,00,000,37,15,00,000,44,17,00,000,37,24,00,000,38*72
$GPGSV,2,2,05,28,00,000,47,,,,,,,,,,,,*45
$GPRMC,,V,,,,,,,,,,N*53
{"class":"TPV","mode":1}
$GPVTG,,T,,M,,N,,K,N*2C
$GPGGA,,,,,,0,,,,M,,M,,*66
{"class":"TPV","mode":1}
$GPGLL,,,,,,V,N*64
{"class":"TPV","mode":1}
$GPGSA,A,1,,,,,,,,,,,,,,,*1E
$GPGSV,2,1,05,13,00,000,37,15,00,000,44,17,00,000,37,24,00,000,38*72
$GPGSV,2,2,05,28,00,000,47,,,,,,,,,,,,*45
$GPRMC,,V,,,,,,,,,,N*53
{"class":"TPV","mode":1}
$GPVTG,,T,,M,,N,,K,N*2C
$GPGGA,,,,,,0,,,,M,,M,,*66
{"class":"TPV","mode":1}
$GPGLL,,,,,,V,N*64
{"class":"TPV","mode":1}
$GPGSA,A,1,,,,,,,,,,,,,,,*1E
$GPGSV,2,1,05,13,00,000,37,15,00,000,44,17,00,000,37,24,00,000,37*7D
$GPGSV,2,2,05,28,00,000,47,,,,,,,,,,,,*45
$GPRMC,,V,,,,,,,,,,N*53
{"class":"TPV","mode":1}
$GPVTG,,T,,M,,N,,K,N*2C
$GPGGA,,,,,,0,,,,M,,M,,*66
{"class":"TPV","mode":1}
$GPGLL,,,,,,V,N*64
{"class":"TPV","mode":1}
$GPGSA,A,1,,,,,,,,,,,,,,,*1E
$GPGSV,2,1,05,13,00,000,37,15,00,000,44,17,00,000,36,24,00,000,37*7C
$GPGSV,2,2,05,28,00,000,47,,,,,,,,,,,,*45
$GPRMC,,V,,,,,,,,,,N*53
{"class":"TPV","mode":1}
$GPVTG,,T,,M,,N,,K,N*2C
$GPGGA,,,,,,0,,,,M,,M,,*66
{"class":"TPV","mode":1}
$GPGLL,,,,,,V,N*64
{"class":"TPV","mode":1}
$GPGSA,A,1,,,,,,,,,,,,,,,*1E
$GPGSV,2,1,05,13,00,000,37,15,00,000,44,17,00,000,37,24,00,000,37*7D
$GPGSV,2,2,05,28,00,000,47,,,,,,,,,,,,*45
$GPRMC,,V,,,,,,,,,,N*53
{"class":"TPV","mode":1}
$GPVTG,,T,,M,,N,,K,N*2C
$GPGGA,,,,,,0,,,,M,,M,,*66
{"class":"TPV","mode":1}
$GPGLL,,,,,,V,N*64
{"class":"TPV","mode":1}
$GPGSA,A,1,,,,,,,,,,,,,,,*1E
$GPGSV,2,1,05,13,00,000,37,15,00,000,44,17,00,000,36,24,00,000,37*7C
$GPGSV,2,2,05,28,00,000,47,,,,,,,,,,,,*45
$GPRMC,,V,,,,,,,,,,N*53
{"class":"TPV","mode":1}
$GPVTG,,T,,M,,N,,K,N*2C
$GPGGA,,,,,,0,,,,M,,M,,*66
{"class":"TPV","mode":1}
$GPGLL,,,,,,V,N*64
{"class":"TPV","mode":1}
$GPGSA,A,1,,,,,,,,,,,,,,,*1E
$GPGSV,2,1,05,13,00,000,37,15,00,000,44,17,00,000,36,24,00,000,37*7C
$GPGSV,2,2,05,28,00,000,47,,,,,,,,,,,,*45
$GPRMC,,V,,,,,,,,,,N*53
{"class":"TPV","mode":1}
$GPVTG,,T,,M,,N,,K,N*2C
$GPGGA,,,,,,0,,,,M,,M,,*66
{"class":"TPV","mode":1}
$GPGLL,,,,,,V,N*64
{"class":"TPV","mode":1}
$GPGSA,A,1,,,,,,,,,,,,,,,*1E
$GPGSV,2,1,05,13,00,000,37,15,00,000,44,17,00,000,36,24,00,000,37*7C
$GPGSV,2,2,05,28,00,000,47,,,,,,,,,,,,*45
$GPRMC,,V,,,,,,,,,,N*53
{"class":"TPV","mode":1}
$GPVTG,,T,,M,,N,,K,N*2C
$GPGGA,,,,,,0,,,,M,,M,,*66
{"class":"TPV","mode":1}
$GPGLL,,,,,,V,N*64
{"class":"TPV","mode":1}
$GPGSA,A,1,,,,,,,,,,,,,,,*1E
$GPGSV,2,1,05,13,00,000,38,15,00,000,44,17,00,000,36,24,00,000,37*73
$GPGSV,2,2,05,28,00,000,48,,,,,,,,,,,,*4A
$GPRMC,,V,,,,,,,,,,N*53
{"class":"TPV","mode":1}
$GPVTG,,T,,M,,N,,K,N*2C
$GPGGA,,,,,,0,,,,M,,M,,*66
{"class":"TPV","mode":1}
$GPGLL,,,,,,V,N*64
{"class":"TPV","mode":1}
$GPGSA,A,1,,,,,,,,,,,,,,,*1E
$GPGSV,2,1,05,13,00,000,38,15,00,000,44,17,00,000,36,24,00,000,37*73
$GPGSV,2,2,05,28,00,000,47,,,,,,,,,,,,*45
$GPRMC,,V,,,,,,,,,,N*53
{"class":"TPV","mode":1}
$GPVTG,,T,,M,,N,,K,N*2C
$GPGGA,,,,,,0,,,,M,,M,,*66
{"class":"TPV","mode":1}
$GPGLL,,,,,,V,N*64
{"class":"TPV","mode":1}
$GPGSA,A,1,,,,,,,,,,,,,,,*1E
$GPGSV,2,1,05,13,00,000,38,15,00,000,44,17,00,000,36,24,00,000,37*73
$GPGSV,2,2,05,28,00,000,47,,,,,,,,,,,,*45
$GPRMC,,V,,,,,,,,,,N*53
{"class":"TPV","mode":1}
$GPVTG,,T,,M,,N,,K,N*2C
$GPGGA,,,,,,0,,,,M,,M,,*66
{"class":"TPV","mode":1}
$GPGLL,,,,,,V,N*64
{"class":"TPV","mode":1}
$GPGSA,A,1,,,,,,,,,,,,,,,*1E
$GPGSV,2,1,05,13,00,000,38,15,00,000,44,17,00,000,36,24,00,000,36*72
$GPGSV,2,2,05,28,00,000,47,,,,,,,,,,,,*45
$GPRMC,,V,,,,,,,,,,N*53
{"class":"TPV","mode":1}
$GPVTG,,T,,M,,N,,K,N*2C
$GPGGA,,,,,,0,,,,M,,M,,*66
{"class":"TPV","mode":1}
$GPGLL,,,,,,V,N*64
{"class":"TPV","mode":1}
$GPGSA,A,1,,,,,,,,,,,,,,,*1E
$GPGSV,2,1,05,13,00,000,39,15,00,000,44,17,00,000,36,24,00,000,36*73
$GPGSV,2,2,05,28,00,000,48,,,,,,,,,,,,*4A
$GPRMC,,V,,,,,,,,,,N*53
{"class":"TPV","mode":1}
$GPVTG,,T,,M,,N,,K,N*2C
$GPGGA,,,,,,0,,,,M,,M,,*66
{"class":"TPV","mode":1}
$GPGLL,,,,,,V,N*64
{"class":"TPV","mode":1}
$GPGSA,A,1,,,,,,,,,,,,,,,*1E
$GPGSV,2,1,06,13,00,000,39,15,45,282,44,17,19,211,36,19,00,000,35*7E
$GPGSV,2,2,06,24,39,316,36,28,55,198,48,,,,,,,,*74
{"class":"SKY","satellites":[{"PRN":13,"el":0.0,"az":0.0,"ss":39.0,"used":false,"gnssid":0,"svid":13},{"PRN":15,"el":45.0,"az":282.0,"ss":44.0,"used":false,"gnssid":0,"svid":15},{"PRN":17,"el":19.0,"az":211.0,"ss":36.0,"used":false,"gnssid":0,"svid":17},{"PRN":19,"el":0.0,"az":0.0,"ss":35.0,"used":false,"gnssid":0,"svid":19},{"PRN":24,"el":39.0,"az":316.0,"ss":36.0,"used":false,"gnssid":0,"svid":24},{"PRN":28,"el":55.0,"az":198.0,"ss":48.0,"used":false,"gnssid":0,"svid":28}]}
$GPRMC,,V,,,,,,,,,,N*53
{"class":"TPV","mode":1}
$GPVTG,,T,,M,,N,,K,N*2C
$GPGGA,105153.71,5050.4122,N,00420.8266,E,1,04,2.25,109.44,M,,M,,*77
{"class":"TPV","mode":3,"lat":50.840203333,"lon":4.347110000,"altHAE":155.230,"altMSL":109.440,"magvar":1.4,"geoidSep":45.790,"eph":42.750}
$GPGLL,5050.4122,N,00420.8266,E,105153.71,A,A*65
{"class":"TPV","mode":3,"lat":50.840203333,"lon":4.347110000,"altHAE":155.230,"altMSL":109.440,"magvar":1.4,"geoidSep":45.790,"eph":42.750}
$GPGSA,A,3,15,17,24,28,,,,,,,,,4.00,2.25,3.25*09
{"class":"TPV","mode":3,"lat":50.840203333,"lon":4.347110000,"altHAE":155.230,"altMSL":109.440,"epv":74.750,"magvar":1.4,"geoidSep":45.790,"eph":42.750,"sep":76.000}
$GPGSV,2,1,06,13,00,000,39,15,76,248,44,17,25,106,36,19,00,000,34*73
$GPGSV,2,2,06,24,43,270,36,28,42,055,48,,,,,,,,*7E
{"class":"SKY","xdop":1.01,"ydop":2.08,"vdop":3.25,"tdop":2.43,"hdop":2.25,"gdop":4.75,"pdop":4.00,"satellites":[{"PRN":13,"el":0.0,"az":0.0,"ss":39.0,"used":false,"gnssid":0,"svid":13},{"PRN":15,"el":76.0,"az":248.0,"ss":44.0,"used":true,"gnssid":0,"svid":15},{"PRN":17,"el":25.0,"az":106.0,"ss":36.0,"used":true,"gnssid":0,"svid":17},{"PRN":19,"el":0.0,"az":0.0,"ss":34.0,"used":false,"gnssid":0,"svid":19},{"PRN":24,"el":43.0,"az":270.0,"ss":36.0,"used":true,"gnssid":0,"svid":24},{"PRN":28,"el":42.0,"az":55.0,"ss":48.0,"used":true,"gnssid":0,"svid":28}]}
$GPRMC,105153.71,A,5050.4122,N,00420.8266,E,0.14,303.60,120319,,,A*59
{"class":"TPV","mode":3,"time":"2019-03-12T10:51:53.710Z","ept":0.005,"lat":50.840203333,"lon":4.347110000,"altHAE":155.230,"altMSL":109.440,"epx":15.076,"epy":31.255,"epv":74.750,"track":303.6000,"magtrack":304.9513,"magvar":1.4,"speed":0.072,"geoidSep":45.790,"eph":42.750,"sep":76.000}
$GPVTG,303.60,T,,M,0.14,N,0.26,K,A*3A
$GPGGA,105153.408,5050.4122,N,00420.8265,E,1,04,2.25,109.0,M,,M,,0000*7E
$GPGLL,5050.4122,N,00420.8265,E,105153.408,A,A*5C
$GPGSA,A,3,13,15,17,19,,,,,,,,,4.00,2.25,3.25*0F
$GPGSV,2,1,06,13,,,39,15,74,248,44,17,24,106,35,19,,,33*74
$GPGSV,2,2,06,24,42,269,35,28,40,055,47*79
{"class":"SKY","vdop":3.25,"hdop":2.25,"pdop":4.00,"satellites":[{"PRN":13,"el":0.0,"az":0.0,"ss":39.0,"used":true,"gnssid":0,"svid":13},{"PRN":15,"el":74.0,"az":248.0,"ss":44.0,"used":true,"gnssid":0,"svid":15},{"PRN":17,"el":24.0,"az":106.0,"ss":35.0,"used":true,"gnssid":0,"svid":17},{"PRN":19,"el":0.0,"az":0.0,"ss":33.0,"used":true,"gnssid":0,"svid":19},{"PRN":24,"el":42.0,"az":269.0,"ss":35.0,"used":false,"gnssid":0,"svid":24},{"PRN":28,"el":40.0,"az":55.0,"ss":47.0,"used":false,"gnssid":0,"svid":28}]}
$GPRMC,105153.408,A,5050.4122,N,00420.8265,E,0.13,303.60,120319,,,A*67
{"class":"TPV","mode":3,"time":"2019-03-12T10:51:53.408Z","ept":0.005,"lat":50.840203333,"lon":4.347108333,"altHAE":154.790,"altMSL":109.000,"epx":15.076,"epy":31.255,"epv":74.750,"track":303.6000,"magtrack":304.9513,"magvar":1.4,"speed":0.067,"geoidSep":45.790,"eph":42.750,"sep":76.000}
$GPVTG,303.60,T,,M,0.13,N,0.25,K,A*3E
$GPGGA,105154.408,5050.4121,N,00420.8268,E,1,04,2.25,109.0,M,,M,,0000*77
$GPGLL,5050.4121,N,00420.8268,E,105154.408,A,A*55
$GPGSA,A,3,13,15,17,19,,,,,,,,,4.00,2.25,3.25*0F
$GPGSV,2,1,06,13,,,39,15,74,248,44,17,24,106,35,19,,,33*74
$GPGSV,2,2,06,24,42,269,35,28,40,055,47*79
{"class":"SKY","vdop":3.25,"hdop":2.25,"pdop":4.00,"satellites":[{"PRN":13,"el":0.0,"az":0.0,"ss":39.0,"used":true,"gnssid":0,"svid":13},{"PRN":15,"el":74.0,"az":248.0,"ss":44.0,"used":true,"gnssid":0,"svid":15},{"PRN":17,"el":24.0,"az":106.0,"ss":35.0,"used":true,"gnssid":0,"svid":17},{"PRN":19,"el":0.0,"az":0.0,"ss":33.0,"used":true,"gnssid":0,"svid":19},{"PRN":24,"el":42.0,"az":269.0,"ss":35.0,"used":false,"gnssid":0,"svid":24},{"PRN":28,"el":40.0,"az":55.0,"ss":47.0,"used":false,"gnssid":0,"svid":28}]}
$GPRMC,105154.408,A,5050.4121,N,00420.8268,E,0.30,348.36,120319,,,A*63
{"class":"TPV","mode":3,"time":"2019-03-12T10:51:54.408Z","ept":0.005,"lat":50.840201667,"lon":4.347113333,"altHAE":154.790,"altMSL":109.000,"epv":74.750,"track":348.3600,"magtrack":349.7113,"magvar":1.4,"speed":0.154,"climb":0.000,"epc":149.50,"geoidSep":45.790,"eph":42.750,"sep":76.000}
$GPVTG,348.36,T,,M,0.30,N,0.55,K,A*34
$GPGGA,105156.408,5050.4112,N,00420.8262,E,1,04,2.00,109.0,M,,M,,0000*78
$GPGLL,5050.4112,N,00420.8262,E,105156.408,A,A*5D
$GPGSA,A,3,13,15,17,19,,,,,,,,,2.25,2.00,0.75*0F
$GPGSV,2,1,06,13,,,39,15,74,248,44,17,24,106,35,19,,,33*74
$GPGSV,2,2,06,24,42,269,35,28,40,055,47*79
{"class":"SKY","vdop":0.75,"hdop":2.00,"pdop":2.25,"satellites":[{"PRN":13,"el":0.0,"az":0.0,"ss":39.0,"used":true,"gnssid":0,"svid":13},{"PRN":15,"el":74.0,"az":248.0,"ss":44.0,"used":true,"gnssid":0,"svid":15},{"PRN":17,"el":24.0,"az":106.0,"ss":35.0,"used":true,"gnssid":0,"svid":17},{"PRN":19,"el":0.0,"az":0.0,"ss":33.0,"used":true,"gnssid":0,"svid":19},{"PRN":24,"el":42.0,"az":269.0,"ss":35.0,"used":false,"gnssid":0,"svid":24},{"PRN":28,"el":40.0,"az":55.0,"ss":47.0,"used":false,"gnssid":0,"svid":28}]}
$GPRMC,105156.408,A,5050.4112,N,00420.8262,E,0.09,0.90,120319,,,A*62
{"class":"TPV","mode":3,"time":"2019-03-12T10:51:56.408Z","ept":0.005,"lat":50.840186667,"lon":4.347103333,"altHAE":154.790,"altMSL":109.000,"epv":74.750,"track":0.9000,"magtrack":2.2513,"magvar":1.4,"speed":0.046,"climb":0.000,"epc":74.75,"geoidSep":45.790,"eph":38.000,"sep":76.000}
$GPVTG,0.90,T,,M,0.09,N,0.17,K,A*3B
$GPGGA,105157.408,5050.4111,N,00420.8261,E,1,04,2.00,109.0,M,,M,,0000*79
$GPGLL,5050.4111,N,00420.8261,E,105157.408,A,A*5C
$GPGSA,A,3,13,15,17,19,,,,,,,,,2.25,2.00,0.75*0F
$GPGSV,2,1,06,13,,,39,15,74,248,43,17,24,106,35,19,,,33*73
$GPGSV,2,2,06,24,42,269,34,28,40,055,47*78
{"class":"SKY","vdop":0.75,"hdop":2.00,"pdop":2.25,"satellites":[{"PRN":13,"el":0.0,"az":0.0,"ss":39.0,"used":true,"gnssid":0,"svid":13},{"PRN":15,"el":74.0,"az":248.0,"ss":43.0,"used":true,"gnssid":0,"svid":15},{"PRN":17,"el":24.0,"az":106.0,"ss":35.0,"used":true,"gnssid":0,"svid":17},{"PRN":19,"el":0.0,"az":0.0,"ss":33.0,"used":true,"gnssid":0,"svid":19},{"PRN":24,"el":42.0,"az":269.0,"ss":34.0,"used":false,"gnssid":0,"svid":24},{"PRN":28,"el":40.0,"az":55.0,"ss":47.0,"used":false,"gnssid":0,"svid":28}]}
$GPRMC,105157.408,A,5050.4111,N,00420.8261,E,0.06,1.79,120319,,,A*6A
{"class":"TPV","mode":3,"time":"2019-03-12T10:51:57.408Z","ept":0.005,"lat":50.840185000,"lon":4.347101667,"altHAE":154.790,"altMSL":109.000,"epv":17.250,"track":1.7900,"magtrack":3.1413,"magvar":1.4,"speed":0.031,"climb":0.000,"epc":92.00,"geoidSep":45.790,"eph":38.000,"sep":42.750}
$GPVTG,1.79,T,,M,0.06,N,0.11,K,A*34
$GPGGA,105158.408,5050.4111,N,00420.8261,E,1,04,2.00,109.0,M,,M,,0000*76
$GPGLL,5050.4111,N,00420.8261,E,105158.408,A,A*53
$GPGSA,A,3,13,15,17,19,,,,,,,,,2.25,2.00,0.75*0F
$GPGSV,2,1,06,13,,,39,15,74,248,43,17,24,106,35,19,,,33*73
$GPGSV,2,2,06,24,42,269,33,28,40,055,47*7F
{"class":"SKY","vdop":0.75,"hdop":2.00,"pdop":2.25,"satellites":[{"PRN":13,"el":0.0,"az":0.0,"ss":39.0,"used":true,"gnssid":0,"svid":13},{"PRN":15,"el":74.0,"az":248.0,"ss":43.0,"used":true,"gnssid":0,"svid":15},{"PRN":17,"el":24.0,"az":106.0,"ss":35.0,"used":true,"gnssid":0,"svid":17},{"PRN":19,"el":0.0,"az":0.0,"ss":33.0,"used":true,"gnssid":0,"svid":19},{"PRN":24,"el":42.0,"az":269.0,"ss":33.0,"used":false,"gnssid":0,"svid":24},{"PRN":28,"el":40.0,"az":55.0,"ss":47.0,"used":false,"gnssid":0,"svid":28}]}
$GPRMC,105158.408,A,5050.4111,N,00420.8261,E,0.02,24.17,120319,,,A*5E
{"class":"TPV","mode":3,"time":"2019-03-12T10:51:58.408Z","ept":0.005,"lat":50.840185000,"lon":4.347101667,"altHAE":154.790,"altMSL":109.000,"epv":17.250,"track":24.1700,"magtrack":25.5213,"magvar":1.4,"speed":0.010,"climb":0.000,"epc":34.50,"geoidSep":45.790,"eph":38.000,"sep":42.750}
$GPVTG,24.17,T,,M,0.02,N,0.03,K,A*0C
$GPGGA,105159.408,5050.4111,N,00420.8261,E,1,04,2.00,109.0,M,,M,,0000*77
$GPGLL,5050.4111,N,00420.8261,E,105159.408,A,A*52
$GPGSA,A,3,13,15,17,19,,,,,,,,,2.25,2.00,0.75*0F
$GPGSV,2,1,06,13,,,39,15,74,248,43,17,24,106,35,19,,,33*73
$GPGSV,2,2,06,24,42,269,33,28,40,055,47*7F
{"class":"SKY","vdop":0.75,"hdop":2.00,"pdop":2.25,"satellites":[{"PRN":13,"el":0.0,"az":0.0,"ss":39.0,"used":true,"gnssid":0,"svid":13},{"PRN":15,"el":74.0,"az":248.0,"ss":43.0,"used":true,"gnssid":0,"svid":15},{"PRN":17,"el":24.0,"az":106.0,"ss":35.0,"used":true,"gnssid":0,"svid":17},{"PRN":19,"el":0.0,"az":0.0,"ss":33.0,"used":true,"gnssid":0,"svid":19},{"PRN":24,"el":42.0,"az":269.0,"ss":33.0,"used":false,"gnssid":0,"svid":24},{"PRN":28,"el":40.0,"az":55.0,"ss":47.0,"used":false,"gnssid":0,"svid":28}]}
$GPRMC,105159.408,A,5050.4111,N,00420.8261,E,0.02,17.90,120319,,,A*50
{"class":"TPV","mode":3,"time":"2019-03-12T10:51:59.408Z","ept":0.005,"lat":50.840185000,"lon":4.347101667,"altHAE":154.790,"altMSL":109.000,"epv":17.250,"track":17.9000,"magtrack":19.2513,"magvar":1.4,"speed":0.010,"climb":0.000,"epc":34.50,"geoidSep":45.790,"eph":38.000,"sep":42.750}
$GPVTG,17.90,T,,M,0.02,N,0.04,K,A*04
$GPGGA,105200.408,5050.4111,N,00420.8261,E,1,04,2.00,109.0,M,,M,,0000*78
$GPGLL,5050.4111,N,00420.8261,E,105200.408,A,A*5D
$GPGSA,A,3,13,15,17,19,,,,,,,,,2.25,2.00,0.75*0F
$GPGSV,2,1,06,13,,,39,15,74,248,43,17,24,106,35,19,,,33*73
$GPGSV,2,2,06,24,42,269,33,28,40,055,47*7F
{"class":"SKY","vdop":0.75,"hdop":2.00,"pdop":2.25,"satellites":[{"PRN":13,"el":0.0,"az":0.0,"ss":39.0,"used":true,"gnssid":0,"svid":13},{"PRN":15,"el":74.0,"az":248.0,"ss":43.0,"used":true,"gnssid":0,"svid":15},{"PRN":17,"el":24.0,"az":106.0,"ss":35.0,"used":true,"gnssid":0,"svid":17},{"PRN":19,"el":0.0,"az":0.0,"ss":33.0,"used":true,"gnssid":0,"svid":19},{"PRN":24,"el":42.0,"az":269.0,"ss":33.0,"used":false,"gnssid":0,"svid":24},{"PRN":28,"el":40.0,"az":55.0,"ss":47.0,"used":false,"gnssid":0,"svid":28}]}
$GPRMC,105200.408,A,5050.4111,N,00420.8261,E,0.02,99.37,120319,,,A*54
{"class":"TPV","mode":3,"time":"2019-03-12T10:52:00.408Z","ept":0.005,"lat":50.840185000,"lon":4.347101667,"altHAE":154.790,"altMSL":109.000,"epv":17.250,"track":99.3700,"magtrack":100.7213,"magvar":1.4,"speed":0.010,"climb":0.000,"epc":34.50,"geoidSep":45.790,"eph":38.000,"sep":42.750}
$GPVTG,99.37,T,,M,0.02,N,0.04,K,A*0F
$GPGGA,105201.408,5050.4111,N,00420.8261,E,1,04,2.00,109.0,M,,M,,0000*79
$GPGLL,5050.4111,N,00420.8261,E,105201.408,A,A*5C
$GPGSA,A,3,13,15,17,19,,,,,,,,,2.25,2.00,0.75*0F
$GPGSV,2,1,06,13,,,39,15,74,248,44,17,24,106,35,19,,,33*74
$GPGSV,2,2,06,24,42,269,32,28,40,055,47*7E
{"class":"SKY","vdop":0.75,"hdop":2.00,"pdop":2.25,"satellites":[{"PRN":13,"el":0.0,"az":0.0,"ss":39.0,"used":true,"gnssid":0,"svid":13},{"PRN":15,"el":74.0,"az":248.0,"ss":44.0,"used":true,"gnssid":0,"svid":15},{"PRN":17,"el":24.0,"az":106.0,"ss":35.0,"used":true,"gnssid":0,"svid":17},{"PRN":19,"el":0.0,"az":0.0,"ss":33.0,"used":true,"gnssid":0,"svid":19},{"PRN":24,"el":42.0,"az":269.0,"ss":32.0,"used":false,"gnssid":0,"svid":24},{"PRN":28,"el":40.0,"az":55.0,"ss":47.0,"used":false,"gnssid":0,"svid":28}]}
$GPRMC,105201.408,A,5050.4111,N,00420.8261,E,0.02,104.74,120319,,,A*67
{"class":"TPV","mode":3,"time":"2019-03-12T10:52:01.408Z","ept":0.005,"lat":50.840185000,"lon":4.347101667,"altHAE":154.790,"altMSL":109.000,"epv":17.250,"track":104.7400,"magtrack":106.0913,"magvar":1.4,"speed":0.010,"climb":0.000,"epc":34.50,"geoidSep":45.790,"eph":38.000,"sep":42.750}
$GPVTG,104.74,T,,M,0.02,N,0.04,K,A*3D
$GPGGA,105202.408,5050.4111,N,00420.8261,E,1,04,2.00,109.0,M,,M,,0000*7A
$GPGLL,5050.4111,N,00420.8261,E,105202.408,A,A*5F
$GPGSA,A,3,13,15,17,19,,,,,,,,,2.25,2.00,0.75*0F
$GPGSV,2,1,06,13,,,39,15,74,248,43,17,24,106,35,19,,,33*73
$GPGSV,2,2,06,24,42,269,33,28,40,055,47*7F
{"class":"SKY","vdop":0.75,"hdop":2.00,"pdop":2.25,"satellites":[{"PRN":13,"el":0.0,"az":0.0,"ss":39.0,"used":true,"gnssid":0,"svid":13},{"PRN":15,"el":74.0,"az":248.0,"ss":43.0,"used":true,"gnssid":0,"svid":15},{"PRN":17,"el":24.0,"az":106.0,"ss":35.0,"used":true,"gnssid":0,"svid":17},{"PRN":19,"el":0.0,"az":0.0,"ss":33.0,"used":true,"gnssid":0,"svid":19},{"PRN":24,"el":42.0,"az":269.0,"ss":33.0,"used":false,"gnssid":0,"svid":24},{"PRN":28,"el":40.0,"az":55.0,"ss":47.0,"used":false,"gnssid":0,"svid":28}]}
$GPRMC,105202.408,A,5050.4111,N,00420.8261,E,0.03,97.58,120319,,,A*50
{"class":"TPV","mode":3,"time":"2019-03-12T10:52:02.408Z","ept":0.005,"lat":50.840185000,"lon":4.347101667,"altHAE":154.790,"altMSL":109.000,"epv":17.250,"track":97.5800,"magtrack":98.9313,"magvar":1.4,"speed":0.015,"climb":0.000,"epc":34.50,"geoidSep":45.790,"eph":38.000,"sep":42.750}
$GPVTG,97.58,T,,M,0.03,N,0.05,K,A*08
$GPGGA,105203.408,5050.4111,N,00420.8261,E,1,04,2.00,109.0,M,,M,,0000*7B
$GPGLL,5050.4111,N,00420.8261,E,105203.408,A,A*5E
$GPGSA,A,3,13,15,17,19,,,,,,,,,2.25,2.00,0.75*0F
$GPGSV,2,1,06,13,,,39,15,74,248,44,17,24,106,35,19,,,33*74
$GPGSV,2,2,06,24,42,269,32,28,40,055,47*7E
{"class":"SKY","vdop":0.75,"hdop":2.00,"pdop":2.25,"satellites":[{"PRN":13,"el":0.0,"az":0.0,"ss":39.0,"used":true,"gnssid":0,"svid":13},{"PRN":15,"el":74.0,"az":248.0,"ss":44.0,"used":true,"gnssid":0,"svid":15},{"PRN":17,"el":24.0,"az":106.0,"ss":35.0,"used":true,"gnssid":0,"svid":17},{"PRN":19,"el":0.0,"az":0.0,"ss":33.0,"used":true,"gnssid":0,"svid":19},{"PRN":24,"el":42.0,"az":269.0,"ss":32.0,"used":false,"gnssid":0,"svid":24},{"PRN":28,"el":40.0,"az":55.0,"ss":47.0,"used":false,"gnssid":0,"svid":28}]}
$GPRMC,105203.408,A,5050.4111,N,00420.8261,E,0.01,0.0,120319,,,A*50
{"class":"TPV","mode":3,"time":"2019-03-12T10:52:03.408Z","ept":0.005,"lat":50.840185000,"lon":4.347101667,"altHAE":154.790,"altMSL":109.000,"epv":17.250,"track":0.0000,"magtrack":1.3513,"magvar":1.4,"speed":0.005,"climb":0.000,"epc":34.50,"geoidSep":45.790,"eph":38.000,"sep":42.750}
$GPVTG,0.0,T,,M,0.01,N,0.02,K,A*0E
$GPGGA,105204.408,5050.4111,N,00420.8261,E,1,04,2.00,109.0,M,,M,,0000*7C
$GPGLL,5050.4111,N,00420.8261,E,105204.408,A,A*59
$GPGSA,A,3,13,15,17,19,,,,,,,,,2.25,2.00,0.75*0F
$GPGSV,2,1,06,13,,,39,15,74,248,44,17,24,106,35,19,,,33*74
$GPGSV,2,2,06,24,42,269,32,28,40,055,47*7E
{"class":"SKY","vdop":0.75,"hdop":2.00,"pdop":2.25,"satellites":[{"PRN":13,"el":0.0,"az":0.0,"ss":39.0,"used":true,"gnssid":0,"svid":13},{"PRN":15,"el":74.0,"az":248.0,"ss":44.0,"used":true,"gnssid":0,"svid":15},{"PRN":17,"el":24.0,"az":106.0,"ss":35.0,"used":true,"gnssid":0,"svid":17},{"PRN":19,"el":0.0,"az":0.0,"ss":33.0,"used":true,"gnssid":0,"svid":19},{"PRN":24,"el":42.0,"az":269.0,"ss":32.0,"used":false,"gnssid":0,"svid":24},{"PRN":28,"el":40.0,"az":55.0,"ss":47.0,"used":false,"gnssid":0,"svid":28}]}
$GPRMC,105204.408,A,5050.4111,N,00420.8261,E,0.00,0.0,120319,,,A*56
{"class":"TPV","mode":3,"time":"2019-03-12T10:52:04.408Z","ept":0.005,"lat":50.840185000,"lon":4.347101667,"altHAE":154.790,"altMSL":109.000,"epv":17.250,"track":0.0000,"magtrack":1.3513,"magvar":1.4,"speed":0.000,"climb":0.000,"epc":34.50,"geoidSep":45.790,"eph":38.000,"sep":42.750}
$GPVTG,0.0,T,,M,0.00,N,0.01,K,A*0C
$GPGGA,105205.408,5050.4111,N,00420.8261,E,1,05,1.75,109.0,M,,M,,0000*7D
$GPGLL,5050.4111,N,00420.8261,E,105205.408,A,A*58
$GPGSA,A,3,13,15,17,19,24,,,,,,,,3.25,1.75,2.50*0C
$GPGSV,2,1,06,13,60,135,40,15,74,248,44,17,24,106,35,19,,,33*4B
$GPGSV,2,2,06,24,42,269,32,28,40,055,47*7E
{"class":"SKY","xdop":1.23,"ydop":2.26,"vdop":2.50,"tdop":2.04,"hdop":1.75,"gdop":4.56,"pdop":3.25,"satellites":[{"PRN":13,"el":60.0,"az":135.0,"ss":40.0,"used":true,"gnssid":0,"svid":13},{"PRN":15,"el":74.0,"az":248.0,"ss":44.0,"used":true,"gnssid":0,"svid":15},{"PRN":17,"el":24.0,"az":106.0,"ss":35.0,"used":true,"gnssid":0,"svid":17},{"PRN":19,"el":0.0,"az":0.0,"ss":33.0,"used":true,"gnssid":0,"svid":19},{"PRN":24,"el":42.0,"az":269.0,"ss":32.0,"used":true,"gnssid":0,"svid":24},{"PRN":28,"el":40.0,"az":55.0,"ss":47.0,"used":false,"gnssid":0,"svid":28}]}
$GPRMC,105205.408,A,5050.4111,N,00420.8261,E,0.00,0.0,120319,,,A*57
{"class":"TPV","mode":3,"time":"2019-03-12T10:52:05.408Z","ept":0.005,"lat":50.840185000,"lon":4.347101667,"altHAE":154.790,"altMSL":109.000,"epx":18.415,"epy":33.968,"epv":17.250,"track":0.0000,"magtrack":1.3513,"magvar":1.4,"speed":0.000,"climb":0.000,"epc":34.50,"geoidSep":45.790,"eph":33.250,"sep":42.750}
$GPVTG,0.0,T,,M,0.00,N,0.00,K,A*0D
$GPGGA,105206.408,5050.4111,N,00420.8261,E,1,05,1.75,109.0,M,,M,,0000*7E
$GPGLL,5050.4111,N,00420.8261,E,105206.408,A,A*5B
$GPGSA,A,3,13,15,17,19,24,,,,,,,,3.25,1.75,2.50*0C
$GPGSV,2,1,06,13,60,135,38,15,74,248,44,17,24,106,35,19,,,33*44
$GPGSV,2,2,06,24,42,269,32,28,40,055,47*7E
{"class":"SKY","xdop":1.23,"ydop":2.26,"vdop":2.50,"tdop":2.04,"hdop":1.75,"gdop":4.56,"pdop":3.25,"satellites":[{"PRN":13,"el":60.0,"az":135.0,"ss":38.0,"used":true,"gnssid":0,"svid":13},{"PRN":15,"el":74.0,"az":248.0,"ss":44.0,"used":true,"gnssid":0,"svid":15},{"PRN":17,"el":24.0,"az":106.0,"ss":35.0,"used":true,"gnssid":0,"svid":17},{"PRN":19,"el":0.0,"az":0.0,"ss":33.0,"used":true,"gnssid":0,"svid":19},{"PRN":24,"el":42.0,"az":269.0,"ss":32.0,"used":true,"gnssid":0,"svid":24},{"PRN":28,"el":40.0,"az":55.0,"ss":47.0,"used":false,"gnssid":0,"svid":28}]}
$GPRMC,105206.408,A,5050.4111,N,00420.8261,E,0.01,0.0,120319,,,A*55
{"class":"TPV","mode":3,"time":"2019-03-12T10:52:06.408Z","ept":0.005,"lat":50.840185000,"lon":4.347101667,"altHAE":154.790,"altMSL":109.000,"epx":18.415,"epy":33.968,"epv":57.500,"track":0.0000,"magtrack":1.3513,"magvar":1.4,"speed":0.005,"climb":0.000,"eps":67.94,"epc":74.75,"geoidSep":45.790,"eph":33.250,"sep":61.750}
$GPVTG,0.0,T,,M,0.01,N,0.02,K,A*0E
$GPGGA,105207.408,5050.4111,N,00420.8261,E,1,05,1.75,109.0,M,,M,,0000*7F
$GPGLL,5050.4111,N,00420.8261,E,105207.408,A,A*5A
$GPGSA,A,3,13,15,17,19,24,,,,,,,,3.25,1.75,2.50*0C
$GPGSV,2,1,06,13,60,135,38,15,74,248,44,17,24,106,35,19,,,33*44
$GPGSV,2,2,06,24,42,269,33,28,40,055,47*7F
{"class":"SKY","xdop":1.23,"ydop":2.26,"vdop":2.50,"tdop":2.04,"hdop":1.75,"gdop":4.56,"pdop":3.25,"satellites":[{"PRN":13,"el":60.0,"az":135.0,"ss":38.0,"used":true,"gnssid":0,"svid":13},{"PRN":15,"el":74.0,"az":248.0,"ss":44.0,"used":true,"gnssid":0,"svid":15},{"PRN":17,"el":24.0,"az":106.0,"ss":35.0,"used":true,"gnssid":0,"svid":17},{"PRN":19,"el":0.0,"az":0.0,"ss":33.0,"used":true,"gnssid":0,"svid":19},{"PRN":24,"el":42.0,"az":269.0,"ss":33.0,"used":true,"gnssid":0,"svid":24},{"PRN":28,"el":40.0,"az":55.0,"ss":47.0,"used":false,"gnssid":0,"svid":28}]}
$GPRMC,105207.408,A,5050.4111,N,00420.8261,E,0.01,0.0,120319,,,A*54
{"class":"TPV","mode":3,"time":"2019-03-12T10:52:07.408Z","ept":0.005,"lat":50.840185000,"lon":4.347101667,"altHAE":154.790,"altMSL":109.000,"epx":18.415,"epy":33.968,"epv":57.500,"track":0.0000,"magtrack":1.3513,"magvar":1.4,"speed":0.005,"climb":0.000,"eps":67.94,"epc":115.00,"geoidSep":45.790,"eph":33.250,"sep":61.750}
$GPVTG,0.0,T,,M,0.01,N,0.02,K,A*0E
$GPGGA,105208.408,5050.4111,N,00420.8261,E,1,05,1.75,109.0,M,,M,,0000*70
$GPGLL,5050.4111,N,00420.8261,E,105208.408,A,A*55
$GPGSA,A,3,13,15,17,19,24,,,,,,,,3.25,1.75,2.50*0C
$GPGSV,2,1,06,13,60,135,38,15,74,248,44,17,24,106,35,19,,,33*44
$GPGSV,2,2,06,24,42,269,32,28,40,055,47*7E
{"class":"SKY","xdop":1.23,"ydop":2.26,"vdop":2.50,"tdop":2.04,"hdop":1.75,"gdop":4.56,"pdop":3.25,"satellites":[{"PRN":13,"el":60.0,"az":135.0,"ss":38.0,"used":true,"gnssid":0,"svid":13},{"PRN":15,"el":74.0,"az":248.0,"ss":44.0,"used":true,"gnssid":0,"svid":15},{"PRN":17,"el":24.0,"az":106.0,"ss":35.0,"used":true,"gnssid":0,"svid":17},{"PRN":19,"el":0.0,"az":0.0,"ss":33.0,"used":true,"gnssid":0,"svid":19},{"PRN":24,"el":42.0,"az":269.0,"ss":32.0,"used":true,"gnssid":0,"svid":24},{"PRN":28,"el":40.0,"az":55.0,"ss":47.0,"used":false,"gnssid":0,"svid":28}]}
$GPRMC,105208.408,A,5050.4111,N,00420.8261,E,0.01,352.84,120319,,,A*63
{"class":"TPV","mode":3,"time":"2019-03-12T10:52:08.408Z","ept":0.005,"lat":50.840185000,"lon":4.347101667,"altHAE":154.790,"altMSL":109.000,"epx":18.415,"epy":33.968,"epv":57.500,"track":352.8400,"magtrack":354.1913,"magvar":1.4,"speed":0.005,"climb":0.000,"eps":67.94,"epc":115.00,"geoidSep":45.790,"eph":33.250,"sep":61.750}
$GPVTG,352.84,T,,M,0.01,N,0.02,K,A*36
$GPGGA,105209.408,5050.4111,N,00420.8261,E,1,05,1.75,109.0,M,,M,,0000*71
$GPGLL,5050.4111,N,00420.8261,E,105209.408,A,A*54
$GPGSA,A,3,13,15,17,19,24,,,,,,,,3.25,1.75,2.50*0C
$GPGSV,2,1,06,13,60,135,38,15,74,248,44,17,24,106,35,19,,,33*44
$GPGSV,2,2,06,24,42,269,32,28,40,055,47*7E
{"class":"SKY","xdop":1.23,"ydop":2.26,"vdop":2.50,"tdop":2.04,"hdop":1.75,"gdop":4.56,"pdop":3.25,"satellites":[{"PRN":13,"el":60.0,"az":135.0,"ss":38.0,"used":true,"gnssid":0,"svid":13},{"PRN":15,"el":74.0,"az":248.0,"ss":44.0,"used":true,"gnssid":0,"svid":15},{"PRN":17,"el":24.0,"az":106.0,"ss":35.0,"used":true,"gnssid":0,"svid":17},{"PRN":19,"el":0.0,"az":0.0,"ss":33.0,"used":true,"gnssid":0,"svid":19},{"PRN":24,"el":42.0,"az":269.0,"ss":32.0,"used":true,"gnssid":0,"svid":24},{"PRN":28,"el":40.0,"az":55.0,"ss":47.0,"used":false,"gnssid":0,"svid":28}]}
$GPRMC,105209.408,A,5050.4111,N,00420.8261,E,0.02,21.49,120319,,,A*57
{"class":"TPV","mode":3,"time":"2019-03-12T10:52:09.408Z","ept":0.005,"lat":50.840185000,"lon":4.347101667,"altHAE":154.790,"altMSL":109.000,"epx":18.415,"epy":33.968,"epv":57.500,"track":21.4900,"magtrack":22.8413,"magvar":1.4,"speed":0.010,"climb":0.000,"eps":67.94,"epc":115.00,"geoidSep":45.790,"eph":33.250,"sep":61.750}
$GPVTG,21.49,T,,M,0.02,N,0.03,K,A*02
$GPGGA,105210.408,5050.4111,N,00420.8261,E,1,05,1.75,109.0,M,,M,,0000*79
$GPGLL,5050.4111,N,00420.8261,E,105210.408,A,A*5C
$GPGSA,A,3,13,15,17,19,24,,,,,,,,3.25,1.75,2.50*0C
$GPGSV,2,1,06,13,60,135,38,15,74,248,44,17,24,106,35,19,,,33*44
$GPGSV,2,2,06,24,42,269,32,28,40,055,47*7E
{"class":"SKY","xdop":1.23,"ydop":2.26,"vdop":2.50,"tdop":2.04,"hdop":1.75,"gdop":4.56,"pdop":3.25,"satellites":[{"PRN":13,"el":60.0,"az":135.0,"ss":38.0,"used":true,"gnssid":0,"svid":13},{"PRN":15,"el":74.0,"az":248.0,"ss":44.0,"used":true,"gnssid":0,"svid":15},{"PRN":17,"el":24.0,"az":106.0,"ss":35.0,"used":true,"gnssid":0,"svid":17},{"PRN":19,"el":0.0,"az":0.0,"ss":33.0,"used":true,"gnssid":0,"svid":19},{"PRN":24,"el":42.0,"az":269.0,"ss":32.0,"used":true,"gnssid":0,"svid":24},{"PRN":28,"el":40.0,"az":55.0,"ss":47.0,"used":false,"gnssid":0,"svid":28}]}
$GPRMC,105210.408,A,5050.4111,N,00420.8261,E,0.00,0.0,120319,,,A*53
{"class":"TPV","mode":3,"time":"2019-03-12T10:52:10.408Z","ept":0.005,"lat":50.840185000,"lon":4.347101667,"altHAE":154.790,"altMSL":109.000,"epx":18.415,"epy":33.968,"epv":57.500,"track":0.0000,"magtrack":1.3513,"magvar":1.4,"speed":0.000,"climb":0.000,"eps":67.94,"epc":115.00,"geoidSep":45.790,"eph":33.250,"sep":61.750}
$GPVTG,0.0,T,,M,0.00,N,0.01,K,A*0C
$GPGGA,105211.408,5050.4111,N,00420.8261,E,1,05,1.75,109.0,M,,M,,0000*78
$GPGLL,5050.4111,N,00420.8261,E,105211.408,A,A*5D
$GPGSA,A,3,13,15,17,19,24,,,,,,,,3.25,1.75,2.50*0C
$GPGSV,2,1,06,13,60,135,38,15,74,248,43,17,24,106,35,19,,,33*43
$GPGSV,2,2,06,24,42,269,32,28,40,055,47*7E
{"class":"SKY","xdop":1.23,"ydop":2.26,"vdop":2.50,"tdop":2.04,"hdop":1.75,"gdop":4.56,"pdop":3.25,"satellites":[{"PRN":13,"el":60.0,"az":135.0,"ss":38.0,"used":true,"gnssid":0,"svid":13},{"PRN":15,"el":74.0,"az":248.0,"ss":43.0,"used":true,"gnssid":0,"svid":15},{"PRN":17,"el":24.0,"az":106.0,"ss":35.0,"used":true,"gnssid":0,"svid":17},{"PRN":19,"el":0.0,"az":0.0,"ss":33.0,"used":true,"gnssid":0,"svid":19},{"PRN":24,"el":42.0,"az":269.0,"ss":32.0,"used":true,"gnssid":0,"svid":24},{"PRN":28,"el":40.0,"az":55.0,"ss":47.0,"used":false,"gnssid":0,"svid":28}]}
$GPRMC,105211.408,A,5050.4111,N,00420.8261,E,0.00,0.0,120319,,,A*52
{"class":"TPV","mode":3,"time":"2019-03-12T10:52:11.408Z","ept":0.005,"lat":50.840185000,"lon":4.347101667,"altHAE":154.790,"altMSL":109.000,"epx":18.415,"epy":33.968,"epv":57.500,"track":0.0000,"magtrack":1.3513,"magvar":1.4,"speed":0.000,"climb":0.000,"eps":67.94,"epc":115.00,"geoidSep":45.790,"eph":33.250,"sep":61.750}
$GPVTG,0.0,T,,M,0.00,N,0.00,K,A*0D
$GPGGA,105212.408,5050.4111,N,00420.8261,E,1,05,1.75,109.0,M,,M,,0000*7B
$GPGLL,5050.4111,N,00420.8261,E,105212.408,A,A*5E
$GPGSA,A,3,13,15,17,19,24,,,,,,,,3.25,1.75,2.50*0C
$GPGSV,2,1,06,13,60,135,38,15,74,248,43,17,24,106,36,19,,,33*40
$GPGSV,2,2,06,24,42,269,32,28,40,055,47*7E
{"class":"SKY","xdop":1.23,"ydop":2.26,"vdop":2.50,"tdop":2.04,"hdop":1.75,"gdop":4.56,"pdop":3.25,"satellites":[{"PRN":13,"el":60.0,"az":135.0,"ss":38.0,"used":true,"gnssid":0,"svid":13},{"PRN":15,"el":74.0,"az":248.0,"ss":43.0,"used":true,"gnssid":0,"svid":15},{"PRN":17,"el":24.0,"az":106.0,"ss":36.0,"used":true,"gnssid":0,"svid":17},{"PRN":19,"el":0.0,"az":0.0,"ss":33.0,"used":true,"gnssid":0,"svid":19},{"PRN":24,"el":42.0,"az":269.0,"ss":32.0,"used":true,"gnssid":0,"svid":24},{"PRN":28,"el":40.0,"az":55.0,"ss":47.0,"used":false,"gnssid":0,"svid":28}]}
$GPRMC,105212.408,A,5050.4111,N,00420.8261,E,0.03,325.98,120319,,,A*67
{"class":"TPV","mode":3,"time":"2019-03-12T10:52:12.408Z","ept":0.005,"lat":50.840185000,"lon":4.347101667,"altHAE":154.790,"altMSL":109.000,"epx":18.415,"epy":33.968,"epv":57.500,"track":325.9800,"magtrack":327.3313,"magvar":1.4,"speed":0.015,"climb":0.000,"eps":67.94,"epc":115.00,"geoidSep":45.790,"eph":33.250,"sep":61.750}
$GPVTG,325.98,T,,M,0.03,N,0.05,K,A*3E
$GPGGA,105213.408,5050.4111,N,00420.8261,E,1,05,1.75,109.0,M,,M,,0000*7A
$GPGLL,5050.4111,N,00420.8261,E,105213.408,A,A*5F
$GPGSA,A,3,13,15,17,19,24,,,,,,,,3.25,1.75,2.50*0C
$GPGSV,2,1,06,13,60,135,39,15,74,248,43,17,24,106,35,19,,,33*42
$GPGSV,2,2,06,24,42,269,32,28,40,055,47*7E
{"class":"SKY","xdop":1.23,"ydop":2.26,"vdop":2.50,"tdop":2.04,"hdop":1.75,"gdop":4.56,"pdop":3.25,"satellites":[{"PRN":13,"el":60.0,"az":135.0,"ss":39.0,"used":true,"gnssid":0,"svid":13},{"PRN":15,"el":74.0,"az":248.0,"ss":43.0,"used":true,"gnssid":0,"svid":15},{"PRN":17,"el":24.0,"az":106.0,"ss":35.0,"used":true,"gnssid":0,"svid":17},{"PRN":19,"el":0.0,"az":0.0,"ss":33.0,"used":true,"gnssid":0,"svid":19},{"PRN":24,"el":42.0,"az":269.0,"ss":32.0,"used":true,"gnssid":0,"svid":24},{"PRN":28,"el":40.0,"az":55.0,"ss":47.0,"used":false,"gnssid":0,"svid":28}]}
$GPRMC,105213.408,A,5050.4111,N,00420.8261,E,0.01,355.52,120319,,,A*65
{"class":"TPV","mode":3,"time":"2019-03-12T10:52:13.408Z","ept":0.005,"lat":50.840185000,"lon":4.347101667,"altHAE":154.790,"altMSL":109.000,"epx":18.415,"epy":33.968,"epv":57.500,"track":355.5200,"magtrack":356.8713,"magvar":1.4,"speed":0.005,"climb":0.000,"eps":67.94,"epc":115.00,"geoidSep":45.790,"eph":33.250,"sep":61.750}
$GPVTG,355.52,T,,M,0.01,N,0.03,K,A*3B
$GPGGA,105214.408,5050.4111,N,00420.8261,E,1,05,1.75,109.0,M,,M,,0000*7D
$GPGLL,5050.4111,N,00420.8261,E,105214.408,A,A*58
$GPGSA,A,3,13,15,17,19,24,,,,,,,,3.25,1.75,2.50*0C
$GPGSV,2,1,06,13,60,135,39,15,74,248,43,17,24,106,36,19,,,33*41
$GPGSV,2,2,06,24,42,269,32,28,40,055,47*7E
{"class":"SKY","xdop":1.23,"ydop":2.26,"vdop":2.50,"tdop":2.04,"hdop":1.75,"gdop":4.56,"pdop":3.25,"satellites":[{"PRN":13,"el":60.0,"az":135.0,"ss":39.0,"used":true,"gnssid":0,"svid":13},{"PRN":15,"el":74.0,"az":248.0,"ss":43.0,"used":true,"gnssid":0,"svid":15},{"PRN":17,"el":24.0,"az":106.0,"ss":36.0,"used":true,"gnssid":0,"svid":17},{"PRN":19,"el":0.0,"az":0.0,"ss":33.0,"used":true,"gnssid":0,"svid":19},{"PRN":24,"el":42.0,"az":269.0,"ss":32.0,"used":true,"gnssid":0,"svid":24},{"PRN":28,"el":40.0,"az":55.0,"ss":47.0,"used":false,"gnssid":0,"svid":28}]}
$GPRMC,105214.408,A,5050.4111,N,00420.8261,E,0.00,0.0,120319,,,A*57
{"class":"TPV","mode":3,"time":"2019-03-12T10:52:14.408Z","ept":0.005,"lat":50.840185000,"lon":4.347101667,"altHAE":154.790,"altMSL":109.000,"epx":18.415,"epy":33.968,"epv":57.500,"track":0.0000,"magtrack":1.3513,"magvar":1.4,"speed":0.000,"climb":0.000,"eps":67.94,"epc":115.00,"geoidSep":45.790,"eph":33.250,"sep":61.750}
$GPVTG,0.0,T,,M,0.00,N,0.01,K,A*0C
$GPGGA,105215.408,5050.4111,N,00420.8261,E,1,05,1.75,109.0,M,,M,,0000*7C
$GPGLL,5050.4111,N,00420.8261,E,105215.408,A,A*59
$GPGSA,A,3,13,15,17,19,24,,,,,,,,3.25,1.75,2.50*0C
$GPGSV,2,1,06,13,60,135,39,15,74,248,43,17,24,106,36,19,,,34*46
$GPGSV,2,2,06,24,42,269,32,28,40,055,47*7E
{"class":"SKY","xdop":1.23,"ydop":2.26,"vdop":2.50,"tdop":2.04,"hdop":1.75,"gdop":4.56,"pdop":3.25,"satellites":[{"PRN":13,"el":60.0,"az":135.0,"ss":39.0,"used":true,"gnssid":0,"svid":13},{"PRN":15,"el":74.0,"az":248.0,"ss":43.0,"used":true,"gnssid":0,"svid":15},{"PRN":17,"el":24.0,"az":106.0,"ss":36.0,"used":true,"gnssid":0,"svid":17},{"PRN":19,"el":0.0,"az":0.0,"ss":34.0,"used":true,"gnssid":0,"svid":19},{"PRN":24,"el":42.0,"az":269.0,"ss":32.0,"used":true,"gnssid":0,"svid":24},{"PRN":28,"el":40.0,"az":55.0,"ss":47.0,"used":false,"gnssid":0,"svid":28}]}
$GPRMC,105215.408,A,5050.4111,N,00420.8261,E,0.00,0.0,120319,,,A*56
{"class":"TPV","mode":3,"time":"2019-03-12T10:52:15.408Z","ept":0.005,"lat":50.840185000,"lon":4.347101667,"altHAE":154.790,"altMSL":109.000,"epx":18.415,"epy":33.968,"epv":57.500,"track":0.0000,"magtrack":1.3513,"magvar":1.4,"speed":0.000,"climb":0.000,"eps":67.94,"epc":115.00,"geoidSep":45.790,"eph":33.250,"sep":61.750}
$GPVTG,0.0,T,,M,0.00,N,0.00,K,A*0D
$GPGGA,105216.408,5050.4112,N,00420.8261,E,1,05,1.75,109.0,M,,M,,0000*7C
$GPGLL,5050.4112,N,00420.8261,E,105216.408,A,A*59
$GPGSA,A,3,13,15,17,19,24,,,,,,,,3.25,1.75,2.50*0C
$GPGSV,2,1,06,13,60,135,39,15,74,248,43,17,24,106,36,19,,,33*41
$GPGSV,2,2,06,24,42,269,33,28,40,055,47*7F
{"class":"SKY","xdop":1.23,"ydop":2.26,"vdop":2.50,"tdop":2.04,"hdop":1.75,"gdop":4.56,"pdop":3.25,"satellites":[{"PRN":13,"el":60.0,"az":135.0,"ss":39.0,"used":true,"gnssid":0,"svid":13},{"PRN":15,"el":74.0,"az":248.0,"ss":43.0,"used":true,"gnssid":0,"svid":15},{"PRN":17,"el":24.0,"az":106.0,"ss":36.0,"used":true,"gnssid":0,"svid":17},{"PRN":19,"el":0.0,"az":0.0,"ss":33.0,"used":true,"gnssid":0,"svid":19},{"PRN":24,"el":42.0,"az":269.0,"ss":33.0,"used":true,"gnssid":0,"svid":24},{"PRN":28,"el":40.0,"az":55.0,"ss":47.0,"used":false,"gnssid":0,"svid":28}]}
$GPRMC,105216.408,A,5050.4112,N,00420.8261,E,0.00,0.0,120319,,,A*56
{"class":"TPV","mode":3,"time":"2019-03-12T10:52:16.408Z","ept":0.005,"lat":50.840186667,"lon":4.347101667,"altHAE":154.790,"altMSL":109.000,"epx":18.415,"epy":33.968,"epv":57.500,"track":0.0000,"magtrack":1.3513,"magvar":1.4,"speed":0.000,"climb":-0.000,"eps":67.94,"epc":115.00,"geoidSep":45.790,"eph":33.250,"sep":61.750}
$GPVTG,0.0,T,,M,0.00,N,0.00,K,A*0D
$GPGGA,105217.408,5050.4112,N,00420.8261,E,1,05,1.75,109.0,M,,M,,0000*7D
$GPGLL,5050.4112,N,00420.8261,E,105217.408,A,A*58
$GPGSA,A,3,13,15,17,19,24,,,,,,,,3.25,1.75,2.50*0C
$GPGSV,2,1,06,13,60,135,39,15,74,248,43,17,24,106,36,19,,,33*41
$GPGSV,2,2,06,24,42,269,32,28,40,055,47*7E
{"class":"SKY","xdop":1.23,"ydop":2.26,"vdop":2.50,"tdop":2.04,"hdop":1.75,"gdop":4.56,"pdop":3.25,"satellites":[{"PRN":13,"el":60.0,"az":135.0,"ss":39.0,"used":true,"gnssid":0,"svid":13},{"PRN":15,"el":74.0,"az":248.0,"ss":43.0,"used":true,"gnssid":0,"svid":15},{"PRN":17,"el":24.0,"az":106.0,"ss":36.0,"used":true,"gnssid":0,"svid":17},{"PRN":19,"el":0.0,"az":0.0,"ss":33.0,"used":true,"gnssid":0,"svid":19},{"PRN":24,"el":42.0,"az":269.0,"ss":32.0,"used":true,"gnssid":0,"svid":24},{"PRN":28,"el":40.0,"az":55.0,"ss":47.0,"used":false,"gnssid":0,"svid":28}]}
$GPRMC,105217.408,A,5050.4112,N,00420.8261,E,0.00,0.0,120319,,,A*57
{"class":"TPV","mode":3,"time":"2019-03-12T10:52:17.408Z","ept":0.005,"lat":50.840186667,"lon":4.347101667,"altHAE":154.790,"altMSL":109.000,"epx":18.415,"epy":33.968,"epv":57.500,"track":0.0000,"magtrack":1.3513,"magvar":1.4,"speed":0.000,"climb":0.000,"eps":67.94,"epc":115.00,"geoidSep":45.790,"eph":33.250,"sep":61.750}
$GPVTG,0.0,T,,M,0.00,N,0.00,K,A*0D
$GPGGA,105218.408,5050.4112,N,00420.8261,E,1,05,1.75,109.0,M,,M,,0000*72
$GPGLL,5050.4112,N,00420.8261,E,105218.408,A,A*57
$GPGSA,A,3,13,15,17,19,24,,,,,,,,3.25,1.75,2.75*0B
$GPGSV,2,1,06,13,60,135,39,15,74,248,43,17,24,106,35,19,,,34*45
$GPGSV,2,2,06,24,42,269,32,28,40,055,47*7E
{"class":"SKY","xdop":1.23,"ydop":2.26,"vdop":2.75,"tdop":2.04,"hdop":1.75,"gdop":4.56,"pdop":3.25,"satellites":[{"PRN":13,"el":60.0,"az":135.0,"ss":39.0,"used":true,"gnssid":0,"svid":13},{"PRN":15,"el":74.0,"az":248.0,"ss":43.0,"used":true,"gnssid":0,"svid":15},{"PRN":17,"el":24.0,"az":106.0,"ss":35.0,"used":true,"gnssid":0,"svid":17},{"PRN":19,"el":0.0,"az":0.0,"ss":34.0,"used":true,"gnssid":0,"svid":19},{"PRN":24,"el":42.0,"az":269.0,"ss":32.0,"used":true,"gnssid":0,"svid":24},{"PRN":28,"el":40.0,"az":55.0,"ss":47.0,"used":false,"gnssid":0,"svid":28}]}
$GPRMC,105218.408,A,5050.4112,N,00420.8261,E,0.01,0.0,120319,,,A*59
{"class":"TPV","mode":3,"time":"2019-03-12T10:52:18.408Z","ept":0.005,"lat":50.840186667,"lon":4.347101667,"altHAE":154.790,"altMSL":109.000,"epx":18.415,"epy":33.968,"epv":57.500,"track":0.0000,"magtrack":1.3513,"magvar":1.4,"speed":0.005,"climb":0.000,"eps":67.94,"epc":115.00,"geoidSep":45.790,"eph":33.250,"sep":61.750}
$GPVTG,0.0,T,,M,0.01,N,0.02,K,A*0E
$GPGGA,105219.408,5050.4112,N,00420.8261,E,1,05,1.75,109.0,M,,M,,0000*73
$GPGLL,5050.4112,N,00420.8261,E,105219.408,A,A*56
$GPGSA,A,3,13,15,17,19,24,,,,,,,,3.25,1.75,2.75*0B
$GPGSV,2,1,06,13,60,135,39,15,74,248,43,17,24,106,35,19,,,33*42
$GPGSV,2,2,06,24,42,269,33,28,40,055,47*7F
{"class":"SKY","xdop":1.23,"ydop":2.26,"vdop":2.75,"tdop":2.04,"hdop":1.75,"gdop":4.56,"pdop":3.25,"satellites":[{"PRN":13,"el":60.0,"az":135.0,"ss":39.0,"used":true,"gnssid":0,"svid":13},{"PRN":15,"el":74.0,"az":248.0,"ss":43.0,"used":true,"gnssid":0,"svid":15},{"PRN":17,"el":24.0,"az":106.0,"ss":35.0,"used":true,"gnssid":0,"svid":17},{"PRN":19,"el":0.0,"az":0.0,"ss":33.0,"used":true,"gnssid":0,"svid":19},{"PRN":24,"el":42.0,"az":269.0,"ss":33.0,"used":true,"gnssid":0,"svid":24},{"PRN":28,"el":40.0,"az":55.0,"ss":47.0,"used":false,"gnssid":0,"svid":28}]}
$GPRMC,105219.408,A,5050.4112,N,00420.8261,E,0.00,0.0,120319,,,A*59
{"class":"TPV","mode":3,"time":"2019-03-12T10:52:19.408Z","ept":0.005,"lat":50.840186667,"lon":4.347101667,"altHAE":154.790,"altMSL":109.000,"epx":18.415,"epy":33.968,"epv":63.250,"track":0.0000,"magtrack":1.3513,"magvar":1.4,"speed":0.000,"climb":0.000,"eps":67.94,"epc":120.75,"geoidSep":45.790,"eph":33.250,"sep":61.750}
$GPVTG,0.0,T,,M,0.00,N,0.01,K,A*0C
$GPGGA,105220.408,5050.4112,N,00420.8261,E,1,05,1.75,109.0,M,,M,,0000*79
$GPGLL,5050.4112,N,00420.8261,E,105220.408,A,A*5C
$GPGSA,A,3,13,15,17,19,24,,,,,,,,3.25,1.75,2.75*0B
$GPGSV,2,1,06,13,60,135,39,15,74,248,43,17,24,106,35,19,,,33*42
$GPGSV,2,2,06,24,42,269,33,28,40,055,47*7F
{"class":"SKY","xdop":1.23,"ydop":2.26,"vdop":2.75,"tdop":2.04,"hdop":1.75,"gdop":4.56,"pdop":3.25,"satellites":[{"PRN":13,"el":60.0,"az":135.0,"ss":39.0,"used":true,"gnssid":0,"svid":13},{"PRN":15,"el":74.0,"az":248.0,"ss":43.0,"used":true,"gnssid":0,"svid":15},{"PRN":17,"el":24.0,"az":106.0,"ss":35.0,"used":true,"gnssid":0,"svid":17},{"PRN":19,"el":0.0,"az":0.0,"ss":33.0,"used":true,"gnssid":0,"svid":19},{"PRN":24,"el":42.0,"az":269.0,"ss":33.0,"used":true,"gnssid":0,"svid":24},{"PRN":28,"el":40.0,"az":55.0,"ss":47.0,"used":false,"gnssid":0,"svid":28}]}
$GPRMC,105220.408,A,5050.4112,N,00420.8261,E,0.01,0.0,120319,,,A*52
{"class":"TPV","mode":3,"time":"2019-03-12T10:52:20.408Z","ept":0.005,"lat":50.840186667,"lon":4.347101667,"altHAE":154.790,"altMSL":109.000,"epx":18.415,"epy":33.968,"epv":63.250,"track":0.0000,"magtrack":1.3513,"magvar":1.4,"speed":0.005,"climb":0.000,"eps":67.94,"epc":126.50,"geoidSep":45.790,"eph":33.250,"sep":61.750}
$GPVTG,0.0,T,,M,0.01,N,0.01,K,A*0D
$GPGGA,105221.408,5050.4112,N,00420.8261,E,1,05,1.75,109.0,M,,M,,0000*78
$GPGLL,5050.4112,N,00420.8261,E,105221.408,A,A*5D
$GPGSA,A,3,13,15,17,19,24,,,,,,,,3.25,1.75,2.75*0B
$GPGSV,2,1,06,13,60,135,39,15,74,248,43,17,24,106,35,19,,,33*42
$GPGSV,2,2,06,24,42,269,33,28,40,055,47*7F
{"class":"SKY","xdop":1.23,"ydop":2.26,"vdop":2.75,"tdop":2.04,"hdop":1.75,"gdop":4.56,"pdop":3.25,"satellites":[{"PRN":13,"el":60.0,"az":135.0,"ss":39.0,"used":true,"gnssid":0,"svid":13},{"PRN":15,"el":74.0,"az":248.0,"ss":43.0,"used":true,"gnssid":0,"svid":15},{"PRN":17,"el":24.0,"az":106.0,"ss":35.0,"used":true,"gnssid":0,"svid":17},{"PRN":19,"el":0.0,"az":0.0,"ss":33.0,"used":true,"gnssid":0,"svid":19},{"PRN":24,"el":42.0,"az":269.0,"ss":33.0,"used":true,"gnssid":0,"svid":24},{"PRN":28,"el":40.0,"az":55.0,"ss":47.0,"used":false,"gnssid":0,"svid":28}]}
$GPRMC,105221.408,A,5050.4112,N,00420.8261,E,0.03,334.93,120319,,,A*6F
{"class":"TPV","mode":3,"time":"2019-03-12T10:52:21.408Z","ept":0.005,"lat":50.840186667,"lon":4.347101667,"altHAE":154.790,"altMSL":109.000,"epx":18.415,"epy":33.968,"epv":63.250,"track":334.9300,"magtrack":336.2813,"magvar":1.4,"speed":0.015,"climb":0.000,"eps":67.94,"epc":126.50,"geoidSep":45.790,"eph":33.250,"sep":61.750}
$GPVTG,334.93,T,,M,0.03,N,0.06,K,A*36
$GPGGA,105222.408,5050.4112,N,00420.8261,E,1,05,1.75,109.0,M,,M,,0000*7B
$GPGLL,5050.4112,N,00420.8261,E,105222.408,A,A*5E
$GPGSA,A,3,13,15,17,19,24,,,,,,,,3.25,1.75,2.75*0B
$GPGSV,2,1,06,13,60,135,39,15,74,247,43,17,24,106,35,19,,,33*4D
$GPGSV,2,2,06,24,42,269,33,28,40,054,47*7E
{"class":"SKY","xdop":1.23,"ydop":2.27,"vdop":2.75,"tdop":2.05,"hdop":1.75,"gdop":4.58,"pdop":3.25,"satellites":[{"PRN":13,"el":60.0,"az":135.0,"ss":39.0,"used":true,"gnssid":0,"svid":13},{"PRN":15,"el":74.0,"az":247.0,"ss":43.0,"used":true,"gnssid":0,"svid":15},{"PRN":17,"el":24.0,"az":106.0,"ss":35.0,"used":true,"gnssid":0,"svid":17},{"PRN":19,"el":0.0,"az":0.0,"ss":33.0,"used":true,"gnssid":0,"svid":19},{"PRN":24,"el":42.0,"az":269.0,"ss":33.0,"used":true,"gnssid":0,"svid":24},{"PRN":28,"el":40.0,"az":54.0,"ss":47.0,"used":false,"gnssid":0,"svid":28}]}
$GPRMC,105222.408,A,5050.4112,N,00420.8261,E,0.02,342.10,120319,,,A*67
{"class":"TPV","mode":3,"time":"2019-03-12T10:52:22.408Z","ept":0.005,"lat":50.840186667,"lon":4.347101667,"altHAE":154.790,"altMSL":109.000,"epx":18.415,"epy":33.968,"epv":63.250,"track":342.1000,"magtrack":343.4513,"magvar":1.4,"speed":0.010,"climb":0.000,"eps":67.94,"epc":126.50,"geoidSep":45.790,"eph":33.250,"sep":61.750}
$GPVTG,342.10,T,,M,0.02,N,0.03,K,A*38
$GPGGA,105223.408,5050.4112,N,00420.8260,E,1,05,1.75,109.0,M,,M,,0000*7B
$GPGLL,5050.4112,N,00420.8260,E,105223.408,A,A*5E
$GPGSA,A,3,13,15,17,19,24,,,,,,,,3.25,1.75,2.75*0B
$GPGSV,2,1,06,13,60,135,38,15,74,247,43,17,24,106,35,19,,,33*4C
$GPGSV,2,2,06,24,42,269,33,28,40,054,47*7E
{"class":"SKY","xdop":1.23,"ydop":2.27,"vdop":2.75,"tdop":2.05,"hdop":1.75,"gdop":4.58,"pdop":3.25,"satellites":[{"PRN":13,"el":60.0,"az":135.0,"ss":38.0,"used":true,"gnssid":0,"svid":13},{"PRN":15,"el":74.0,"az":247.0,"ss":43.0,"used":true,"gnssid":0,"svid":15},{"PRN":17,"el":24.0,"az":106.0,"ss":35.0,"used":true,"gnssid":0,"svid":17},{"PRN":19,"el":0.0,"az":0.0,"ss":33.0,"used":true,"gnssid":0,"svid":19},{"PRN":24,"el":42.0,"az":269.0,"ss":33.0,"used":true,"gnssid":0,"svid":24},{"PRN":28,"el":40.0,"az":54.0,"ss":47.0,"used":false,"gnssid":0,"svid":28}]}
$GPRMC,105223.408,A,5050.4112,N,00420.8260,E,0.03,314.34,120319,,,A*63
{"class":"TPV","mode":3,"time":"2019-03-12T10:52:23.408Z","ept":0.005,"lat":50.840186667,"lon":4.347100000,"altHAE":154.790,"altMSL":109.000,"epx":18.438,"epy":34.100,"epv":63.250,"track":314.3400,"magtrack":315.6913,"magvar":1.4,"speed":0.015,"climb":-0.000,"eps":68.07,"epc":126.50,"geoidSep":45.790,"eph":33.250,"sep":61.750}
$GPVTG,314.34,T,,M,0.03,N,0.05,K,A*3A
$GPGGA,105224.408,5050.4112,N,00420.8260,E,1,05,1.75,109.0,M,,M,,0000*7C
$GPGLL,5050.4112,N,00420.8260,E,105224.408,A,A*59
$GPGSA,A,3,13,15,17,19,24,,,,,,,,3.25,1.75,2.75*0B
$GPGSV,2,1,06,13,60,135,38,15,74,247,43,17,24,106,35,19,,,33*4C
$GPGSV,2,2,06,24,42,269,33,28,40,054,47*7E
{"class":"SKY","xdop":1.23,"ydop":2.27,"vdop":2.75,"tdop":2.05,"hdop":1.75,"gdop":4.58,"pdop":3.25,"satellites":[{"PRN":13,"el":60.0,"az":135.0,"ss":38.0,"used":true,"gnssid":0,"svid":13},{"PRN":15,"el":74.0,"az":247.0,"ss":43.0,"used":true,"gnssid":0,"svid":15},{"PRN":17,"el":24.0,"az":106.0,"ss":35.0,"used":true,"gnssid":0,"svid":17},{"PRN":19,"el":0.0,"az":0.0,"ss":33.0,"used":true,"gnssid":0,"svid":19},{"PRN":24,"el":42.0,"az":269.0,"ss":33.0,"used":true,"gnssid":0,"svid":24},{"PRN":28,"el":40.0,"az":54.0,"ss":47.0,"used":false,"gnssid":0,"svid":28}]}
$GPRMC,105224.408,A,5050.4112,N,00420.8260,E,0.02,322.40,120319,,,A*63
{"class":"TPV","mode":3,"time":"2019-03-12T10:52:24.408Z","ept":0.005,"lat":50.840186667,"lon":4.347100000,"altHAE":154.790,"altMSL":109.000,"epx":18.438,"epy":34.100,"epv":63.250,"track":322.4000,"magtrack":323.7513,"magvar":1.4,"speed":0.010,"climb":0.000,"eps":68.20,"epc":126.50,"geoidSep":45.790,"eph":33.250,"sep":61.750}
$GPVTG,322.40,T,,M,0.02,N,0.04,K,A*3C
$GPGGA,105225.408,5050.4112,N,00420.8259,E,1,05,1.75,109.0,M,,M,,0000*77
$GPGLL,5050.4112,N,00420.8259,E,105225.408,A,A*52
$GPGSA,A,3,13,15,17,19,24,,,,,,,,3.25,1.75,2.75*0B
$GPGSV,2,1,06,13,60,135,38,15,74,247,43,17,24,106,35,19,,,33*4C
$GPGSV,2,2,06,24,42,269,33,28,40,054,47*7E
{"class":"SKY","xdop":1.23,"ydop":2.27,"vdop":2.75,"tdop":2.05,"hdop":1.75,"gdop":4.58,"pdop":3.25,"satellites":[{"PRN":13,"el":60.0,"az":135.0,"ss":38.0,"used":true,"gnssid":0,"svid":13},{"PRN":15,"el":74.0,"az":247.0,"ss":43.0,"used":true,"gnssid":0,"svid":15},{"PRN":17,"el":24.0,"az":106.0,"ss":35.0,"used":true,"gnssid":0,"svid":17},{"PRN":19,"el":0.0,"az":0.0,"ss":33.0,"used":true,"gnssid":0,"svid":19},{"PRN":24,"el":42.0,"az":269.0,"ss":33.0,"used":true,"gnssid":0,"svid":24},{"PRN":28,"el":40.0,"az":54.0,"ss":47.0,"used":false,"gnssid":0,"svid":28}]}
$GPRMC,105225.408,A,5050.4112,N,00420.8259,E,0.02,308.08,120319,,,A*6C
{"class":"TPV","mode":3,"time":"2019-03-12T10:52:25.408Z","ept":0.005,"lat":50.840186667,"lon":4.347098333,"altHAE":154.790,"altMSL":109.000,"epx":18.438,"epy":34.100,"epv":63.250,"track":308.0800,"magtrack":309.4313,"magvar":1.4,"speed":0.010,"climb":-0.000,"eps":68.20,"epc":126.50,"geoidSep":45.790,"eph":33.250,"sep":61.750}
$GPVTG,308.08,T,,M,0.02,N,0.05,K,A*39
$GPGGA,105226.408,5050.4112,N,00420.8259,E,1,05,1.75,109.0,M,,M,,0000*74
$GPGLL,5050.4112,N,00420.8259,E,105226.408,A,A*51
$GPGSA,A,3,13,15,17,19,24,,,,,,,,3.25,1.75,2.75*0B
$GPGSV,2,1,06,13,60,135,37,15,74,247,43,17,24,106,35,19,,,33*43
$GPGSV,2,2,06,24,42,269,33,28,40,054,47*7E
{"class":"SKY","xdop":1.23,"ydop":2.27,"vdop":2.75,"tdop":2.05,"hdop":1.75,"gdop":4.58,"pdop":3.25,"satellites":[{"PRN":13,"el":60.0,"az":135.0,"ss":37.0,"used":true,"gnssid":0,"svid":13},{"PRN":15,"el":74.0,"az":247.0,"ss":43.0,"used":true,"gnssid":0,"svid":15},{"PRN":17,"el":24.0,"az":106.0,"ss":35.0,"used":true,"gnssid":0,"svid":17},{"PRN":19,"el":0.0,"az":0.0,"ss":33.0,"used":true,"gnssid":0,"svid":19},{"PRN":24,"el":42.0,"az":269.0,"ss":33.0,"used":true,"gnssid":0,"svid":24},{"PRN":28,"el":40.0,"az":54.0,"ss":47.0,"used":false,"gnssid":0,"svid":28}]}
$GPRMC,105226.408,A,5050.4112,N,00420.8259,E,0.03,357.31,120319,,,A*6E
{"class":"TPV","mode":3,"time":"2019-03-12T10:52:26.408Z","ept":0.005,"lat":50.840186667,"lon":4.347098333,"altHAE":154.790,"altMSL":109.000,"epx":18.438,"epy":34.100,"epv":63.250,"track":357.3100,"magtrack":358.6613,"magvar":1.4,"speed":0.015,"climb":0.000,"eps":68.20,"epc":126.50,"geoidSep":45.790,"eph":33.250,"sep":61.750}
$GPVTG,357.31,T,,M,0.03,N,0.06,K,A*3B
$GPGGA,105227.408,5050.4113,N,00420.8259,E,1,05,1.75,108.0,M,,M,,0000*75
$GPGLL,5050.4113,N,00420.8259,E,105227.408,A,A*51
$GPGSA,A,3,13,15,17,19,24,,,,,,,,3.25,1.75,2.75*0B
$GPGSV,2,1,06,13,60,135,37,15,74,247,43,17,24,106,35,19,,,33*43
$GPGSV,2,2,06,24,42,269,34,28,40,054,47*79
{"class":"SKY","xdop":1.23,"ydop":2.27,"vdop":2.75,"tdop":2.05,"hdop":1.75,"gdop":4.58,"pdop":3.25,"satellites":[{"PRN":13,"el":60.0,"az":135.0,"ss":37.0,"used":true,"gnssid":0,"svid":13},{"PRN":15,"el":74.0,"az":247.0,"ss":43.0,"used":true,"gnssid":0,"svid":15},{"PRN":17,"el":24.0,"az":106.0,"ss":35.0,"used":true,"gnssid":0,"svid":17},{"PRN":19,"el":0.0,"az":0.0,"ss":33.0,"used":true,"gnssid":0,"svid":19},{"PRN":24,"el":42.0,"az":269.0,"ss":34.0,"used":true,"gnssid":0,"svid":24},{"PRN":28,"el":40.0,"az":54.0,"ss":47.0,"used":false,"gnssid":0,"svid":28}]}
$GPRMC,105227.408,A,5050.4113,N,00420.8259,E,0.02,68.04,120319,,,A*56
{"class":"TPV","mode":3,"time":"2019-03-12T10:52:27.408Z","ept":0.005,"lat":50.840188333,"lon":4.347098333,"altHAE":153.790,"altMSL":108.000,"epx":18.438,"epy":34.100,"epv":63.250,"track":68.0400,"magtrack":69.3913,"magvar":1.4,"speed":0.010,"climb":-1.000,"eps":68.20,"epc":126.50,"geoidSep":45.790,"eph":33.250,"sep":61.750}
$GPVTG,68.04,T,,M,0.02,N,0.04,K,A*01
$GPGGA,105228.408,5050.4113,N,00420.8259,E,1,05,1.75,108.0,M,,M,,0000*7A
$GPGLL,5050.4113,N,00420.8259,E,105228.408,A,A*5E
$GPGSA,A,3,13,15,17,19,24,,,,,,,,3.25,1.75,2.75*0B
$GPGSV,2,1,06,13,60,135,36,15,74,247,43,17,24,106,35,19,,,33*42
$GPGSV,2,2,06,24,42,269,34,28,40,054,47*79
{"class":"SKY","xdop":1.23,"ydop":2.27,"vdop":2.75,"tdop":2.05,"hdop":1.75,"gdop":4.58,"pdop":3.25,"satellites":[{"PRN":13,"el":60.0,"az":135.0,"ss":36.0,"used":true,"gnssid":0,"svid":13},{"PRN":15,"el":74.0,"az":247.0,"ss":43.0,"used":true,"gnssid":0,"svid":15},{"PRN":17,"el":24.0,"az":106.0,"ss":35.0,"used":true,"gnssid":0,"svid":17},{"PRN":19,"el":0.0,"az":0.0,"ss":33.0,"used":true,"gnssid":0,"svid":19},{"PRN":24,"el":42.0,"az":269.0,"ss":34.0,"used":true,"gnssid":0,"svid":24},{"PRN":28,"el":40.0,"az":54.0,"ss":47.0,"used":false,"gnssid":0,"svid":28}]}
$GPRMC,105228.408,A,5050.4113,N,00420.8259,E,0.01,36.71,120319,,,A*53
{"class":"TPV","mode":3,"time":"2019-03-12T10:52:28.408Z","ept":0.005,"lat":50.840188333,"lon":4.347098333,"altHAE":153.790,"altMSL":108.000,"epx":18.438,"epy":34.100,"epv":63.250,"track":36.7100,"magtrack":38.0613,"magvar":1.4,"speed":0.005,"climb":0.000,"eps":68.20,"epc":126.50,"geoidSep":45.790,"eph":33.250,"sep":61.750}
$GPVTG,36.71,T,,M,0.01,N,0.03,K,A*0C
$GPGGA,105229.408,5050.4113,N,00420.8259,E,1,06,1.50,108.0,M,,M,,0000*7F
$GPGLL,5050.4113,N,00420.8259,E,105229.408,A,A*5F
$GPGSA,A,3,13,15,17,19,24,28,,,,,,,2.50,1.50,2.00*07
$GPGSV,2,1,06,13,60,135,36,15,74,247,43,17,24,106,35,19,12,131,33*72
$GPGSV,2,2,06,24,42,269,34,28,40,054,47*79
{"class":"SKY","xdop":0.87,"ydop":1.33,"vdop":2.00,"tdop":1.58,"hdop":1.50,"gdop":3.07,"pdop":2.50,"satellites":[{"PRN":13,"el":60.0,"az":135.0,"ss":36.0,"used":true,"gnssid":0,"svid":13},{"PRN":15,"el":74.0,"az":247.0,"ss":43.0,"used":true,"gnssid":0,"svid":15},{"PRN":17,"el":24.0,"az":106.0,"ss":35.0,"used":true,"gnssid":0,"svid":17},{"PRN":19,"el":12.0,"az":131.0,"ss":33.0,"used":true,"gnssid":0,"svid":19},{"PRN":24,"el":42.0,"az":269.0,"ss":34.0,"used":true,"gnssid":0,"svid":24},{"PRN":28,"el":40.0,"az":54.0,"ss":47.0,"used":true,"gnssid":0,"svid":28}]}
$GPRMC,105229.408,A,5050.4113,N,00420.8259,E,0.02,59.98,120319,,,A*5F
{"class":"TPV","mode":3,"time":"2019-03-12T10:52:29.408Z","ept":0.005,"lat":50.840188333,"lon":4.347098333,"altHAE":153.790,"altMSL":108.000,"epx":18.438,"epy":34.100,"epv":63.250,"track":59.9800,"magtrack":61.3313,"magvar":1.4,"speed":0.010,"climb":0.000,"eps":68.20,"epc":126.50,"geoidSep":45.790,"eph":28.500,"sep":61.750}
$GPVTG,59.98,T,,M,0.02,N,0.05,K,A*07
$GPGGA,105230.408,5050.4113,N,00420.8259,E,1,06,1.50,108.0,M,,M,,0000*77
$GPGLL,5050.4113,N,00420.8259,E,105230.408,A,A*57
$GPGSA,A,3,13,15,17,19,24,28,,,,,,,2.50,1.50,2.00*07
$GPGSV,2,1,06,13,60,135,36,15,74,247,43,17,24,106,35,19,12,131,32*73
$GPGSV,2,2,06,24,42,269,34,28,40,054,47*79
{"class":"SKY","xdop":0.87,"ydop":1.33,"vdop":2.00,"tdop":1.58,"hdop":1.50,"gdop":3.07,"pdop":2.50,"satellites":[{"PRN":13,"el":60.0,"az":135.0,"ss":36.0,"used":true,"gnssid":0,"svid":13},{"PRN":15,"el":74.0,"az":247.0,"ss":43.0,"used":true,"gnssid":0,"svid":15},{"PRN":17,"el":24.0,"az":106.0,"ss":35.0,"used":true,"gnssid":0,"svid":17},{"PRN":19,"el":12.0,"az":131.0,"ss":32.0,"used":true,"gnssid":0,"svid":19},{"PRN":24,"el":42.0,"az":269.0,"ss":34.0,"used":true,"gnssid":0,"svid":24},{"PRN":28,"el":40.0,"az":54.0,"ss":47.0,"used":true,"gnssid":0,"svid":28}]}
$GPRMC,105230.408,A,5050.4113,N,00420.8259,E,0.00,0.0,120319,,,A*58
{"class":"TPV","mode":3,"time":"2019-03-12T10:52:30.408Z","ept":0.005,"lat":50.840188333,"lon":4.347098333,"altHAE":153.790,"altMSL":108.000,"epx":13.020,"epy":19.984,"epv":46.000,"track":0.0000,"magtrack":1.3513,"magvar":1.4,"speed":0.000,"climb":0.000,"eps":54.08,"epc":109.25,"geoidSep":45.790,"eph":28.500,"sep":47.500}
$GPVTG,0.0,T,,M,0.00,N,0.01,K,A*0C
$GPGGA,105231.408,5050.4113,N,00420.8259,E,1,06,1.50,108.0,M,,M,,0000*76
$GPGLL,5050.4113,N,00420.8259,E,105231.408,A,A*56
$GPGSA,A,3,13,15,17,19,24,28,,,,,,,2.50,1.50,2.00*07
$GPGSV,2,1,06,13,60,135,36,15,74,247,43,17,24,106,35,19,12,131,33*72
$GPGSV,2,2,06,24,42,269,34,28,40,054,47*79
