# Name: Telit HE910 NMEA
# Chipset: ?
# Submitter: iTou
# Date: 2019-03-14
# Location: 50 50.4126,N  004 20.8228,E
# Notes: quad-band GSM/GPRS/EDGE plus GPS module
#
# This file is Copyright (c) 2010 by the GPSD project
# BSD terms apply: see the file COPYING in the distribution root for details.
#
$GPGGA,,,,,,0,,,,M,,M,,*66
$GPGLL,,,,,,V,N*64
$GPGSA,A,1,,,,,,,,,,,,,,,*1E
$GPGSV,1,1,00,,,,,,,,,,,,,,,,*79
$GPRMC,,V,,,,,,,,,,N*53
$GPVTG,,T,,M,,N,,K,N*2C
$GPGGA,,,,,,0,,,,M,,M,,*66
$GPGLL,,,,,,V,N*64
$GPGSA,A,1,,,,,,,,,,,,,,,*1E
$GPGSV,1,1,02,15,00,000,,17,00,000,,,,,,,,,*79
$GPRMC,,V,,,,,,,,,,N*53
$GPVTG,,T,,M,,N,,K,N*2C
$GPGGA,,,,,,0,,,,M,,M,,*66
$GPGLL,,,,,,V,N*64
$GPGSA,A,1,,,,,,,,,,,,,,,*1E
$GPGSV,1,1,04,15,00,000,44,17,00,000,37,24,00,000,40,28,00,000,46*71
$GPRMC,,V,,,,,,,,,,N*53
$GPVTG,,T,,M,,N,,K,N*2C
$GPGGA,,,,,,0,,,,M,,M,,*66
$GPGLL,,,,,,V,N*64
$GPGSA,A,1,,,,,,,,,,,,,,,*1E
$GPGSV,1,1,04,15,00,000,44,17,00,000,37,24,00,000,40,28,00,000,47*70
$GPRMC,,V,,,,,,,,,,N*53
$GPVTG,,T,,M,,N,,K,N*2C
$GPGGA,,,,,,0,,,,M,,M,,*66
$GPGLL,,,,,,V,N*64
$GPGSA,A,1,,,,,,,,,,,,,,,*1E
$GPGSV,1,1,04,15,00,000,44,17,00,000,37,24,00,000,40,28,00,000,47*70
$GPRMC,,V,,,,,,,,,,N*53
$GPVTG,,T,,M,,N,,K,N*2C
$GPGGA,,,,,,0,,,,M,,M,,*66
$GPGLL,,,,,,V,N*64
$GPGSA,A,1,,,,,,,,,,,,,,,*1E
$GPGSV,1,1,04,15,00,000,44,17,00,000,36,24,00,000,40,28,00,000,47*71
$GPRMC,,V,,,,,,,,,,N*53
$GPVTG,,T,,M,,N,,K,N*2C
$GPGGA,,,,,,0,,,,M,,M,,*66
$GPGLL,,,,,,V,N*64
$GPGSA,A,1,,,,,,,,,,,,,,,*1E
$GPGSV,1,1,04,15,00,000,44,17,00,000,36,24,00,000,40,28,00,000,47*71
$GPRMC,,V,,,,,,,,,,N*53
$GPVTG,,T,,M,,N,,K,N*2C
$GPGGA,,,,,,0,,,,M,,M,,*66
$GPGLL,,,,,,V,N*64
$GPGSA,A,1,,,,,,,,,,,,,,,*1E
$GPGSV,1,1,04,15,00,000,44,17,00,000,36,24,00,000,39,28,00,000,47*7F
$GPRMC,,V,,,,,,,,,,N*53
$GPVTG,,T,,M,,N,,K,N*2C
$GPGGA,,,,,,0,,,,M,,M,,*66
$GPGLL,,,,,,V,N*64
$GPGSA,A,1,,,,,,,,,,,,,,,*1E
$GPGSV,1,1,04,15,00,000,44,17,00,000,36,24,00,000,39,28,00,000,47*7F
$GPRMC,,V,,,,,,,,,,N*53
$GPVTG,,T,,M,,N,,K,N*2C
$GPGGA,,,,,,0,,,,M,,M,,*66
$GPGLL,,,,,,V,N*64
$GPGSA,A,1,,,,,,,,,,,,,,,*1E
$GPGSV,1,1,04,15,00,000,44,17,00,000,37,24,00,000,39,28,00,000,47*7E
$GPRMC,,V,,,,,,,,,,N*53
$GPVTG,,T,,M,,N,,K,N*2C
$GPGGA,,,,,,0,,,,M,,M,,*66
$GPGLL,,,,,,V,N*64
$GPGSA,A,1,,,,,,,,,,,,,,,*1E
$GPGSV,2,1,05,13,00,000,35,15,00,000,44,17,00,000,36,24,00,000,39*70
$GPGSV,2,2,05,28,00,000,47,,,,,,,,,,,,*45
$GPRMC,,V,,,,,,,,,,N*53
$GPVTG,,T,,M,,N,,K,N*2C
$GPGGA,,,,,,0,,,,M,,M,,*66
$GPGLL,,,,,,V,N*64
$GPGSA,A,1,,,,,,,,,,,,,,,*1E
$GPGSV,2,1,05,13,00,000,35,15,00,000,44,17,00,000,37,24,00,000,39*71
$GPGSV,2,2,05,28,00,000,47,,,,,,,,,,,,*45
$GPRMC,,V,,,,,,,,,,N*53
$GPVTG,,T,,M,,N,,K,N*2C
$GPGGA,,,,,,0,,,,M,,M,,*66
$GPGLL,,,,,,V,N*64
$GPGSA,A,1,,,,,,,,,,,,,,,*1E
$GPGSV,2,1,05,13,00,000,35,15,00,000,44,17,00,000,37,24,00,000,39*71
$GPGSV,2,2,05,28,00,000,47,,,,,,,,,,,,*45
$GPRMC,,V,,,,,,,,,,N*53
$GPVTG,,T,,M,,N,,K,N*2C
$GPGGA,,,,,,0,,,,M,,M,,*66
$GPGLL,,,,,,V,N*64
$GPGSA,A,1,,,,,,,,,,,,,,,*1E
$GPGSV,2,1,05,13,00,000,36,15,00,000,44,17,00,000,37,24,00,000,39*72
$GPGSV,2,2,05,28,00,000,47,,,,,,,,,,,,*45
$GPRMC,,V,,,,,,,,,,N*53
$GPVTG,,T,,M,,N,,K,N*2C
$GPGGA,,,,,,0,,,,M,,M,,*66
$GPGLL,,,,,,V,N*64
$GPGSA,A,1,,,,,,,,,,,,,,,*1E
$GPGSV,2,1,05,13,00,000,36,15,00,000,44,17,00,000,37,24,00,000,39*72
$GPGSV,2,2,05,28,00,000,47,,,,,,,,,,,,*45
$GPRMC,,V,,,,,,,,,,N*53
$GPVTG,,T,,M,,N,,K,N*2C
$GPGGA,,,,,,0,,,,M,,M,,*66
$GPGLL,,,,,,V,N*64
$GPGSA,A,1,,,,,,,,,,,,,,,*1E
$GPGSV,2,1,05,13,00,000,36,15,00,000,44,17,00,000,37,24,00,000,39*72
$GPGSV,2,2,05,28,00,000,47,,,,,,,,,,,,*45
$GPRMC,,V,,,,,,,,,,N*53
$GPVTG,,T,,M,,N,,K,N*2C
$GPGGA,,,,,,0,,,,M,,M,,*66
$GPGLL,,,,,,V,N*64
$GPGSA,A,1,,,,,,,,,,,,,,,*1E
$GPGSV,2,1,05,13,00,000,36,15,00,000,44,17,00,000,36,24,00,000,39*73
$GPGSV,2,2,05,28,00,000,47,,,,,,,,,,,,*45
$GPRMC,,V,,,,,,,,,,N*53
$GPVTG,,T,,M,,N,,K,N*2C
$GPGGA,,,,,,0,,,,M,,M,,*66
$GPGLL,,,,,,V,N*64
$GPGSA,A,1,,,,,,,,,,,,,,,*1E
$GPGSV,2,1,05,13,00,000,37,15,00,000,44,17,00,000,37,24,00,000,38*72
$GPGSV,2,2,05,28,00,000,47,,,,,,,,,,,,*45
$GPRMC,,V,,,,,,,,,,N*53
$GPVTG,,T,,M,,N,,K,N*2C
$GPGGA,,,,,,0,,,,M,,M,,*66
$GPGLL,,,,,,V,N*64
$GPGSA,A,1,,,,,,,,,,,,,,,*1E
$GPGSV,2,1,05,13,00,000,37,15,00,000,44,17,00,000,36,24,00,000,38*73
$GPGSV,2,2,05,28,00,000,47,,,,,,,,,,,,*45
$GPRMC,,V,,,,,,,,,,N*53
$GPVTG,,T,,M,,N,,K,N*2C
$GPGGA,,,,,,0,,,,M,,M,,*66
$GPGLL,,,,,,V,N*64
$GPGSA,A,1,,,,,,,,,,,,,,,*1E
$GPGSV,2,1,05,13,00,000,37,15,00,000,44,17,00,000,37,24,00,000,38*72
$GPGSV,2,2,05,28,00,000,47,,,,,,,,,,,,*45
$GPRMC,,V,,,,,,,,,,N*53
$GPVTG,,T,,M,,N,,K,N*2C
$GPGGA,,,,,,0,,,,M,,M,,*66
$GPGLL,,,,,,V,N*64
$GPGSA,A,1,,,,,,,,,,,,,,,*1E
$GPGSV,2,1,05,13,00,000,37,15,00,000,44,17,00,000,36,24,00,000,38*73
$GPGSV,2,2,05,28,00,000,47,,,,,,,,,,,,*45
$GPRMC,,V,,,,,,,,,,N*53
$GPVTG,,T,,M,,N,,K,N*2C
$GPGGA,,,,,,0,,,,M,,M,,*66
$GPGLL,,,,,,V,N*64
$GPGSA,A,1,,,,,,,,,,,,,,,*1E
$GPGSV,2,1,05,13,00,000,37,15,00,000,44,17,00,000,37,24,00,000,38*72
$GPGSV,2,2,05,28,00,000,47,,,,,,,,,,,,*45
$GPRMC,,V,,,,,,,,,,N*53
$GPVTG,,T,,M,,N,,K,N*2C
$GPGGA,,,,,,0,,,,M,,M,,*66
$GPGLL,,,,,,V,N*64
$GPGSA,A,1,,,,,,,,,,,,,,,*1E
$GPGSV,2,1,05,13,00,000,36,15,00,000,44,17,00,000,37,24,00,000,38*73
$GPGSV,2,2,05,28,00,000,47,,,,,,,,,,,,*45
$GPRMC,,V,,,,,,,,,,N*53
$GPVTG,,T,,M,,N,,K,N*2C
$GPGGA,,,,,,0,,,,M,,M,,*66
$GPGLL,,,,,,V,N*64
$GPGSA,A,1,,,,,,,,,,,,,,,*1E
$GPGSV,2,1,05,13,00,000,37,15,00,000,44,17,00,000,37,24,00,000,38*72
$GPGSV,2,2,05,28,00,000,47,,,,,,,,,,,,*45
$GPRMC,,V,,,,,,,,,,N*53
$GPVTG,,T,,M,,N,,K,N*2C
$GPGGA,,,,,,0,,,,M,,M,,*66
$GPGLL,,,,,,V,N*64
$GPGSA,A,1,,,,,,,,,,,,,,,*1E
$GPGSV,2,1,05,13,00,000,37,15,00,000,44,17,00,000,37,24,00,000,38*72
$GPGSV,2,2,05,28,00,000,47,,,,,,,,,,,,*45
$GPRMC,,V,,,,,,,,,,N*53
$GPVTG,,T,,M,,N,,K,N*2C
$GPGGA,,,,,,0,,,,M,,M,,*66
$GPGLL,,,,,,V,N*64
$GPGSA,A,1,,,,,,,,,,,,,,,*1E
$GPGSV,2,1,05,13,00,000,37,15,00,000,44,17,00,000,37,24,00,000,37*7D
$GPGSV,2,2,05,28,00,000,47,,,,,,,,,,,,*45
$GPRMC,,V,,,,,,,,,,N*53
$GPVTG,,T,,M,,N,,K,N*2C
$GPGGA,,,,,,0,,,,M,,M,,*66
$GPGLL,,,,,,V,N*64
$GPGSA,A,1,,,,,,,,,,,,,,,*1E
$GPGSV,2,1,05,13,00,000,37,15,00,000,44,17,00,000,36,24,00,000,37*7C
$GPGSV,2,2,05,28,00,000,47,,,,,,,,,,,,*45
$GPRMC,,V,,,,,,,,,,N*53
$GPVTG,,T,,M,,N,,K,N*2C
$GPGGA,,,,,,0,,,,M,,M,,*66
$GPGLL,,,,,,V,N*64
$GPGSA,A,1,,,,,,,,,,,,,,,*1E
$GPGSV,2,1,05,13,00,000,37,15,00,000,44,17,00,000,37,24,00,000,37*7D
$GPGSV,2,2,05,28,00,000,47,,,,,,,,,,,,*45
$GPRMC,,V,,,,,,,,,,N*53
$GPVTG,,T,,M,,N,,K,N*2C
$GPGGA,,,,,,0,,,,M,,M,,*66
$GPGLL,,,,,,V,N*64
$GPGSA,A,1,,,,,,,,,,,,,,,*1E
$GPGSV,2,1,05,13,00,000,37,15,00,000,44,17,00,000,36,24,00,000,37*7C
$GPGSV,2,2,05,28,00,000,47,,,,,,,,,,,,*45
$GPRMC,,V,,,,,,,,,,N*53
$GPVTG,,T,,M,,N,,K,N*2C
$GPGGA,,,,,,0,,,,M,,M,,*66
$GPGLL,,,,,,V,N*64
$GPGSA,A,1,,,,,,,,,,,,,,,*1E
$GPGSV,2,1,05,13,00,000,37,15,00,000,44,17,00,000,36,24,00,000,37*7C
$GPGSV,2,2,05,28,00,000,47,,,,,,,,,,,,*45
$GPRMC,,V,,,,,,,,,,N*53
$GPVTG,,T,,M,,N,,K,N*2C
$GPGGA,,,,,,0,,,,M,,M,,*66
$GPGLL,,,,,,V,N*64
$GPGSA,A,1,,,,,,,,,,,,,,,*1E
$GPGSV,2,1,05,13,00,000,37,15,00,000,44,17,00,000,36,24,00,000,37*7C
$GPGSV,2,2,05,28,00,000,47,,,,,,,,,,,,*45
$GPRMC,,V,,,,,,,,,,N*53
$GPVTG,,T,,M,,N,,K,N*2C
$GPGGA,,,,,,0,,,,M,,M,,*66
$GPGLL,,,,,,V,N*64
$GPGSA,A,1,,,,,,,,,,,,,,,*1E
$GPGSV,2,1,05,13,00,000,38,15,00,000,44,17,00,000,36,24,00,000,37*73
$GPGSV,2,2,05,28,00,000,48,,,,,,,,,,,,*4A
$GPRMC,,V,,,,,,,,,,N*53
$GPVTG,,T,,M,,N,,K,N*2C
$GPGGA,,,,,,0,,,,M,,M,,*66
$GPGLL,,,,,,V,N*64
$GPGSA,A,1,,,,,,,,,,,,,,,*1E
$GPGSV,2,1,05,13,00,000,38,15,00,000,44,17,00,000,36,24,00,000,37*73
$GPGSV,2,2,05,28,00,000,47,,,,,,,,,,,,*45
$GPRMC,,V,,,,,,,,,,N*53
$GPVTG,,T,,M,,N,,K,N*2C
$GPGGA,,,,,,0,,,,M,,M,,*66
$GPGLL,,,,,,V,N*64
$GPGSA,A,1,,,,,,,,,,,,,,,*1E
$GPGSV,2,1,05,13,00,000,38,15,00,000,44,17,00,000,36,24,00,000,37*73
$GPGSV,2,2,05,28,00,000,47,,,,,,,,,,,,*45
$GPRMC,,V,,,,,,,,,,N*53
$GPVTG,,T,,M,,N,,K,N*2C
$GPGGA,,,,,,0,,,,M,,M,,*66
$GPGLL,,,,,,V,N*64
$GPGSA,A,1,,,,,,,,,,,,,,,*1E
$GPGSV,2,1,05,13,00,000,38,15,00,000,44,17,00,000,36,24,00,000,36*72
$GPGSV,2,2,05,28,00,000,47,,,,,,,,,,,,*45
$GPRMC,,V,,,,,,,,,,N*53
$GPVTG,,T,,M,,N,,K,N*2C
$GPGGA,,,,,,0,,,,M,,M,,*66
$GPGLL,,,,,,V,N*64
$GPGSA,A,1,,,,,,,,,,,,,,,*1E
$GPGSV,2,1,05,13,00,000,39,15,00,000,44,17,00,000,36,24,00,000,36*73
$GPGSV,2,2,05,28,00,000,48,,,,,,,,,,,,*4A
$GPRMC,,V,,,,,,,,,,N*53
$GPVTG,,T,,M,,N,,K,N*2C
$GPGGA,,,,,,0,,,,M,,M,,*66
$GPGLL,,,,,,V,N*64
$GPGSA,A,1,,,,,,,,,,,,,,,*1E
$GPGSV,2,1,06,13,00,000,39,15,45,282,44,17,19,211,36,19,00,000,35*7E
$GPGSV,2,2,06,24,39,316,36,28,55,198,48,,,,,,,,*74
$GPRMC,,V,,,,,,,,,,N*53
$GPVTG,,T,,M,,N,,K,N*2C
$GPGGA,105153.71,5050.4122,N,00420.8266,E,1,04,2.25,109.44,M,,M,,*77
$GPGLL,5050.4122,N,00420.8266,E,105153.71,A,A*65
$GPGSA,A,3,15,17,24,28,,,,,,,,,4.00,2.25,3.25*09
$GPGSV,2,1,06,13,00,000,39,15,76,248,44,17,25,106,36,19,00,000,34*73
$GPGSV,2,2,06,24,43,270,36,28,42,055,48,,,,,,,,*7E
$GPRMC,105153.71,A,5050.4122,N,00420.8266,E,0.14,303.60,120319,,,A*59
$GPVTG,303.60,T,,M,0.14,N,0.26,K,A*3A
$GPGGA,105153.408,5050.4122,N,00420.8265,E,1,04,2.25,109.0,M,,M,,0000*7E
$GPGLL,5050.4122,N,00420.8265,E,105153.408,A,A*5C
$GPGSA,A,3,13,15,17,19,,,,,,,,,4.00,2.25,3.25*0F
$GPGSV,2,1,06,13,,,39,15,74,248,44,17,24,106,35,19,,,33*74
$GPGSV,2,2,06,24,42,269,35,28,40,055,47*79
$GPRMC,105153.408,A,5050.4122,N,00420.8265,E,0.13,303.60,120319,,,A*67
$GPVTG,303.60,T,,M,0.13,N,0.25,K,A*3E
$GPGGA,105154.408,5050.4121,N,00420.8268,E,1,04,2.25,109.0,M,,M,,0000*77
$GPGLL,5050.4121,N,00420.8268,E,105154.408,A,A*55
$GPGSA,A,3,13,15,17,19,,,,,,,,,4.00,2.25,3.25*0F
$GPGSV,2,1,06,13,,,39,15,74,248,44,17,24,106,35,19,,,33*74
$GPGSV,2,2,06,24,42,269,35,28,40,055,47*79
$GPRMC,105154.408,A,5050.4121,N,00420.8268,E,0.30,348.36,120319,,,A*63
$GPVTG,348.36,T,,M,0.30,N,0.55,K,A*34
$GPGGA,105156.408,5050.4112,N,00420.8262,E,1,04,2.00,109.0,M,,M,,0000*78
$GPGLL,5050.4112,N,00420.8262,E,105156.408,A,A*5D
$GPGSA,A,3,13,15,17,19,,,,,,,,,2.25,2.00,0.75*0F
$GPGSV,2,1,06,13,,,39,15,74,248,44,17,24,106,35,19,,,33*74
$GPGSV,2,2,06,24,42,269,35,28,40,055,47*79
$GPRMC,105156.408,A,5050.4112,N,00420.8262,E,0.09,0.90,120319,,,A*62
$GPVTG,0.90,T,,M,0.09,N,0.17,K,A*3B
$GPGGA,105157.408,5050.4111,N,00420.8261,E,1,04,2.00,109.0,M,,M,,0000*79
$GPGLL,5050.4111,N,00420.8261,E,105157.408,A,A*5C
$GPGSA,A,3,13,15,17,19,,,,,,,,,2.25,2.00,0.75*0F
$GPGSV,2,1,06,13,,,39,15,74,248,43,17,24,106,35,19,,,33*73
$GPGSV,2,2,06,24,42,269,34,28,40,055,47*78
$GPRMC,105157.408,A,5050.4111,N,00420.8261,E,0.06,1.79,120319,,,A*6A
$GPVTG,1.79,T,,M,0.06,N,0.11,K,A*34
$GPGGA,105158.408,5050.4111,N,00420.8261,E,1,04,2.00,109.0,M,,M,,0000*76
$GPGLL,5050.4111,N,00420.8261,E,105158.408,A,A*53
$GPGSA,A,3,13,15,17,19,,,,,,,,,2.25,2.00,0.75*0F
$GPGSV,2,1,06,13,,,39,15,74,248,43,17,24,106,35,19,,,33*73
$GPGSV,2,2,06,24,42,269,33,28,40,055,47*7F
$GPRMC,105158.408,A,5050.4111,N,00420.8261,E,0.02,24.17,120319,,,A*5E
$GPVTG,24.17,T,,M,0.02,N,0.03,K,A*0C
$GPGGA,105159.408,5050.4111,N,00420.8261,E,1,04,2.00,109.0,M,,M,,0000*77
$GPGLL,5050.4111,N,00420.8261,E,105159.408,A,A*52
$GPGSA,A,3,13,15,17,19,,,,,,,,,2.25,2.00,0.75*0F
$GPGSV,2,1,06,13,,,39,15,74,248,43,17,24,106,35,19,,,33*73
$GPGSV,2,2,06,24,42,269,33,28,40,055,47*7F
$GPRMC,105159.408,A,5050.4111,N,00420.8261,E,0.02,17.90,120319,,,A*50
$GPVTG,17.90,T,,M,0.02,N,0.04,K,A*04
$GPGGA,105200.408,5050.4111,N,00420.8261,E,1,04,2.00,109.0,M,,M,,0000*78
$GPGLL,5050.4111,N,00420.8261,E,105200.408,A,A*5D
$GPGSA,A,3,13,15,17,19,,,,,,,,,2.25,2.00,0.75*0F
$GPGSV,2,1,06,13,,,39,15,74,248,43,17,24,106,35,19,,,33*73
$GPGSV,2,2,06,24,42,269,33,28,40,055,47*7F
$GPRMC,105200.408,A,5050.4111,N,00420.8261,E,0.02,99.37,120319,,,A*54
$GPVTG,99.37,T,,M,0.02,N,0.04,K,A*0F
$GPGGA,105201.408,5050.4111,N,00420.8261,E,1,04,2.00,109.0,M,,M,,0000*79
$GPGLL,5050.4111,N,00420.8261,E,105201.408,A,A*5C
$GPGSA,A,3,13,15,17,19,,,,,,,,,2.25,2.00,0.75*0F
$GPGSV,2,1,06,13,,,39,15,74,248,44,17,24,106,35,19,,,33*74
$GPGSV,2,2,06,24,42,269,32,28,40,055,47*7E
$GPRMC,105201.408,A,5050.4111,N,00420.8261,E,0.02,104.74,120319,,,A*67
$GPVTG,104.74,T,,M,0.02,N,0.04,K,A*3D
$GPGGA,105202.408,5050.4111,N,00420.8261,E,1,04,2.00,109.0,M,,M,,0000*7A
$GPGLL,5050.4111,N,00420.8261,E,105202.408,A,A*5F
$GPGSA,A,3,13,15,17,19,,,,,,,,,2.25,2.00,0.75*0F
$GPGSV,2,1,06,13,,,39,15,74,248,43,17,24,106,35,19,,,33*73
$GPGSV,2,2,06,24,42,269,33,28,40,055,47*7F
$GPRMC,105202.408,A,5050.4111,N,00420.8261,E,0.03,97.58,120319,,,A*50
$GPVTG,97.58,T,,M,0.03,N,0.05,K,A*08
$GPGGA,105203.408,5050.4111,N,00420.8261,E,1,04,2.00,109.0,M,,M,,0000*7B
$GPGLL,5050.4111,N,00420.8261,E,105203.408,A,A*5E
$GPGSA,A,3,13,15,17,19,,,,,,,,,2.25,2.00,0.75*0F
$GPGSV,2,1,06,13,,,39,15,74,248,44,17,24,106,35,19,,,33*74
$GPGSV,2,2,06,24,42,269,32,28,40,055,47*7E
$GPRMC,105203.408,A,5050.4111,N,00420.8261,E,0.01,0.0,120319,,,A*50
$GPVTG,0.0,T,,M,0.01,N,0.02,K,A*0E
$GPGGA,105204.408,5050.4111,N,00420.8261,E,1,04,2.00,109.0,M,,M,,0000*7C
$GPGLL,5050.4111,N,00420.8261,E,105204.408,A,A*59
$GPGSA,A,3,13,15,17,19,,,,,,,,,2.25,2.00,0.75*0F
$GPGSV,2,1,06,13,,,39,15,74,248,44,17,24,106,35,19,,,33*74
$GPGSV,2,2,06,24,42,269,32,28,40,055,47*7E
$GPRMC,105204.408,A,5050.4111,N,00420.8261,E,0.00,0.0,120319,,,A*56
$GPVTG,0.0,T,,M,0.00,N,0.01,K,A*0C
$GPGGA,105205.408,5050.4111,N,00420.8261,E,1,05,1.75,109.0,M,,M,,0000*7D
$GPGLL,5050.4111,N,00420.8261,E,105205.408,A,A*58
$GPGSA,A,3,13,15,17,19,24,,,,,,,,3.25,1.75,2.50*0C
$GPGSV,2,1,06,13,60,135,40,15,74,248,44,17,24,106,35,19,,,33*4B
$GPGSV,2,2,06,24,42,269,32,28,40,055,47*7E
$GPRMC,105205.408,A,5050.4111,N,00420.8261,E,0.00,0.0,120319,,,A*57
$GPVTG,0.0,T,,M,0.00,N,0.00,K,A*0D
$GPGGA,105206.408,5050.4111,N,00420.8261,E,1,05,1.75,109.0,M,,M,,0000*7E
$GPGLL,5050.4111,N,00420.8261,E,105206.408,A,A*5B
$GPGSA,A,3,13,15,17,19,24,,,,,,,,3.25,1.75,2.50*0C
$GPGSV,2,1,06,13,60,135,38,15,74,248,44,17,24,106,35,19,,,33*44
$GPGSV,2,2,06,24,42,269,32,28,40,055,47*7E
$GPRMC,105206.408,A,5050.4111,N,00420.8261,E,0.01,0.0,120319,,,A*55
$GPVTG,0.0,T,,M,0.01,N,0.02,K,A*0E
$GPGGA,105207.408,5050.4111,N,00420.8261,E,1,05,1.75,109.0,M,,M,,0000*7F
$GPGLL,5050.4111,N,00420.8261,E,105207.408,A,A*5A
$GPGSA,A,3,13,15,17,19,24,,,,,,,,3.25,1.75,2.50*0C
$GPGSV,2,1,06,13,60,135,38,15,74,248,44,17,24,106,35,19,,,33*44
$GPGSV,2,2,06,24,42,269,33,28,40,055,47*7F
$GPRMC,105207.408,A,5050.4111,N,00420.8261,E,0.01,0.0,120319,,,A*54
$GPVTG,0.0,T,,M,0.01,N,0.02,K,A*0E
$GPGGA,105208.408,5050.4111,N,00420.8261,E,1,05,1.75,109.0,M,,M,,0000*70
$GPGLL,5050.4111,N,00420.8261,E,105208.408,A,A*55
$GPGSA,A,3,13,15,17,19,24,,,,,,,,3.25,1.75,2.50*0C
$GPGSV,2,1,06,13,60,135,38,15,74,248,44,17,24,106,35,19,,,33*44
$GPGSV,2,2,06,24,42,269,32,28,40,055,47*7E
$GPRMC,105208.408,A,5050.4111,N,00420.8261,E,0.01,352.84,120319,,,A*63
$GPVTG,352.84,T,,M,0.01,N,0.02,K,A*36
$GPGGA,105209.408,5050.4111,N,00420.8261,E,1,05,1.75,109.0,M,,M,,0000*71
$GPGLL,5050.4111,N,00420.8261,E,105209.408,A,A*54
$GPGSA,A,3,13,15,17,19,24,,,,,,,,3.25,1.75,2.50*0C
$GPGSV,2,1,06,13,60,135,38,15,74,248,44,17,24,106,35,19,,,33*44
$GPGSV,2,2,06,24,42,269,32,28,40,055,47*7E
$GPRMC,105209.408,A,5050.4111,N,00420.8261,E,0.02,21.49,120319,,,A*57
$GPVTG,21.49,T,,M,0.02,N,0.03,K,A*02
$GPGGA,105210.408,5050.4111,N,00420.8261,E,1,05,1.75,109.0,M,,M,,0000*79
$GPGLL,5050.4111,N,00420.8261,E,105210.408,A,A*5C
$GPGSA,A,3,13,15,17,19,24,,,,,,,,3.25,1.75,2.50*0C
$GPGSV,2,1,06,13,60,135,38,15,74,248,44,17,24,106,35,19,,,33*44
$GPGSV,2,2,06,24,42,269,32,28,40,055,47*7E
$GPRMC,105210.408,A,5050.4111,N,00420.8261,E,0.00,0.0,120319,,,A*53
$GPVTG,0.0,T,,M,0.00,N,0.01,K,A*0C
$GPGGA,105211.408,5050.4111,N,00420.8261,E,1,05,1.75,109.0,M,,M,,0000*78
$GPGLL,5050.4111,N,00420.8261,E,105211.408,A,A*5D
$GPGSA,A,3,13,15,17,19,24,,,,,,,,3.25,1.75,2.50*0C
$GPGSV,2,1,06,13,60,135,38,15,74,248,43,17,24,106,35,19,,,33*43
$GPGSV,2,2,06,24,42,269,32,28,40,055,47*7E
$GPRMC,105211.408,A,5050.4111,N,00420.8261,E,0.00,0.0,120319,,,A*52
$GPVTG,0.0,T,,M,0.00,N,0.00,K,A*0D
$GPGGA,105212.408,5050.4111,N,00420.8261,E,1,05,1.75,109.0,M,,M,,0000*7B
$GPGLL,5050.4111,N,00420.8261,E,105212.408,A,A*5E
$GPGSA,A,3,13,15,17,19,24,,,,,,,,3.25,1.75,2.50*0C
$GPGSV,2,1,06,13,60,135,38,15,74,248,43,17,24,106,36,19,,,33*40
$GPGSV,2,2,06,24,42,269,32,28,40,055,47*7E
$GPRMC,105212.408,A,5050.4111,N,00420.8261,E,0.03,325.98,120319,,,A*67
$GPVTG,325.98,T,,M,0.03,N,0.05,K,A*3E
$GPGGA,105213.408,5050.4111,N,00420.8261,E,1,05,1.75,109.0,M,,M,,0000*7A
$GPGLL,5050.4111,N,00420.8261,E,105213.408,A,A*5F
$GPGSA,A,3,13,15,17,19,24,,,,,,,,3.25,1.75,2.50*0C
$GPGSV,2,1,06,13,60,135,39,15,74,248,43,17,24,106,35,19,,,33*42
$GPGSV,2,2,06,24,42,269,32,28,40,055,47*7E
$GPRMC,105213.408,A,5050.4111,N,00420.8261,E,0.01,355.52,120319,,,A*65
$GPVTG,355.52,T,,M,0.01,N,0.03,K,A*3B
$GPGGA,105214.408,5050.4111,N,00420.8261,E,1,05,1.75,109.0,M,,M,,0000*7D
$GPGLL,5050.4111,N,00420.8261,E,105214.408,A,A*58
$GPGSA,A,3,13,15,17,19,24,,,,,,,,3.25,1.75,2.50*0C
$GPGSV,2,1,06,13,60,135,39,15,74,248,43,17,24,106,36,19,,,33*41
$GPGSV,2,2,06,24,42,269,32,28,40,055,47*7E
$GPRMC,105214.408,A,5050.4111,N,00420.8261,E,0.00,0.0,120319,,,A*57
$GPVTG,0.0,T,,M,0.00,N,0.01,K,A*0C
$GPGGA,105215.408,5050.4111,N,00420.8261,E,1,05,1.75,109.0,M,,M,,0000*7C
$GPGLL,5050.4111,N,00420.8261,E,105215.408,A,A*59
$GPGSA,A,3,13,15,17,19,24,,,,,,,,3.25,1.75,2.50*0C
$GPGSV,2,1,06,13,60,135,39,15,74,248,43,17,24,106,36,19,,,34*46
$GPGSV,2,2,06,24,42,269,32,28,40,055,47*7E
$GPRMC,105215.408,A,5050.4111,N,00420.8261,E,0.00,0.0,120319,,,A*56
$GPVTG,0.0,T,,M,0.00,N,0.00,K,A*0D
$GPGGA,105216.408,5050.4112,N,00420.8261,E,1,05,1.75,109.0,M,,M,,0000*7C
$GPGLL,5050.4112,N,00420.8261,E,105216.408,A,A*59
$GPGSA,A,3,13,15,17,19,24,,,,,,,,3.25,1.75,2.50*0C
$GPGSV,2,1,06,13,60,135,39,15,74,248,43,17,24,106,36,19,,,33*41
$GPGSV,2,2,06,24,42,269,33,28,40,055,47*7F
$GPRMC,105216.408,A,5050.4112,N,00420.8261,E,0.00,0.0,120319,,,A*56
$GPVTG,0.0,T,,M,0.00,N,0.00,K,A*0D
$GPGGA,105217.408,5050.4112,N,00420.8261,E,1,05,1.75,109.0,M,,M,,0000*7D
$GPGLL,5050.4112,N,00420.8261,E,105217.408,A,A*58
$GPGSA,A,3,13,15,17,19,24,,,,,,,,3.25,1.75,2.50*0C
$GPGSV,2,1,06,13,60,135,39,15,74,248,43,17,24,106,36,19,,,33*41
$GPGSV,2,2,06,24,42,269,32,28,40,055,47*7E
$GPRMC,105217.408,A,5050.4112,N,00420.8261,E,0.00,0.0,120319,,,A*57
$GPVTG,0.0,T,,M,0.00,N,0.00,K,A*0D
$GPGGA,105218.408,5050.4112,N,00420.8261,E,1,05,1.75,109.0,M,,M,,0000*72
$GPGLL,5050.4112,N,00420.8261,E,105218.408,A,A*57
$GPGSA,A,3,13,15,17,19,24,,,,,,,,3.25,1.75,2.75*0B
$GPGSV,2,1,06,13,60,135,39,15,74,248,43,17,24,106,35,19,,,34*45
$GPGSV,2,2,06,24,42,269,32,28,40,055,47*7E
$GPRMC,105218.408,A,5050.4112,N,00420.8261,E,0.01,0.0,120319,,,A*59
$GPVTG,0.0,T,,M,0.01,N,0.02,K,A*0E
$GPGGA,105219.408,5050.4112,N,00420.8261,E,1,05,1.75,109.0,M,,M,,0000*73
$GPGLL,5050.4112,N,00420.8261,E,105219.408,A,A*56
$GPGSA,A,3,13,15,17,19,24,,,,,,,,3.25,1.75,2.75*0B
$GPGSV,2,1,06,13,60,135,39,15,74,248,43,17,24,106,35,19,,,33*42
$GPGSV,2,2,06,24,42,269,33,28,40,055,47*7F
$GPRMC,105219.408,A,5050.4112,N,00420.8261,E,0.00,0.0,120319,,,A*59
$GPVTG,0.0,T,,M,0.00,N,0.01,K,A*0C
$GPGGA,105220.408,5050.4112,N,00420.8261,E,1,05,1.75,109.0,M,,M,,0000*79
$GPGLL,5050.4112,N,00420.8261,E,105220.408,A,A*5C
$GPGSA,A,3,13,15,17,19,24,,,,,,,,3.25,1.75,2.75*0B
$GPGSV,2,1,06,13,60,135,39,15,74,248,43,17,24,106,35,19,,,33*42
$GPGSV,2,2,06,24,42,269,33,28,40,055,47*7F
$GPRMC,105220.408,A,5050.4112,N,00420.8261,E,0.01,0.0,120319,,,A*52
$GPVTG,0.0,T,,M,0.01,N,0.01,K,A*0D
$GPGGA,105221.408,5050.4112,N,00420.8261,E,1,05,1.75,109.0,M,,M,,0000*78
$GPGLL,5050.4112,N,00420.8261,E,105221.408,A,A*5D
$GPGSA,A,3,13,15,17,19,24,,,,,,,,3.25,1.75,2.75*0B
$GPGSV,2,1,06,13,60,135,39,15,74,248,43,17,24,106,35,19,,,33*42
$GPGSV,2,2,06,24,42,269,33,28,40,055,47*7F
$GPRMC,105221.408,A,5050.4112,N,00420.8261,E,0.03,334.93,120319,,,A*6F
$GPVTG,334.93,T,,M,0.03,N,0.06,K,A*36
$GPGGA,105222.408,5050.4112,N,00420.8261,E,1,05,1.75,109.0,M,,M,,0000*7B
$GPGLL,5050.4112,N,00420.8261,E,105222.408,A,A*5E
$GPGSA,A,3,13,15,17,19,24,,,,,,,,3.25,1.75,2.75*0B
$GPGSV,2,1,06,13,60,135,39,15,74,247,43,17,24,106,35,19,,,33*4D
$GPGSV,2,2,06,24,42,269,33,28,40,054,47*7E
$GPRMC,105222.408,A,5050.4112,N,00420.8261,E,0.02,342.10,120319,,,A*67
$GPVTG,342.10,T,,M,0.02,N,0.03,K,A*38
$GPGGA,105223.408,5050.4112,N,00420.8260,E,1,05,1.75,109.0,M,,M,,0000*7B
$GPGLL,5050.4112,N,00420.8260,E,105223.408,A,A*5E
$GPGSA,A,3,13,15,17,19,24,,,,,,,,3.25,1.75,2.75*0B
$GPGSV,2,1,06,13,60,135,38,15,74,247,43,17,24,106,35,19,,,33*4C
$GPGSV,2,2,06,24,42,269,33,28,40,054,47*7E
$GPRMC,105223.408,A,5050.4112,N,00420.8260,E,0.03,314.34,120319,,,A*63
$GPVTG,314.34,T,,M,0.03,N,0.05,K,A*3A
$GPGGA,105224.408,5050.4112,N,00420.8260,E,1,05,1.75,109.0,M,,M,,0000*7C
$GPGLL,5050.4112,N,00420.8260,E,105224.408,A,A*59
$GPGSA,A,3,13,15,17,19,24,,,,,,,,3.25,1.75,2.75*0B
$GPGSV,2,1,06,13,60,135,38,15,74,247,43,17,24,106,35,19,,,33*4C
$GPGSV,2,2,06,24,42,269,33,28,40,054,47*7E
$GPRMC,105224.408,A,5050.4112,N,00420.8260,E,0.02,322.40,120319,,,A*63
$GPVTG,322.40,T,,M,0.02,N,0.04,K,A*3C
$GPGGA,105225.408,5050.4112,N,00420.8259,E,1,05,1.75,109.0,M,,M,,0000*77
$GPGLL,5050.4112,N,00420.8259,E,105225.408,A,A*52
$GPGSA,A,3,13,15,17,19,24,,,,,,,,3.25,1.75,2.75*0B
$GPGSV,2,1,06,13,60,135,38,15,74,247,43,17,24,106,35,19,,,33*4C
$GPGSV,2,2,06,24,42,269,33,28,40,054,47*7E
$GPRMC,105225.408,A,5050.4112,N,00420.8259,E,0.02,308.08,120319,,,A*6C
$GPVTG,308.08,T,,M,0.02,N,0.05,K,A*39
$GPGGA,105226.408,5050.4112,N,00420.8259,E,1,05,1.75,109.0,M,,M,,0000*74
$GPGLL,5050.4112,N,00420.8259,E,105226.408,A,A*51
$GPGSA,A,3,13,15,17,19,24,,,,,,,,3.25,1.75,2.75*0B
$GPGSV,2,1,06,13,60,135,37,15,74,247,43,17,24,106,35,19,,,33*43
$GPGSV,2,2,06,24,42,269,33,28,40,054,47*7E
$GPRMC,105226.408,A,5050.4112,N,00420.8259,E,0.03,357.31,120319,,,A*6E
$GPVTG,357.31,T,,M,0.03,N,0.06,K,A*3B
$GPGGA,105227.408,5050.4113,N,00420.8259,E,1,05,1.75,108.0,M,,M,,0000*75
$GPGLL,5050.4113,N,00420.8259,E,105227.408,A,A*51
$GPGSA,A,3,13,15,17,19,24,,,,,,,,3.25,1.75,2.75*0B
$GPGSV,2,1,06,13,60,135,37,15,74,247,43,17,24,106,35,19,,,33*43
$GPGSV,2,2,06,24,42,269,34,28,40,054,47*79
$GPRMC,105227.408,A,5050.4113,N,00420.8259,E,0.02,68.04,120319,,,A*56
$GPVTG,68.04,T,,M,0.02,N,0.04,K,A*01
$GPGGA,105228.408,5050.4113,N,00420.8259,E,1,05,1.75,108.0,M,,M,,0000*7A
$GPGLL,5050.4113,N,00420.8259,E,105228.408,A,A*5E
$GPGSA,A,3,13,15,17,19,24,,,,,,,,3.25,1.75,2.75*0B
$GPGSV,2,1,06,13,60,135,36,15,74,247,43,17,24,106,35,19,,,33*42
$GPGSV,2,2,06,24,42,269,34,28,40,054,47*79
$GPRMC,105228.408,A,5050.4113,N,00420.8259,E,0.01,36.71,120319,,,A*53
$GPVTG,36.71,T,,M,0.01,N,0.03,K,A*0C
$GPGGA,105229.408,5050.4113,N,00420.8259,E,1,06,1.50,108.0,M,,M,,0000*7F
$GPGLL,5050.4113,N,00420.8259,E,105229.408,A,A*5F
$GPGSA,A,3,13,15,17,19,24,28,,,,,,,2.50,1.50,2.00*07
$GPGSV,2,1,06,13,60,135,36,15,74,247,43,17,24,106,35,19,12,131,33*72
$GPGSV,2,2,06,24,42,269,34,28,40,054,47*79
$GPRMC,105229.408,A,5050.4113,N,00420.8259,E,0.02,59.98,120319,,,A*5F
$GPVTG,59.98,T,,M,0.02,N,0.05,K,A*07
$GPGGA,105230.408,5050.4113,N,00420.8259,E,1,06,1.50,108.0,M,,M,,0000*77
$GPGLL,5050.4113,N,00420.8259,E,105230.408,A,A*57
$GPGSA,A,3,13,15,17,19,24,28,,,,,,,2.50,1.50,2.00*07
$GPGSV,2,1,06,13,60,135,36,15,74,247,43,17,24,106,35,19,12,131,32*73
$GPGSV,2,2,06,24,42,269,34,28,40,054,47*79
$GPRMC,105230.408,A,5050.4113,N,00420.8259,E,0.00,0.0,120319,,,A*58
$GPVTG,0.0,T,,M,0.00,N,0.01,K,A*0C
$GPGGA,105231.408,5050.4113,N,00420.8259,E,1,06,1.50,108.0,M,,M,,0000*76
$GPGLL,5050.4113,N,00420.8259,E,105231.408,A,A*56
$GPGSA,A,3,13,15,17,19,24,28,,,,,,,2.50,1.50,2.00*07
$GPGSV,2,1,06,13,60,135,36,15,74,247,43,17,24,106,35,19,12,131,33*72
$GPGSV,2,2,06,24,42,269,34,28,40,054,47*79
$GPRMC,105231.408,A,5050.4113,N,00420.8259,E,0.00,0.0,120319,,,A*59
$GPVTG,0.0,T,,M,0.00,N,0.01,K,A*0C
$GPGGA,105232.408,5050.4113,N,00420.8259,E,1,06,1.50,108.0,M,,M,,0000*75
$GPGLL,5050.4113,N,00420.8259,E,105232.408,A,A*55
$GPGSA,A,3,13,15,17,19,24,28,,,,,,,2.50,1.50,2.00*07
$GPGSV,2,1,06,13,60,135,36,15,74,247,43,17,24,106,35,19,12,131,33*72
$GPGSV,2,2,06,24,42,269,35,28,40,054,47*78
$GPRMC,105232.408,A,5050.4113,N,00420.8259,E,0.00,0.0,120319,,,A*5A
$GPVTG,0.0,T,,M,0.00,N,0.00,K,A*0D
$GPGGA,105233.408,5050.4113,N,00420.8259,E,1,06,1.50,108.0,M,,M,,0000*74
$GPGLL,5050.4113,N,00420.8259,E,105233.408,A,A*54
$GPGSA,A,3,13,15,17,19,24,28,,,,,,,2.50,1.50,2.00*07
$GPGSV,2,1,06,13,60,135,36,15,74,247,43,17,24,106,35,19,12,131,32*73
$GPGSV,2,2,06,24,42,269,35,28,40,054,47*78
$GPRMC,105233.408,A,5050.4113,N,00420.8259,E,0.00,0.0,120319,,,A*5B
$GPVTG,0.0,T,,M,0.00,N,0.01,K,A*0C
$GPGGA,105234.408,5050.4113,N,00420.8258,E,1,06,1.50,108.0,M,,M,,0000*72
$GPGLL,5050.4113,N,00420.8258,E,105234.408,A,A*52
$GPGSA,A,3,13,15,17,19,24,28,,,,,,,2.50,1.50,2.00*07
$GPGSV,2,1,06,13,60,135,35,15,74,247,43,17,24,106,35,19,12,131,32*70
$GPGSV,2,2,06,24,42,269,35,28,40,054,47*78
$GPRMC,105234.408,A,5050.4113,N,00420.8258,E,0.02,318.82,120319,,,A*6F
$GPVTG,318.82,T,,M,0.02,N,0.04,K,A*3B
$GPGGA,105235.408,5050.4113,N,00420.8258,E,1,06,1.50,108.0,M,,M,,0000*73
$GPGLL,5050.4113,N,00420.8258,E,105235.408,A,A*53
$GPGSA,A,3,13,15,17,19,24,28,,,,,,,2.50,1.50,2.00*07
$GPGSV,2,1,06,13,60,135,36,15,74,247,43,17,24,106,35,19,12,131,32*73
$GPGSV,2,2,06,24,42,269,35,28,40,054,47*78
$GPRMC,105235.408,A,5050.4113,N,00420.8258,E,0.02,334.93,120319,,,A*60
$GPVTG,334.93,T,,M,0.02,N,0.04,K,A*35
$GPGGA,105236.408,5050.4113,N,00420.8258,E,1,06,1.50,108.0,M,,M,,0000*70
$GPGLL,5050.4113,N,00420.8258,E,105236.408,A,A*50
$GPGSA,A,3,13,15,17,19,24,28,,,,,,,2.50,1.50,2.00*07
$GPGSV,2,1,06,13,60,135,36,15,74,247,43,17,24,106,35,19,12,131,32*73
$GPGSV,2,2,06,24,42,269,35,28,40,054,47*78
$GPRMC,105236.408,A,5050.4113,N,00420.8258,E,0.02,291.07,120319,,,A*60
$GPVTG,291.07,T,,M,0.02,N,0.04,K,A*36
$GPGGA,105237.408,5050.4113,N,00420.8257,E,1,06,1.50,108.0,M,,M,,0000*7E
$GPGLL,5050.4113,N,00420.8257,E,105237.408,A,A*5E
$GPGSA,A,3,13,15,17,19,24,28,,,,,,,2.50,1.50,2.00*07
$GPGSV,2,1,06,13,60,135,36,15,74,247,43,17,24,106,35,19,12,131,32*73
$GPGSV,2,2,06,24,42,269,35,28,40,054,47*78
$GPRMC,105237.408,A,5050.4113,N,00420.8257,E,0.01,0.0,120319,,,A*50
$GPVTG,0.0,T,,M,0.01,N,0.01,K,A*0D
$GPGGA,105238.408,5050.4114,N,00420.8257,E,1,06,1.50,108.0,M,,M,,0000*76
$GPGLL,5050.4114,N,00420.8257,E,105238.408,A,A*56
$GPGSA,A,3,13,15,17,19,24,28,,,,,,,2.50,1.50,2.00*07
$GPGSV,2,1,06,13,60,135,35,15,74,247,43,17,24,106,35,19,12,131,32*70
$GPGSV,2,2,06,24,42,269,36,28,40,054,47*7B
$GPRMC,105238.408,A,5050.4114,N,00420.8257,E,0.01,326.88,120319,,,A*6F
$GPVTG,326.88,T,,M,0.01,N,0.03,K,A*38
$GPGGA,105239.408,5050.4114,N,00420.8256,E,1,06,1.50,108.0,M,,M,,0000*76
$GPGLL,5050.4114,N,00420.8256,E,105239.408,A,A*56
$GPGSA,A,3,13,15,17,19,24,28,,,,,,,2.50,1.50,2.00*07
$GPGSV,2,1,06,13,60,135,35,15,74,247,43,17,24,106,35,19,12,131,32*70
$GPGSV,2,2,06,24,42,269,35,28,40,054,47*78
$GPRMC,105239.408,A,5050.4114,N,00420.8256,E,0.00,0.0,120319,,,A*59
$GPVTG,0.0,T,,M,0.00,N,0.01,K,A*0C
$GPGGA,105240.408,5050.4114,N,00420.8256,E,1,06,1.50,108.0,M,,M,,0000*78
$GPGLL,5050.4114,N,00420.8256,E,105240.408,A,A*58
$GPGSA,A,3,13,15,17,19,24,28,,,,,,,2.50,1.50,2.00*07
$GPGSV,2,1,06,13,60,135,36,15,74,247,43,17,24,106,35,19,12,131,32*73
$GPGSV,2,2,06,24,42,269,36,28,40,054,47*7B
$GPRMC,105240.408,A,5050.4114,N,00420.8256,E,0.01,298.23,120319,,,A*64
$GPVTG,298.23,T,,M,0.01,N,0.03,K,A*3D
$GPGGA,105241.408,5050.4114,N,00420.8256,E,1,06,1.50,108.0,M,,M,,0000*79
$GPGLL,5050.4114,N,00420.8256,E,105241.408,A,A*59
$GPGSA,A,3,13,15,17,19,24,28,,,,,,,2.50,1.50,2.00*07
$GPGSV,2,1,06,13,60,135,35,15,74,247,43,17,24,106,35,19,12,131,32*70
$GPGSV,2,2,06,24,42,269,36,28,40,054,47*7B
$GPRMC,105241.408,A,5050.4114,N,00420.8256,E,0.01,0.0,120319,,,A*57
$GPVTG,0.0,T,,M,0.01,N,0.02,K,A*0E
$GPGGA,105242.408,5050.4115,N,00420.8256,E,1,06,1.50,108.0,M,,M,,0000*7B
$GPGLL,5050.4115,N,00420.8256,E,105242.408,A,A*5B
$GPGSA,A,3,13,15,17,19,24,28,,,,,,,2.50,1.50,2.00*07
$GPGSV,2,1,06,13,60,135,35,15,74,247,44,17,24,106,35,19,12,131,32*77
$GPGSV,2,2,06,24,42,269,36,28,40,054,47*7B
$GPRMC,105242.408,A,5050.4115,N,00420.8256,E,0.04,317.03,120319,,,A*66
$GPVTG,317.03,T,,M,0.04,N,0.07,K,A*38
$GPGGA,105243.408,5050.4115,N,00420.8255,E,1,06,1.50,108.0,M,,M,,0000*79
$GPGLL,5050.4115,N,00420.8255,E,105243.408,A,A*59
$GPGSA,A,3,13,15,17,19,24,28,,,,,,,2.50,1.50,2.00*07
$GPGSV,2,1,06,13,60,135,34,15,74,247,43,17,24,106,35,19,12,131,32*71
$GPGSV,2,2,06,24,42,269,36,28,40,054,47*7B
$GPRMC,105243.408,A,5050.4115,N,00420.8255,E,0.00,0.0,120319,,,A*56
$GPVTG,0.0,T,,M,0.00,N,0.01,K,A*0C
$GPGGA,105244.408,5050.4115,N,00420.8255,E,1,06,1.50,108.0,M,,M,,0000*7E
$GPGLL,5050.4115,N,00420.8255,E,105244.408,A,A*5E
$GPGSA,A,3,13,15,17,19,24,28,,,,,,,2.50,1.50,2.00*07
$GPGSV,2,1,06,13,60,135,33,15,74,247,43,17,24,106,35,19,12,131,32*76
$GPGSV,2,2,06,24,42,269,36,28,40,054,47*7B
$GPRMC,105244.408,A,5050.4115,N,00420.8255,E,0.00,0.0,120319,,,A*51
$GPVTG,0.0,T,,M,0.00,N,0.01,K,A*0C
$GPGGA,105245.408,5050.4115,N,00420.8255,E,1,06,1.50,108.0,M,,M,,0000*7F
$GPGLL,5050.4115,N,00420.8255,E,105245.408,A,A*5F
$GPGSA,A,3,13,15,17,19,24,28,,,,,,,2.50,1.50,2.00*07
$GPGSV,2,1,06,13,60,135,33,15,74,247,44,17,24,106,35,19,12,131,32*71
$GPGSV,2,2,06,24,42,269,36,28,40,054,47*7B
$GPRMC,105245.408,A,5050.4115,N,00420.8255,E,0.01,0.0,120319,,,A*51
$GPVTG,0.0,T,,M,0.01,N,0.02,K,A*0E
$GPGGA,105246.408,5050.4115,N,00420.8254,E,1,06,1.50,108.0,M,,M,,0000*7D
$GPGLL,5050.4115,N,00420.8254,E,105246.408,A,A*5D
$GPGSA,A,3,13,15,17,19,24,28,,,,,,,2.50,1.50,2.00*07
$GPGSV,2,1,06,13,60,135,33,15,74,247,44,17,24,106,35,19,12,131,31*72
$GPGSV,2,2,06,24,42,269,36,28,40,054,47*7B
$GPRMC,105246.408,A,5050.4115,N,00420.8254,E,0.02,355.52,120319,,,A*64
$GPVTG,355.52,T,,M,0.02,N,0.04,K,A*3F
$GPGGA,105247.408,5050.4115,N,00420.8254,E,1,06,1.50,108.0,M,,M,,0000*7C
$GPGLL,5050.4115,N,00420.8254,E,105247.408,A,A*5C
$GPGSA,A,3,13,15,17,19,24,28,,,,,,,2.50,1.50,2.00*07
$GPGSV,2,1,06,13,60,135,33,15,74,247,44,17,24,106,35,19,12,131,32*71
$GPGSV,2,2,06,24,42,269,36,28,40,054,47*7B
$GPRMC,105247.408,A,5050.4115,N,00420.8254,E,0.02,12.53,120319,,,A*54
$GPVTG,12.53,T,,M,0.02,N,0.04,K,A*0E
$GPGGA,105248.408,5050.4115,N,00420.8254,E,1,06,1.50,108.0,M,,M,,0000*73
$GPGLL,5050.4115,N,00420.8254,E,105248.408,A,A*53
$GPGSA,A,3,13,15,17,19,24,28,,,,,,,2.50,1.50,2.00*07
$GPGSV,2,1,06,13,60,135,32,15,74,247,44,17,24,106,35,19,12,131,31*73
$GPGSV,2,2,06,24,42,269,36,28,40,054,47*7B
$GPRMC,105248.408,A,5050.4115,N,00420.8254,E,0.03,72.51,120319,,,A*5E
$GPVTG,72.51,T,,M,0.03,N,0.05,K,A*0A
$GPGGA,105249.408,5050.4115,N,00420.8253,E,1,06,1.50,108.0,M,,M,,0000*75
$GPGLL,5050.4115,N,00420.8253,E,105249.408,A,A*55
$GPGSA,A,3,13,15,17,19,24,28,,,,,,,2.50,1.50,2.00*07
$GPGSV,2,1,06,13,60,135,31,15,74,247,44,17,24,106,35,19,12,131,31*70
$GPGSV,2,2,06,24,42,269,36,28,40,054,47*7B
$GPRMC,105249.408,A,5050.4115,N,00420.8253,E,0.01,88.63,120319,,,A*5E
$GPVTG,88.63,T,,M,0.01,N,0.03,K,A*0A
$GPGGA,105250.408,5050.4115,N,00420.8253,E,1,06,1.50,108.0,M,,M,,0000*7D
$GPGLL,5050.4115,N,00420.8253,E,105250.408,A,A*5D
$GPGSA,A,3,13,15,17,19,24,28,,,,,,,2.50,1.50,2.00*07
$GPGSV,2,1,06,13,60,135,30,15,74,247,44,17,24,106,35,19,12,131,31*71
$GPGSV,2,2,06,24,42,269,37,28,40,054,47*7A
$GPRMC,105250.408,A,5050.4115,N,00420.8253,E,0.01,0.0,120319,,,A*53
$GPVTG,0.0,T,,M,0.01,N,0.02,K,A*0E
$GPGGA,105251.408,5050.4116,N,00420.8253,E,1,06,1.50,108.0,M,,M,,0000*7F
$GPGLL,5050.4116,N,00420.8253,E,105251.408,A,A*5F
$GPGSA,A,3,13,15,17,19,24,28,,,,,,,2.50,1.50,2.00*07
$GPGSV,2,1,06,13,60,135,31,15,74,247,44,17,24,106,34,19,12,131,32*72
$GPGSV,2,2,06,24,42,269,37,28,40,054,47*7A
$GPRMC,105251.408,A,5050.4116,N,00420.8253,E,0.01,0.0,120319,,,A*51
$GPVTG,0.0,T,,M,0.01,N,0.02,K,A*0E
$GPGGA,105252.408,5050.4116,N,00420.8253,E,1,06,1.50,108.0,M,,M,,0000*7C
$GPGLL,5050.4116,N,00420.8253,E,105252.408,A,A*5C
$GPGSA,A,3,13,15,17,19,24,28,,,,,,,2.50,1.50,2.00*07
$GPGSV,2,1,06,13,60,135,31,15,74,246,44,17,24,105,34,19,12,131,31*73
$GPGSV,2,2,06,24,43,269,37,28,40,054,47*7B
$GPRMC,105252.408,A,5050.4116,N,00420.8253,E,0.02,133.39,120319,,,A*6A
$GPVTG,133.39,T,,M,0.02,N,0.04,K,A*30
$GPGGA,105253.408,5050.4116,N,00420.8253,E,1,06,1.50,108.0,M,,M,,0000*7D
$GPGLL,5050.4116,N,00420.8253,E,105253.408,A,A*5D
$GPGSA,A,3,13,15,17,19,24,28,,,,,,,2.50,1.50,2.00*07
$GPGSV,2,1,06,13,60,135,29,15,74,246,44,17,24,105,34,19,12,131,31*7A
$GPGSV,2,2,06,24,43,269,37,28,40,054,47*7B
$GPRMC,105253.408,A,5050.4116,N,00420.8253,E,0.01,0.0,120319,,,A*53
$GPVTG,0.0,T,,M,0.01,N,0.02,K,A*0E
$GPGGA,105254.408,5050.4116,N,00420.8252,E,1,06,1.50,108.0,M,,M,,0000*7B
$GPGLL,5050.4116,N,00420.8252,E,105254.408,A,A*5B
$GPGSA,A,3,13,15,17,19,24,28,,,,,,,2.50,1.50,2.00*07
$GPGSV,2,1,06,13,60,135,29,15,74,246,44,17,24,105,34,19,12,131,31*7A
$GPGSV,2,2,06,24,43,269,37,28,40,054,47*7B
$GPRMC,105254.408,A,5050.4116,N,00420.8252,E,0.00,0.0,120319,,,A*54
$GPVTG,0.0,T,,M,0.00,N,0.01,K,A*0C
$GPGGA,105255.408,5050.4116,N,00420.8252,E,1,06,1.50,108.0,M,,M,,0000*7A
$GPGLL,5050.4116,N,00420.8252,E,105255.408,A,A*5A
$GPGSA,A,3,13,15,17,19,24,28,,,,,,,2.50,1.50,2.00*07
$GPGSV,2,1,06,13,60,135,29,15,74,246,44,17,24,105,34,19,12,131,31*7A
$GPGSV,2,2,06,24,43,269,37,28,40,054,47*7B
$GPRMC,105255.408,A,5050.4116,N,00420.8252,E,0.05,349.26,120319,,,A*6A
$GPVTG,349.26,T,,M,0.05,N,0.10,K,A*33
$GPGGA,105256.408,5050.4116,N,00420.8252,E,1,06,1.50,108.0,M,,M,,0000*79
$GPGLL,5050.4116,N,00420.8252,E,105256.408,A,A*59
$GPGSA,A,3,13,15,17,19,24,28,,,,,,,2.50,1.50,2.00*07
$GPGSV,2,1,06,13,60,135,29,15,74,246,44,17,24,105,34,19,12,131,31*7A
$GPGSV,2,2,06,24,43,269,37,28,40,054,47*7B
$GPRMC,105256.408,A,5050.4116,N,00420.8252,E,0.00,0.0,120319,,,A*56
$GPVTG,0.0,T,,M,0.00,N,0.01,K,A*0C
$GPGGA,105257.408,5050.4116,N,00420.8252,E,1,06,1.50,108.0,M,,M,,0000*78
$GPGLL,5050.4116,N,00420.8252,E,105257.408,A,A*58
$GPGSA,A,3,13,15,17,19,24,28,,,,,,,2.50,1.50,2.00*07
$GPGSV,2,1,06,13,60,135,29,15,74,246,44,17,24,105,34,19,12,131,31*7A
$GPGSV,2,2,06,24,43,269,37,28,40,054,47*7B
$GPRMC,105257.408,A,5050.4116,N,00420.8252,E,0.01,5.37,120319,,,A*67
$GPVTG,5.37,T,,M,0.01,N,0.03,K,A*3E
$GPGGA,105258.408,5050.4116,N,00420.8251,E,1,06,1.50,108.0,M,,M,,0000*74
$GPGLL,5050.4116,N,00420.8251,E,105258.408,A,A*54
$GPGSA,A,3,13,15,17,19,24,28,,,,,,,2.50,1.50,2.00*07
$GPGSV,2,1,06,13,60,135,29,15,74,246,44,17,24,105,34,19,12,131,31*7A
$GPGSV,2,2,06,24,43,269,37,28,40,054,47*7B
$GPRMC,105258.408,A,5050.4116,N,00420.8251,E,0.02,67.14,120319,,,A*5D
$GPVTG,67.14,T,,M,0.02,N,0.04,K,A*0F
$GPGGA,105259.408,5050.4116,N,00420.8251,E,1,06,1.50,107.0,M,,M,,0000*7A
$GPGLL,5050.4116,N,00420.8251,E,105259.408,A,A*55
$GPGSA,A,3,13,15,17,19,24,28,,,,,,,2.50,1.50,2.00*07
$GPGSV,2,1,06,13,60,135,29,15,74,246,44,17,24,105,33,19,12,131,31*7D
$GPGSV,2,2,06,24,43,269,37,28,40,054,47*7B
$GPRMC,105259.408,A,5050.4116,N,00420.8251,E,0.02,25.96,120319,,,A*50
$GPVTG,25.96,T,,M,0.02,N,0.03,K,A*04
$GPGGA,105300.408,5050.4116,N,00420.8251,E,1,06,1.50,107.0,M,,M,,0000*77
$GPGLL,5050.4116,N,00420.8251,E,105300.408,A,A*58
$GPGSA,A,3,13,15,17,19,24,28,,,,,,,2.50,1.50,2.00*07
$GPGSV,2,1,06,13,60,135,29,15,74,246,44,17,24,105,33,19,12,131,31*7D
$GPGSV,2,2,06,24,43,269,37,28,40,054,47*7B
$GPRMC,105300.408,A,5050.4116,N,00420.8251,E,0.02,127.13,120319,,,A*63
$GPVTG,127.13,T,,M,0.02,N,0.04,K,A*3D
$GPGGA,105301.408,5050.4117,N,00420.8250,E,1,06,1.50,107.0,M,,M,,0000*76
$GPGLL,5050.4117,N,00420.8250,E,105301.408,A,A*59
$GPGSA,A,3,13,15,17,19,24,28,,,,,,,2.50,1.50,2.00*07
$GPGSV,2,1,06,13,60,135,28,15,74,246,44,17,24,105,33,19,12,131,30*7D
$GPGSV,2,2,06,24,43,269,37,28,40,054,47*7B
$GPRMC,105301.408,A,5050.4117,N,00420.8250,E,0.00,0.0,120319,,,A*56
$GPVTG,0.0,T,,M,0.00,N,0.00,K,A*0D
$GPGGA,105302.408,5050.4117,N,00420.8250,E,1,06,1.50,107.0,M,,M,,0000*75
$GPGLL,5050.4117,N,00420.8250,E,105302.408,A,A*5A
$GPGSA,A,3,13,15,17,19,24,28,,,,,,,2.50,1.50,2.00*07
$GPGSV,2,1,06,13,60,135,29,15,74,246,44,17,24,105,33,19,12,131,31*7D
$GPGSV,2,2,06,24,43,269,37,28,40,054,47*7B
$GPRMC,105302.408,A,5050.4117,N,00420.8250,E,0.01,134.29,120319,,,A*69
$GPVTG,134.29,T,,M,0.01,N,0.03,K,A*32
$GPGGA,105303.408,5050.4117,N,00420.8250,E,1,06,1.50,107.0,M,,M,,0000*74
$GPGLL,5050.4117,N,00420.8250,E,105303.408,A,A*5B
$GPGSA,A,3,13,15,17,19,24,28,,,,,,,2.50,1.50,2.00*07
$GPGSV,2,1,06,13,60,135,28,15,74,246,44,17,24,105,33,19,12,131,29*75
$GPGSV,2,2,06,24,43,269,37,28,40,054,47*7B
$GPRMC,105303.408,A,5050.4117,N,00420.8250,E,0.01,0.0,120319,,,A*55
$GPVTG,0.0,T,,M,0.01,N,0.02,K,A*0E
$GPGGA,105304.408,5050.4117,N,00420.8250,E,1,06,1.50,107.0,M,,M,,0000*73
$GPGLL,5050.4117,N,00420.8250,E,105304.408,A,A*5C
$GPGSA,A,3,13,15,17,19,24,28,,,,,,,2.50,1.50,2.00*07
$GPGSV,2,1,06,13,60,135,29,15,74,246,44,17,24,105,32,19,12,131,30*7D
$GPGSV,2,2,06,24,43,269,38,28,40,054,47*74
$GPRMC,105304.408,A,5050.4117,N,00420.8250,E,0.01,326.88,120319,,,A*65
$GPVTG,326.88,T,,M,0.01,N,0.02,K,A*39
$GPGGA,105305.408,5050.4117,N,00420.8249,E,1,06,1.50,107.0,M,,M,,0000*7A
$GPGLL,5050.4117,N,00420.8249,E,105305.408,A,A*55
$GPGSA,A,3,13,15,17,19,24,28,,,,,,,2.50,1.50,2.00*07
$GPGSV,2,1,06,13,59,135,28,15,74,246,44,17,24,105,33,19,12,131,29*7F
$GPGSV,2,2,06,24,43,269,37,28,40,054,47*7B
$GPRMC,105305.408,A,5050.4117,N,00420.8249,E,0.01,296.44,120319,,,A*66
$GPVTG,296.44,T,,M,0.01,N,0.03,K,A*32
$GPGGA,105306.408,5050.4117,N,00420.8249,E,1,06,1.50,107.0,M,,M,,0000*79
$GPGLL,5050.4117,N,00420.8249,E,105306.408,A,A*56
$GPGSA,A,3,13,15,17,19,24,28,,,,,,,2.50,1.50,2.00*07
$GPGSV,2,1,06,13,59,135,28,15,74,246,44,17,24,105,33,19,12,131,29*7F
$GPGSV,2,2,06,24,43,269,37,28,40,054,47*7B
$GPRMC,105306.408,A,5050.4117,N,00420.8249,E,0.07,149.51,120319,,,A*66
$GPVTG,149.51,T,,M,0.07,N,0.13,K,A*30
$GPGGA,105307.408,5050.4117,N,00420.8249,E,1,06,1.50,107.0,M,,M,,0000*78
$GPGLL,5050.4117,N,00420.8249,E,105307.408,A,A*57
$GPGSA,A,3,13,15,17,19,24,28,,,,,,,2.50,1.50,2.00*07
$GPGSV,2,1,06,13,59,135,26,15,74,246,44,17,24,105,32,19,12,131,29*70
$GPGSV,2,2,06,24,43,269,38,28,40,054,47*74
$GPRMC,105307.408,A,5050.4117,N,00420.8249,E,0.01,23.28,120319,,,A*52
$GPVTG,23.28,T,,M,0.01,N,0.02,K,A*05
$GPGGA,105308.408,5050.4117,N,00420.8249,E,1,06,1.50,107.0,M,,M,,0000*77
$GPGLL,5050.4117,N,00420.8249,E,105308.408,A,A*58
$GPGSA,A,3,13,15,17,19,24,28,,,,,,,2.50,1.50,2.00*07
$GPGSV,2,1,06,13,59,135,25,15,74,246,44,17,24,105,32,19,12,131,29*73
$GPGSV,2,2,06,24,43,269,37,28,40,054,47*7B
$GPRMC,105308.408,A,5050.4117,N,00420.8249,E,0.02,88.63,120319,,,A*50
$GPVTG,88.63,T,,M,0.02,N,0.04,K,A*0E
$GPGGA,105309.408,5050.4118,N,00420.8249,E,1,06,1.50,107.0,M,,M,,0000*79
$GPGLL,5050.4118,N,00420.8249,E,105309.408,A,A*56
$GPGSA,A,3,13,15,17,19,24,28,,,,,,,2.50,1.50,2.00*07
$GPGSV,2,1,06,13,59,135,24,15,74,246,44,17,24,105,32,19,12,131,29*72
$GPGSV,2,2,06,24,43,269,38,28,40,054,47*74
$GPRMC,105309.408,A,5050.4118,N,00420.8249,E,0.04,135.18,120319,,,A*63
$GPVTG,135.18,T,,M,0.04,N,0.08,K,A*3F
$GPGGA,105310.408,5050.4118,N,00420.8249,E,1,06,1.50,107.0,M,,M,,0000*71
$GPGLL,5050.4118,N,00420.8249,E,105310.408,A,A*5E
$GPGSA,A,3,13,15,17,19,24,28,,,,,,,2.50,1.50,2.00*07
$GPGSV,2,1,06,13,59,135,26,15,74,246,44,17,24,105,33,19,12,131,29*71
$GPGSV,2,2,06,24,43,269,38,28,40,054,47*74
$GPRMC,105310.408,A,5050.4118,N,00420.8249,E,0.02,107.43,120319,,,A*62
$GPVTG,107.43,T,,M,0.02,N,0.03,K,A*3D
$GPGGA,105311.408,5050.4118,N,00420.8248,E,1,06,1.50,107.0,M,,M,,0000*71
$GPGLL,5050.4118,N,00420.8248,E,105311.408,A,A*5E
$GPGSA,A,3,13,15,17,19,24,28,,,,,,,2.50,1.50,2.00*07
$GPGSV,2,1,06,13,59,135,24,15,74,246,44,17,24,105,33,19,12,131,29*73
$GPGSV,2,2,06,24,43,269,38,28,40,054,47*74
$GPRMC,105311.408,A,5050.4118,N,00420.8248,E,0.00,0.0,120319,,,A*51
$GPVTG,0.0,T,,M,0.00,N,0.01,K,A*0C
$GPGGA,105312.408,5050.4118,N,00420.8248,E,1,06,1.50,107.0,M,,M,,0000*72
$GPGLL,5050.4118,N,00420.8248,E,105312.408,A,A*5D
$GPGSA,A,3,13,15,17,19,24,28,,,,,,,2.50,1.50,2.00*07
$GPGSV,2,1,06,13,59,135,23,15,74,246,44,17,24,105,32,19,12,131,29*75
$GPGSV,2,2,06,24,43,269,38,28,40,054,47*74
$GPRMC,105312.408,A,5050.4118,N,00420.8248,E,0.05,150.40,120319,,,A*67
$GPVTG,150.40,T,,M,0.05,N,0.09,K,A*31
$GPGGA,105313.408,5050.4118,N,00420.8248,E,1,06,1.50,107.0,M,,M,,0000*73
$GPGLL,5050.4118,N,00420.8248,E,105313.408,A,A*5C
$GPGSA,A,3,13,15,17,19,24,28,,,,,,,2.50,1.50,2.00*07
$GPGSV,2,1,06,13,59,135,23,15,74,246,44,17,24,105,32,19,12,131,29*75
$GPGSV,2,2,06,24,43,269,38,28,40,054,47*74
$GPRMC,105313.408,A,5050.4118,N,00420.8248,E,0.01,180.06,120319,,,A*6D
$GPVTG,180.06,T,,M,0.01,N,0.03,K,A*30
$GPGGA,105314.408,5050.4118,N,00420.8248,E,1,06,1.50,107.0,M,,M,,0000*74
$GPGLL,5050.4118,N,00420.8248,E,105314.408,A,A*5B
$GPGSA,A,3,13,15,17,19,24,28,,,,,,,2.50,1.50,2.00*07
$GPGSV,2,1,06,13,59,135,23,15,74,246,44,17,24,105,32,19,12,131,29*75
$GPGSV,2,2,06,24,43,269,38,28,40,054,47*74
$GPRMC,105314.408,A,5050.4118,N,00420.8248,E,0.04,118.17,120319,,,A*6E
$GPVTG,118.17,T,,M,0.04,N,0.07,K,A*30
$GPGGA,105315.408,5050.4118,N,00420.8247,E,1,05,1.75,107.0,M,,M,,0000*7E
$GPGLL,5050.4118,N,00420.8247,E,105315.408,A,A*55
$GPGSA,A,3,13,15,17,19,24,,,,,,,,3.50,1.75,3.00*0A
$GPGSV,2,1,06,13,59,135,18,15,74,246,44,17,24,105,32,19,12,131,29*7D
$GPGSV,2,2,06,24,43,269,38,28,40,054,47*74
$GPRMC,105315.408,A,5050.4118,N,00420.8247,E,0.03,135.18,120319,,,A*67
$GPVTG,135.18,T,,M,0.03,N,0.06,K,A*36
$GPGGA,105316.408,5050.4118,N,00420.8247,E,1,05,1.75,107.0,M,,M,,0000*7D
$GPGLL,5050.4118,N,00420.8247,E,105316.408,A,A*56
$GPGSA,A,3,13,15,17,19,24,,,,,,,,3.50,1.75,3.00*0A
$GPGSV,2,1,06,13,59,135,18,15,74,246,44,17,24,105,32,19,12,131,28*7C
$GPGSV,2,2,06,24,43,269,38,28,40,054,47*74
$GPRMC,105316.408,A,5050.4118,N,00420.8247,E,0.03,102.95,120319,,,A*65
$GPVTG,102.95,T,,M,0.03,N,0.05,K,A*34
$GPGGA,105317.408,5050.4118,N,00420.8247,E,1,05,1.75,107.0,M,,M,,0000*7C
$GPGLL,5050.4118,N,00420.8247,E,105317.408,A,A*57
$GPGSA,A,3,13,15,17,19,24,,,,,,,,3.50,1.75,3.00*0A
$GPGSV,2,1,06,13,59,135,19,15,74,246,44,17,24,105,32,19,12,131,29*7C
$GPGSV,2,2,06,24,43,269,38,28,40,054,47*74
$GPRMC,105317.408,A,5050.4118,N,00420.8247,E,0.02,122.65,120319,,,A*68
$GPVTG,122.65,T,,M,0.02,N,0.04,K,A*39
$GPGGA,105318.408,5050.4118,N,00420.8247,E,1,06,1.50,107.0,M,,M,,0000*77
$GPGLL,5050.4118,N,00420.8247,E,105318.408,A,A*58
$GPGSA,A,3,13,15,17,19,24,28,,,,,,,2.50,1.50,2.00*07
$GPGSV,2,1,06,13,59,135,18,15,74,246,44,17,24,105,32,19,12,131,29*7D
$GPGSV,2,2,06,24,43,269,38,28,40,054,47*74
$GPRMC,105318.408,A,5050.4118,N,00420.8247,E,0.04,123.54,120319,,,A*62
$GPVTG,123.54,T,,M,0.04,N,0.07,K,A*3F
$GPGGA,105319.408,5050.4118,N,00420.8247,E,1,06,1.50,107.0,M,,M,,0000*76
$GPGLL,5050.4118,N,00420.8247,E,105319.408,A,A*59
$GPGSA,A,3,13,15,17,19,24,28,,,,,,,2.50,1.50,2.00*07
$GPGSV,2,1,06,13,59,135,18,15,74,246,44,17,24,105,32,19,12,131,29*7D
$GPGSV,2,2,06,24,43,269,38,28,40,054,47*74
$GPRMC,105319.408,A,5050.4118,N,00420.8247,E,0.02,135.18,120319,,,A*6A
$GPVTG,135.18,T,,M,0.02,N,0.05,K,A*34
$GPGGA,105320.408,5050.4118,N,00420.8247,E,1,05,1.75,107.0,M,,M,,0000*78
$GPGLL,5050.4118,N,00420.8247,E,105320.408,A,A*53
$GPGSA,A,3,13,15,17,19,24,,,,,,,,3.50,1.75,3.00*0A
$GPGSV,2,1,06,13,59,135,19,15,74,246,44,17,24,105,32,19,12,131,28*7D
$GPGSV,2,2,06,24,43,269,38,28,40,054,47*74
$GPRMC,105320.408,A,5050.4118,N,00420.8247,E,0.01,0.0,120319,,,A*5D
$GPVTG,0.0,T,,M,0.01,N,0.02,K,A*0E
$GPGGA,105321.408,5050.4118,N,00420.8247,E,1,05,1.75,107.0,M,,M,,0000*79
$GPGLL,5050.4118,N,00420.8247,E,105321.408,A,A*52
$GPGSA,A,3,13,15,17,19,24,,,,,,,,3.50,1.75,3.00*0A
$GPGSV,2,1,06,13,59,135,19,15,74,246,44,17,24,105,32,19,12,131,27*72
$GPGSV,2,2,06,24,43,269,38,28,40,054,47*74
$GPRMC,105321.408,A,5050.4118,N,00420.8247,E,0.01,0.0,120319,,,A*5C
$GPVTG,0.0,T,,M,0.01,N,0.02,K,A*0E
$GPGGA,105322.408,5050.4118,N,00420.8247,E,1,05,1.75,107.0,M,,M,,0000*7A
$GPGLL,5050.4118,N,00420.8247,E,105322.408,A,A*51
$GPGSA,A,3,13,15,17,19,24,,,,,,,,3.50,1.75,3.00*0A
$GPGSV,2,1,06,13,59,135,26,15,74,245,44,17,24,105,32,19,12,131,28*72
$GPGSV,2,2,06,24,43,269,38,28,40,054,47*74
$GPRMC,105322.408,A,5050.4118,N,00420.8247,E,0.02,176.36,120319,,,A*69
$GPVTG,176.36,T,,M,0.02,N,0.04,K,A*3E
$GPGGA,105323.408,5050.4118,N,00420.8246,E,1,06,1.50,107.0,M,,M,,0000*7E
$GPGLL,5050.4118,N,00420.8246,E,105323.408,A,A*51
$GPGSA,A,3,13,15,17,19,24,28,,,,,,,2.50,1.50,2.00*07
$GPGSV,2,1,06,13,59,135,26,15,74,245,44,17,24,105,33,19,12,131,29*72
$GPGSV,2,2,06,24,43,269,38,28,40,054,47*74
$GPRMC,105323.408,A,5050.4118,N,00420.8246,E,0.04,135.18,120319,,,A*64
$GPVTG,135.18,T,,M,0.04,N,0.08,K,A*3F
$GPGGA,105324.408,5050.4118,N,00420.8246,E,1,05,1.75,107.0,M,,M,,0000*7D
$GPGLL,5050.4118,N,00420.8246,E,105324.408,A,A*56
$GPGSA,A,3,13,15,17,19,24,,,,,,,,3.50,1.75,3.00*0A
$GPGSV,2,1,06,13,59,135,26,15,74,245,44,17,24,105,33,19,12,131,29*72
$GPGSV,2,2,06,24,43,269,38,28,40,054,47*74
$GPRMC,105324.408,A,5050.4118,N,00420.8246,E,0.03,137.87,120319,,,A*60
$GPVTG,137.87,T,,M,0.03,N,0.06,K,A*32
$GPGGA,105325.408,5050.4118,N,00420.8246,E,1,05,1.75,107.0,M,,M,,0000*7C
$GPGLL,5050.4118,N,00420.8246,E,105325.408,A,A*57
$GPGSA,A,3,13,15,17,19,24,,,,,,,,3.50,1.75,3.00*0A
$GPGSV,2,1,06,13,59,135,26,15,74,245,44,17,24,105,32,19,12,131,29*73
$GPGSV,2,2,06,24,43,269,38,28,40,054,47*74
$GPRMC,105325.408,A,5050.4118,N,00420.8246,E,0.01,140.55,120319,,,A*6C
$GPVTG,140.55,T,,M,0.01,N,0.03,K,A*3A
$GPGGA,105326.408,5050.4119,N,00420.8246,E,1,06,1.50,107.0,M,,M,,0000*7A
$GPGLL,5050.4119,N,00420.8246,E,105326.408,A,A*55
$GPGSA,A,3,13,15,17,19,24,28,,,,,,,2.50,1.50,2.00*07
$GPGSV,2,1,06,13,59,135,27,15,74,245,43,17,24,105,33,19,12,131,29*74
$GPGSV,2,2,06,24,43,269,38,28,40,054,47*74
$GPRMC,105326.408,A,5050.4119,N,00420.8246,E,0.01,0.0,120319,,,A*5B
$GPVTG,0.0,T,,M,0.01,N,0.02,K,A*0E
$GPGGA,105327.408,5050.4119,N,00420.8246,E,1,06,1.50,107.0,M,,M,,0000*7B
$GPGLL,5050.4119,N,00420.8246,E,105327.408,A,A*54
$GPGSA,A,3,13,15,17,19,24,28,,,,,,,2.50,1.50,2.00*07
$GPGSV,2,1,06,13,59,135,27,15,74,245,44,17,24,105,33,19,12,131,29*73
$GPGSV,2,2,06,24,43,269,38,28,40,054,47*74
$GPRMC,105327.408,A,5050.4119,N,00420.8246,E,0.00,0.0,120319,,,A*5B
$GPVTG,0.0,T,,M,0.00,N,0.00,K,A*0D
$GPGGA,105328.408,5050.4119,N,00420.8246,E,1,06,1.50,107.0,M,,M,,0000*74
$GPGLL,5050.4119,N,00420.8246,E,105328.408,A,A*5B
$GPGSA,A,3,13,15,17,19,24,28,,,,,,,2.50,1.50,2.00*07
$GPGSV,2,1,06,13,59,135,28,15,74,245,43,17,24,105,33,19,12,131,27*75
$GPGSV,2,2,06,24,43,269,38,28,40,054,47*74
$GPRMC,105328.408,A,5050.4119,N,00420.8246,E,0.03,314.34,120319,,,A*66
$GPVTG,314.34,T,,M,0.03,N,0.06,K,A*39
$GPGGA,105329.408,5050.4119,N,00420.8246,E,1,06,1.50,107.0,M,,M,,0000*75
$GPGLL,5050.4119,N,00420.8246,E,105329.408,A,A*5A
$GPGSA,A,3,13,15,17,19,24,28,,,,,,,2.50,1.50,2.00*07
$GPGSV,2,1,06,13,59,135,29,15,74,245,43,17,24,105,33,19,13,131,29*7B
$GPGSV,2,2,06,24,43,269,38,28,40,054,47*74
$GPRMC,105329.408,A,5050.4119,N,00420.8246,E,0.00,0.0,120319,,,A*55
$GPVTG,0.0,T,,M,0.00,N,0.00,K,A*0D
$GPGGA,105330.408,5050.4119,N,00420.8246,E,1,06,1.50,107.0,M,,M,,0000*7D
$GPGLL,5050.4119,N,00420.8246,E,105330.408,A,A*52
$GPGSA,A,3,13,15,17,19,24,28,,,,,,,2.50,1.50,2.00*07
$GPGSV,2,1,06,13,59,135,29,15,74,245,43,17,24,105,33,19,13,131,29*7B
$GPGSV,2,2,06,24,43,269,38,28,40,054,47*74
$GPRMC,105330.408,A,5050.4119,N,00420.8246,E,0.00,0.0,120319,,,A*5D
$GPVTG,0.0,T,,M,0.00,N,0.01,K,A*0C
$GPGGA,105331.408,5050.4119,N,00420.8245,E,1,06,1.50,107.0,M,,M,,0000*7F
$GPGLL,5050.4119,N,00420.8245,E,105331.408,A,A*50
$GPGSA,A,3,13,15,17,19,24,28,,,,,,,2.50,1.50,2.00*07
$GPGSV,2,1,06,13,59,135,29,15,74,245,43,17,24,105,32,19,13,131,29*7A
$GPGSV,2,2,06,24,43,269,38,28,40,054,47*74
$GPRMC,105331.408,A,5050.4119,N,00420.8245,E,0.01,0.0,120319,,,A*5E
$GPVTG,0.0,T,,M,0.01,N,0.02,K,A*0E
$GPGGA,105332.408,5050.4119,N,00420.8245,E,1,06,1.50,107.0,M,,M,,0000*7C
$GPGLL,5050.4119,N,00420.8245,E,105332.408,A,A*53
$GPGSA,A,3,13,15,17,19,24,28,,,,,,,2.50,1.50,2.00*07
$GPGSV,2,1,06,13,59,135,29,15,74,245,43,17,24,105,33,19,13,131,29*7B
$GPGSV,2,2,06,24,43,269,38,28,40,054,47*74
$GPRMC,105332.408,A,5050.4119,N,00420.8245,E,0.00,0.0,120319,,,A*5C
$GPVTG,0.0,T,,M,0.00,N,0.01,K,A*0C
$GPGGA,105333.408,5050.4119,N,00420.8245,E,1,06,1.50,107.0,M,,M,,0000*7D
$GPGLL,5050.4119,N,00420.8245,E,105333.408,A,A*52
$GPGSA,A,3,13,15,17,19,24,28,,,,,,,2.50,1.50,2.00*07
$GPGSV,2,1,06,13,59,135,29,15,74,245,43,17,24,105,32,19,13,131,29*7A
$GPGSV,2,2,06,24,43,269,38,28,40,054,47*74
$GPRMC,105333.408,A,5050.4119,N,00420.8245,E,0.01,0.0,120319,,,A*5C
$GPVTG,0.0,T,,M,0.01,N,0.01,K,A*0D
$GPGGA,105334.408,5050.4119,N,00420.8244,E,1,06,1.50,107.0,M,,M,,0000*7B
$GPGLL,5050.4119,N,00420.8244,E,105334.408,A,A*54
$GPGSA,A,3,13,15,17,19,24,28,,,,,,,2.50,1.50,2.00*07
$GPGSV,2,1,06,13,59,135,29,15,74,245,43,17,24,105,33,19,13,131,28*7A
$GPGSV,2,2,06,24,43,269,37,28,40,054,47*7B
$GPRMC,105334.408,A,5050.4119,N,00420.8244,E,0.00,0.0,120319,,,A*5B
$GPVTG,0.0,T,,M,0.00,N,0.01,K,A*0C
$GPGGA,105335.408,5050.4119,N,00420.8244,E,1,06,1.50,107.0,M,,M,,0000*7A
$GPGLL,5050.4119,N,00420.8244,E,105335.408,A,A*55
$GPGSA,A,3,13,15,17,19,24,28,,,,,,,2.50,1.50,2.00*07
$GPGSV,2,1,06,13,59,135,29,15,74,245,43,17,24,105,33,19,13,131,29*7B
$GPGSV,2,2,06,24,43,269,38,28,40,054,47*74
$GPRMC,105335.408,A,5050.4119,N,00420.8244,E,0.00,0.0,120319,,,A*5A
$GPVTG,0.0,T,,M,0.00,N,0.01,K,A*0C
$GPGGA,105336.408,5050.4119,N,00420.8244,E,1,06,1.50,107.0,M,,M,,0000*79
$GPGLL,5050.4119,N,00420.8244,E,105336.408,A,A*56
$GPGSA,A,3,13,15,17,19,24,28,,,,,,,2.50,1.50,2.00*07
$GPGSV,2,1,06,13,59,135,29,15,74,245,43,17,24,105,33,19,13,131,28*7A
$GPGSV,2,2,06,24,43,269,38,28,40,054,47*74
$GPRMC,105336.408,A,5050.4119,N,00420.8244,E,0.02,136.97,120319,,,A*61
$GPVTG,136.97,T,,M,0.02,N,0.04,K,A*31
$GPGGA,105337.408,5050.4120,N,00420.8244,E,1,06,1.50,106.0,M,,M,,0000*73
$GPGLL,5050.4120,N,00420.8244,E,105337.408,A,A*5D
$GPGSA,A,3,13,15,17,19,24,28,,,,,,,2.50,1.50,2.00*07
$GPGSV,2,1,06,13,59,135,28,15,74,245,43,17,24,105,33,19,13,131,29*7A
$GPGSV,2,2,06,24,43,269,38,28,40,054,47*74
$GPRMC,105337.408,A,5050.4120,N,00420.8244,E,0.00,0.0,120319,,,A*52
$GPVTG,0.0,T,,M,0.00,N,0.00,K,A*0D
$GPGGA,105338.408,5050.4120,N,00420.8244,E,1,06,1.50,106.0,M,,M,,0000*7C
$GPGLL,5050.4120,N,00420.8244,E,105338.408,A,A*52
$GPGSA,A,3,13,15,17,19,24,28,,,,,,,2.50,1.50,2.00*07
$GPGSV,2,1,06,13,59,135,28,15,74,245,43,17,24,105,33,19,13,131,29*7A
$GPGSV,2,2,06,24,43,269,38,28,40,054,47*74
$GPRMC,105338.408,A,5050.4120,N,00420.8244,E,0.02,351.94,120319,,,A*65
$GPVTG,351.94,T,,M,0.02,N,0.04,K,A*31
$GPGGA,105339.408,5050.4120,N,00420.8244,E,1,06,1.50,106.0,M,,M,,0000*7D
$GPGLL,5050.4120,N,00420.8244,E,105339.408,A,A*53
$GPGSA,A,3,13,15,17,19,24,28,,,,,,,2.50,1.50,2.00*07
$GPGSV,2,1,06,13,59,135,29,15,74,245,43,17,24,105,33,19,13,131,28*7A
$GPGSV,2,2,06,24,43,269,37,28,40,054,47*7B
$GPRMC,105339.408,A,5050.4120,N,00420.8244,E,0.03,329.56,120319,,,A*64
$GPVTG,329.56,T,,M,0.03,N,0.07,K,A*32
$GPGGA,105340.408,5050.4121,N,00420.8244,E,1,06,1.50,106.0,M,,M,,0000*72
$GPGLL,5050.4121,N,00420.8244,E,105340.408,A,A*5C
$GPGSA,A,3,13,15,17,19,24,28,,,,,,,2.50,1.50,2.00*07
$GPGSV,2,1,06,13,59,135,28,15,74,245,44,17,24,105,33,19,13,131,27*73
$GPGSV,2,2,06,24,43,269,37,28,40,054,47*7B
$GPRMC,105340.408,A,5050.4121,N,00420.8244,E,0.03,325.09,120319,,,A*6D
$GPVTG,325.09,T,,M,0.03,N,0.06,K,A*35
$GPGGA,105341.408,5050.4121,N,00420.8244,E,1,06,1.50,106.0,M,,M,,0000*73
$GPGLL,5050.4121,N,00420.8244,E,105341.408,A,A*5D
$GPGSA,A,3,13,15,17,19,24,28,,,,,,,2.50,1.50,2.00*07
$GPGSV,2,1,06,13,59,135,28,15,74,245,43,17,24,105,33,19,13,131,27*74
$GPGSV,2,2,06,24,43,269,37,28,40,054,47*7B
$GPRMC,105341.408,A,5050.4121,N,00420.8244,E,0.02,259.73,120319,,,A*6A
$GPVTG,259.73,T,,M,0.02,N,0.04,K,A*31
$GPGGA,105342.408,5050.4121,N,00420.8243,E,1,06,1.50,106.0,M,,M,,0000*77
$GPGLL,5050.4121,N,00420.8243,E,105342.408,A,A*59
$GPGSA,A,3,13,15,17,19,24,28,,,,,,,2.50,1.50,2.00*07
$GPGSV,2,1,06,13,59,135,28,15,74,245,43,17,24,105,33,19,13,131,27*74
$GPGSV,2,2,06,24,43,269,37,28,40,054,47*7B
$GPRMC,105342.408,A,5050.4121,N,00420.8243,E,0.01,281.22,120319,,,A*6C
$GPVTG,281.22,T,,M,0.01,N,0.03,K,A*34
$GPGGA,105343.408,5050.4121,N,00420.8243,E,1,06,1.50,106.0,M,,M,,0000*76
$GPGLL,5050.4121,N,00420.8243,E,105343.408,A,A*58
$GPGSA,A,3,13,15,17,19,24,28,,,,,,,2.50,1.50,2.00*07
$GPGSV,2,1,06,13,59,135,27,15,74,245,43,17,24,105,32,19,13,131,28*75
$GPGSV,2,2,06,24,43,269,37,28,40,054,47*7B
$GPRMC,105343.408,A,5050.4121,N,00420.8243,E,0.00,0.0,120319,,,A*57
$GPVTG,0.0,T,,M,0.00,N,0.01,K,A*0C
$GPGGA,105344.408,5050.4121,N,00420.8243,E,1,06,1.50,106.0,M,,M,,0000*71
$GPGLL,5050.4121,N,00420.8243,E,105344.408,A,A*5F
$GPGSA,A,3,13,15,17,19,24,28,,,,,,,2.50,1.50,2.00*07
$GPGSV,2,1,06,13,59,135,28,15,74,245,43,17,24,105,32,19,13,131,28*7A
$GPGSV,2,2,06,24,43,269,37,28,40,054,47*7B
$GPRMC,105344.408,A,5050.4121,N,00420.8243,E,0.01,76.99,120319,,,A*50
$GPVTG,76.99,T,,M,0.01,N,0.03,K,A*0E
$GPGGA,105345.408,5050.4121,N,00420.8243,E,1,06,1.50,106.0,M,,M,,0000*70
$GPGLL,5050.4121,N,00420.8243,E,105345.408,A,A*5E
$GPGSA,A,3,13,15,17,19,24,28,,,,,,,2.50,1.50,2.00*07
$GPGSV,2,1,06,13,59,135,27,15,74,245,43,17,24,105,32,19,13,131,26*7B
$GPGSV,2,2,06,24,43,269,37,28,40,054,47*7B
$GPRMC,105345.408,A,5050.4121,N,00420.8243,E,0.02,132.50,120319,,,A*66
$GPVTG,132.50,T,,M,0.02,N,0.03,K,A*39
$GPGGA,105346.408,5050.4121,N,00420.8243,E,1,06,1.50,106.0,M,,M,,0000*73
$GPGLL,5050.4121,N,00420.8243,E,105346.408,A,A*5D
$GPGSA,A,3,13,15,17,19,24,28,,,,,,,2.50,1.50,2.00*07
$GPGSV,2,1,06,13,59,135,27,15,74,245,43,17,24,105,32,19,13,131,27*7A
$GPGSV,2,2,06,24,43,269,37,28,40,054,47*7B
$GPRMC,105346.408,A,5050.4121,N,00420.8243,E,0.03,145.03,120319,,,A*62
$GPVTG,145.03,T,,M,0.03,N,0.06,K,A*3B
$GPGGA,105347.408,5050.4121,N,00420.8243,E,1,06,1.50,106.0,M,,M,,0000*72
$GPGLL,5050.4121,N,00420.8243,E,105347.408,A,A*5C
$GPGSA,A,3,13,15,17,19,24,28,,,,,,,2.50,1.50,2.00*07
$GPGSV,2,1,06,13,59,135,27,15,74,245,43,17,24,105,32,19,13,131,28*75
$GPGSV,2,2,06,24,43,269,37,28,40,054,47*7B
$GPRMC,105347.408,A,5050.4121,N,00420.8243,E,0.01,188.11,120319,,,A*63
$GPVTG,188.11,T,,M,0.01,N,0.02,K,A*3F
$GPGGA,105348.408,5050.4121,N,00420.8243,E,1,06,1.50,106.0,M,,M,,0000*7D
$GPGLL,5050.4121,N,00420.8243,E,105348.408,A,A*53
$GPGSA,A,3,13,15,17,19,24,28,,,,,,,2.50,1.50,2.00*07
$GPGSV,2,1,06,13,59,135,28,15,74,245,43,17,24,105,32,19,13,131,28*7A
$GPGSV,2,2,06,24,43,269,37,28,40,054,47*7B
$GPRMC,105348.408,A,5050.4121,N,00420.8243,E,0.02,294.65,120319,,,A*62
$GPVTG,294.65,T,,M,0.02,N,0.05,K,A*36
$GPGGA,105349.408,5050.4121,N,00420.8243,E,1,06,1.50,106.0,M,,M,,0000*7C
$GPGLL,5050.4121,N,00420.8243,E,105349.408,A,A*52
$GPGSA,A,3,13,15,17,19,24,28,,,,,,,2.50,1.50,2.00*07
$GPGSV,2,1,06,13,59,135,28,15,74,245,43,17,24,105,32,19,13,131,28*7A
$GPGSV,2,2,06,24,43,269,37,28,40,054,47*7B
$GPRMC,105349.408,A,5050.4121,N,00420.8243,E,0.02,283.01,120319,,,A*67
$GPVTG,283.01,T,,M,0.02,N,0.04,K,A*33
$GPGGA,105350.408,5050.4121,N,00420.8242,E,1,06,1.50,106.0,M,,M,,0000*75
$GPGLL,5050.4121,N,00420.8242,E,105350.408,A,A*5B
$GPGSA,A,3,13,15,17,19,24,28,,,,,,,2.50,1.50,2.00*07
$GPGSV,2,1,06,13,59,135,29,15,74,245,43,17,24,105,33,19,13,131,28*7A
$GPGSV,2,2,06,24,43,269,37,28,40,054,47*7B
$GPRMC,105350.408,A,5050.4121,N,00420.8242,E,0.01,306.29,120319,,,A*6B
$GPVTG,306.29,T,,M,0.01,N,0.02,K,A*30
$GPGGA,105351.408,5050.4121,N,00420.8242,E,1,06,1.50,106.0,M,,M,,0000*74
$GPGLL,5050.4121,N,00420.8242,E,105351.408,A,A*5A
$GPGSA,A,3,13,15,17,19,24,28,,,,,,,2.50,1.50,2.00*07
$GPGSV,2,1,06,13,59,135,29,15,74,245,43,17,24,105,32,19,13,131,27*74
$GPGSV,2,2,06,24,43,269,37,28,40,054,47*7B
$GPRMC,105351.408,A,5050.4121,N,00420.8242,E,0.00,0.0,120319,,,A*55
$GPVTG,0.0,T,,M,0.00,N,0.01,K,A*0C
$GPGGA,105352.408,5050.4121,N,00420.8242,E,1,06,1.50,106.0,M,,M,,0000*77
$GPGLL,5050.4121,N,00420.8242,E,105352.408,A,A*59
$GPGSA,A,3,13,15,17,19,24,28,,,,,,,2.50,1.50,2.00*07
$GPGSV,2,1,06,13,59,135,30,15,74,244,43,17,24,105,32,19,13,131,28*72
$GPGSV,2,2,06,24,43,270,37,28,40,054,47*73
$GPRMC,105352.408,A,5050.4121,N,00420.8242,E,0.01,0.0,120319,,,A*57
$GPVTG,0.0,T,,M,0.01,N,0.02,K,A*0E
$GPGGA,105353.408,5050.4121,N,00420.8242,E,1,06,1.50,106.0,M,,M,,0000*76
$GPGLL,5050.4121,N,00420.8242,E,105353.408,A,A*58
$GPGSA,A,3,13,15,17,19,24,28,,,,,,,2.50,1.50,2.00*07
$GPGSV,2,1,06,13,59,135,29,15,74,244,43,17,24,105,33,19,13,131,27*74
$GPGSV,2,2,06,24,43,270,37,28,40,054,47*73
$GPRMC,105353.408,A,5050.4121,N,00420.8242,E,0.00,0.0,120319,,,A*57
$GPVTG,0.0,T,,M,0.00,N,0.00,K,A*0D
$GPGGA,105354.408,5050.4121,N,00420.8242,E,1,06,1.50,106.0,M,,M,,0000*71
$GPGLL,5050.4121,N,00420.8242,E,105354.408,A,A*5F
$GPGSA,A,3,13,15,17,19,24,28,,,,,,,2.50,1.50,2.00*07
$GPGSV,2,1,06,13,59,135,31,15,74,244,43,17,24,105,32,19,13,131,27*7C
$GPGSV,2,2,06,24,43,270,37,28,40,054,47*73
$GPRMC,105354.408,A,5050.4121,N,00420.8242,E,0.01,0.0,120319,,,A*51
$GPVTG,0.0,T,,M,0.01,N,0.02,K,A*0E
$GPGGA,105355.408,5050.4122,N,00420.8241,E,1,06,1.50,106.0,M,,M,,0000*70
$GPGLL,5050.4122,N,00420.8241,E,105355.408,A,A*5E
$GPGSA,A,3,13,15,17,19,24,28,,,,,,,2.50,1.50,2.00*07
$GPGSV,2,1,06,13,59,135,31,15,74,244,43,17,24,105,32,19,13,131,27*7C
$GPGSV,2,2,06,24,43,270,37,28,40,054,47*73
$GPRMC,105355.408,A,5050.4122,N,00420.8241,E,0.06,328.67,120319,,,A*6F
$GPVTG,328.67,T,,M,0.06,N,0.12,K,A*30
$GPGGA,105356.408,5050.4122,N,00420.8241,E,1,06,1.50,106.0,M,,M,,0000*73
$GPGLL,5050.4122,N,00420.8241,E,105356.408,A,A*5D
$GPGSA,A,3,13,15,17,19,24,28,,,,,,,2.50,1.50,2.00*07
$GPGSV,2,1,06,13,59,135,29,15,74,244,43,17,24,105,32,19,13,131,27*75
$GPGSV,2,2,06,24,43,270,37,28,40,054,47*73
$GPRMC,105356.408,A,5050.4122,N,00420.8241,E,0.08,346.57,120319,,,A*69
$GPVTG,346.57,T,,M,0.08,N,0.16,K,A*31
$GPGGA,105357.408,5050.4122,N,00420.8241,E,1,06,1.50,105.0,M,,M,,0000*71
$GPGLL,5050.4122,N,00420.8241,E,105357.408,A,A*5C
$GPGSA,A,3,13,15,17,19,24,28,,,,,,,2.50,1.50,2.00*07
$GPGSV,2,1,06,13,59,135,29,15,74,244,43,17,24,105,32,19,13,131,26*74
$GPGSV,2,2,06,24,43,270,37,28,40,054,47*73
$GPRMC,105357.408,A,5050.4122,N,00420.8241,E,0.05,342.10,120319,,,A*62
$GPVTG,342.10,T,,M,0.05,N,0.10,K,A*3D
$GPGGA,105358.408,5050.4122,N,00420.8241,E,1,06,1.50,105.0,M,,M,,0000*7E
$GPGLL,5050.4122,N,00420.8241,E,105358.408,A,A*53
$GPGSA,A,3,13,15,17,19,24,28,,,,,,,2.50,1.50,2.00*07
$GPGSV,2,1,06,13,59,135,29,15,74,244,43,17,24,105,32,19,13,131,28*7A
$GPGSV,2,2,06,24,43,270,37,28,40,054,47*73
$GPRMC,105358.408,A,5050.4122,N,00420.8241,E,0.01,4.48,120319,,,A*65
$GPVTG,4.48,T,,M,0.01,N,0.02,K,A*36
$GPGGA,105359.408,5050.4122,N,00420.8241,E,1,06,1.50,105.0,M,,M,,0000*7F
$GPGLL,5050.4122,N,00420.8241,E,105359.408,A,A*52
$GPGSA,A,3,13,15,17,19,24,28,,,,,,,2.50,1.50,2.00*07
$GPGSV,2,1,06,13,59,135,29,15,74,244,43,17,24,105,32,19,13,130,26*75
$GPGSV,2,2,06,24,43,270,37,28,40,054,47*73
$GPRMC,105359.408,A,5050.4122,N,00420.8241,E,0.08,342.99,120319,,,A*60
$GPVTG,342.99,T,,M,0.08,N,0.16,K,A*37
$GPGGA,105400.408,5050.4123,N,00420.8241,E,1,06,1.50,105.0,M,,M,,0000*75
$GPGLL,5050.4123,N,00420.8241,E,105400.408,A,A*58
$GPGSA,A,3,13,15,17,19,24,28,,,,,,,2.50,1.50,2.00*07
$GPGSV,2,1,06,13,59,135,29,15,74,244,43,17,24,105,32,19,13,130,27*74
$GPGSV,2,2,06,24,43,270,37,28,40,054,47*73
$GPRMC,105400.408,A,5050.4123,N,00420.8241,E,0.02,2.69,120319,,,A*68
$GPVTG,2.69,T,,M,0.02,N,0.05,K,A*37
$GPGGA,105401.408,5050.4123,N,00420.8241,E,1,06,1.50,105.0,M,,M,,0000*74
$GPGLL,5050.4123,N,00420.8241,E,105401.408,A,A*59
$GPGSA,A,3,13,15,17,19,24,28,,,,,,,2.50,1.50,2.00*07
$GPGSV,2,1,06,13,59,135,29,15,74,244,43,17,24,105,31,19,13,130,26*76
$GPGSV,2,2,06,24,43,270,37,28,40,054,47*73
$GPRMC,105401.408,A,5050.4123,N,00420.8241,E,0.01,303.60,120319,,,A*61
$GPVTG,303.60,T,,M,0.01,N,0.03,K,A*39
$GPGGA,105402.408,5050.4123,N,00420.8240,E,1,06,1.50,105.0,M,,M,,0000*76
$GPGLL,5050.4123,N,00420.8240,E,105402.408,A,A*5B
$GPGSA,A,3,13,15,17,19,24,28,,,,,,,2.50,1.50,2.00*07
$GPGSV,2,1,06,13,59,135,28,15,74,244,43,17,24,105,32,19,13,130,26*74
$GPGSV,2,2,06,24,43,270,37,28,40,054,47*73
$GPRMC,105402.408,A,5050.4123,N,00420.8240,E,0.01,85.94,120319,,,A*55
$GPVTG,85.94,T,,M,0.01,N,0.03,K,A*0F
$GPGGA,105403.408,5050.4123,N,00420.8240,E,1,06,1.50,105.0,M,,M,,0000*77
$GPGLL,5050.4123,N,00420.8240,E,105403.408,A,A*5A
$GPGSA,A,3,13,15,17,19,24,28,,,,,,,2.50,1.50,2.00*07
$GPGSV,2,1,06,13,59,135,29,15,74,244,43,17,24,105,32,19,13,130,27*74
$GPGSV,2,2,06,24,43,270,37,28,40,054,47*73
$GPRMC,105403.408,A,5050.4123,N,00420.8240,E,0.04,348.36,120319,,,A*6B
$GPVTG,348.36,T,,M,0.04,N,0.08,K,A*3B
$GPGGA,105404.408,5050.4123,N,00420.8240,E,1,06,1.50,105.0,M,,M,,0000*70
$GPGLL,5050.4123,N,00420.8240,E,105404.408,A,A*5D
$GPGSA,A,3,13,15,17,19,24,28,,,,,,,2.50,1.50,2.00*07
