$GPRMC,230148,A,3348.605,N,11821.126,W,000.0,209.4,261002,013.8,E*6B
{"class":"TPV","mode":2,"time":"2002-10-26T23:01:48.000Z","ept":0.005,"lat":33.810083333,"lon":-118.352100000,"track":209.4000,"magtrack":223.2000,"magvar":13.8,"speed":0.000}
$GPRMB,A,,,,,,,,,,,,V*71
$GPGGA,230149,3348.605,N,11821.126,W,1,05,1.7,49.4,M,-32.4,M,,*4E
$GPGSA,A,3,07,08,,,27,28,29,,,,,,4.2,1.7,3.8*32
$GPGSV,2,1,08,07,43,197,44,08,68,062,43,11,18,089,00,26,24,314,43*73
$GPGSV,2,2,08,27,48,103,46,28,66,323,42,29,33,306,43,31,10,040,00*78
{"class":"SKY","xdop":1.21,"ydop":1.17,"vdop":3.80,"tdop":2.91,"hdop":1.70,"gdop":5.05,"pdop":4.20,"satellites":[{"PRN":7,"el":43.0,"az":197.0,"ss":44.0,"used":true,"gnssid":0,"svid":7},{"PRN":8,"el":68.0,"az":62.0,"ss":43.0,"used":true,"gnssid":0,"svid":8},{"PRN":11,"el":18.0,"az":89.0,"ss":0.0,"used":false,"gnssid":0,"svid":11},{"PRN":26,"el":24.0,"az":314.0,"ss":43.0,"used":false,"gnssid":0,"svid":26},{"PRN":27,"el":48.0,"az":103.0,"ss":46.0,"used":true,"gnssid":0,"svid":27},{"PRN":28,"el":66.0,"az":323.0,"ss":42.0,"used":true,"gnssid":0,"svid":28},{"PRN":29,"el":33.0,"az":306.0,"ss":43.0,"used":true,"gnssid":0,"svid":29},{"PRN":31,"el":10.0,"az":40.0,"ss":0.0,"used":false,"gnssid":0,"svid":31}]}
$PGRME,17.4,M,40.3,M,43.9,M*15
$GPGLL,3348.605,N,11821.126,W,230149,A*34
$PGRMZ,162,f,3*1E
$PGRMM,NAD83*29
$GPBOD,,T,,M,,*47
$GPRTE,1,1,c,0*07
$GPRMC,230150,A,3348.606,N,11821.125,W,000.0,209.4,261002,013.8,E*62
{"class":"TPV","mode":3,"time":"2002-10-26T23:01:50.000Z","ept":0.005,"lat":33.810100000,"lon":-118.352083333,"epx":18.182,"epy":17.555,"epv":87.400,"track":209.4000,"magtrack":223.2000,"magvar":13.8,"speed":0.000,"eps":43.73,"epc":171.07,"geoidSep":-34.288,"eph":32.300,"sep":79.800}
$GPRMB,A,,,,,,,,,,,,V*71
$GPGGA,230151,3348.607,N,11821.124,W,1,05,1.7,49.2,M,-32.4,M,,*41
$GPGSA,A,3,07,08,,,27,28,29,,,,,,4.2,1.7,3.8*32
$GPGSV,2,1,08,07,43,197,45,08,68,062,42,11,18,089,00,26,24,314,43*73
$GPGSV,2,2,08,27,48,103,46,28,66,323,42,29,33,306,44,31,10,040,00*7F
{"class":"SKY","xdop":1.21,"ydop":1.17,"vdop":3.80,"tdop":2.91,"hdop":1.70,"gdop":5.05,"pdop":4.20,"satellites":[{"PRN":7,"el":43.0,"az":197.0,"ss":45.0,"used":true,"gnssid":0,"svid":7},{"PRN":8,"el":68.0,"az":62.0,"ss":42.0,"used":true,"gnssid":0,"svid":8},{"PRN":11,"el":18.0,"az":89.0,"ss":0.0,"used":false,"gnssid":0,"svid":11},{"PRN":26,"el":24.0,"az":314.0,"ss":43.0,"used":false,"gnssid":0,"svid":26},{"PRN":27,"el":48.0,"az":103.0,"ss":46.0,"used":true,"gnssid":0,"svid":27},{"PRN":28,"el":66.0,"az":323.0,"ss":42.0,"used":true,"gnssid":0,"svid":28},{"PRN":29,"el":33.0,"az":306.0,"ss":44.0,"used":true,"gnssid":0,"svid":29},{"PRN":31,"el":10.0,"az":40.0,"ss":0.0,"used":false,"gnssid":0,"svid":31}]}
$PGRME,17.4,M,40.3,M,43.9,M*15
$GPGLL,3348.607,N,11821.124,W,230151,A*3D
{"class":"TPV","mode":3,"time":"2002-10-26T23:01:51.000Z","ept":0.005,"lat":33.810116667,"lon":-118.352066667,"altHAE":16.800,"altMSL":49.200,"epx":25.546,"epy":25.546,"epv":83.674,"magvar":11.8,"speed":2.408,"eps":36.36,"epc":174.80,"geoidSep":-32.400,"eph":32.300,"sep":91.148}
$PGRMZ,161,f,3*1D
$PGRMM,NAD83*29
$GPBOD,,T,,M,,*47
$GPRTE,1,1,c,0*07
$GPRMC,230152,A,3348.607,N,11821.124,W,000.0,209.4,261002,013.8,E*60
{"class":"TPV","mode":3,"time":"2002-10-26T23:01:52.000Z","ept":0.005,"lat":33.810116667,"lon":-118.352066667,"epx":18.182,"epy":17.555,"epv":87.400,"track":209.4000,"magtrack":223.2000,"magvar":13.8,"speed":0.000,"eps":43.73,"epc":171.07,"geoidSep":-34.288,"eph":32.300,"sep":79.800}
$GPRMB,A,,,,,,,,,,,,V*71
$GPGGA,230153,3348.607,N,11821.124,W,1,05,1.7,49.1,M,-32.4,M,,*40
$GPGSA,A,3,,08,,,,,29,,,,,,4.2,1.7,3.8*3A
$GPGSV,2,1,08,07,43,197,45,08,68,062,42,11,18,089,00,26,24,314,41*71
$GPGSV,2,2,08,27,48,103,46,28,66,323,42,29,33,306,44,31,10,040,00*7F
{"class":"SKY","vdop":3.80,"hdop":1.70,"pdop":4.20,"satellites":[{"PRN":7,"el":43.0,"az":197.0,"ss":45.0,"used":false,"gnssid":0,"svid":7},{"PRN":8,"el":68.0,"az":62.0,"ss":42.0,"used":true,"gnssid":0,"svid":8},{"PRN":11,"el":18.0,"az":89.0,"ss":0.0,"used":false,"gnssid":0,"svid":11},{"PRN":26,"el":24.0,"az":314.0,"ss":41.0,"used":false,"gnssid":0,"svid":26},{"PRN":27,"el":48.0,"az":103.0,"ss":46.0,"used":false,"gnssid":0,"svid":27},{"PRN":28,"el":66.0,"az":323.0,"ss":42.0,"used":false,"gnssid":0,"svid":28},{"PRN":29,"el":33.0,"az":306.0,"ss":44.0,"used":true,"gnssid":0,"svid":29},{"PRN":31,"el":10.0,"az":40.0,"ss":0.0,"used":false,"gnssid":0,"svid":31}]}
$PGRME,17.4,M,40.3,M,43.9,M*15
$GPGLL,3348.607,N,11821.124,W,230153,A*3F
{"class":"TPV","mode":3,"time":"2002-10-26T23:01:53.000Z","ept":0.005,"lat":33.810116667,"lon":-118.352066667,"altHAE":16.700,"altMSL":49.100,"epx":25.546,"epy":25.546,"epv":83.674,"magvar":11.8,"speed":0.000,"eps":36.36,"epc":174.80,"geoidSep":-32.400,"eph":32.300,"sep":91.148}
$PGRMZ,161,f,3*1D
$PGRMM,NAD83*29
$GPBOD,,T,,M,,*47
$GPRTE,1,1,c,0*07
$GPRMC,230154,A,3348.607,N,11821.124,W,000.0,209.4,261002,013.8,E*66
{"class":"TPV","mode":3,"time":"2002-10-26T23:01:54.000Z","ept":0.005,"lat":33.810116667,"lon":-118.352066667,"epv":87.400,"track":209.4000,"magtrack":223.2000,"magvar":13.8,"speed":0.000,"epc":171.07,"geoidSep":-34.288,"eph":32.300,"sep":79.800}
$GPRMB,A,,,,,,,,,,,,V*71
$GPGGA,230155,3348.608,N,11821.124,W,1,02,1.9,49.0,M,-32.4,M,,*41
$GPGSA,A,3,07,08,,,27,28,,,,,,,1.9,1.9,1.0*33
$GPGSV,2,1,08,07,43,197,45,08,68,062,43,11,18,089,00,26,24,314,41*70
$GPGSV,2,2,08,27,48,103,46,28,66,323,43,29,33,306,44,31,10,040,00*7E
{"class":"SKY","xdop":1.49,"ydop":4.03,"vdop":1.00,"tdop":12.53,"hdop":1.90,"gdop":19.87,"pdop":1.90,"satellites":[{"PRN":7,"el":43.0,"az":197.0,"ss":45.0,"used":true,"gnssid":0,"svid":7},{"PRN":8,"el":68.0,"az":62.0,"ss":43.0,"used":true,"gnssid":0,"svid":8},{"PRN":11,"el":18.0,"az":89.0,"ss":0.0,"used":false,"gnssid":0,"svid":11},{"PRN":26,"el":24.0,"az":314.0,"ss":41.0,"used":false,"gnssid":0,"svid":26},{"PRN":27,"el":48.0,"az":103.0,"ss":46.0,"used":true,"gnssid":0,"svid":27},{"PRN":28,"el":66.0,"az":323.0,"ss":43.0,"used":true,"gnssid":0,"svid":28},{"PRN":29,"el":33.0,"az":306.0,"ss":44.0,"used":false,"gnssid":0,"svid":29},{"PRN":31,"el":10.0,"az":40.0,"ss":0.0,"used":false,"gnssid":0,"svid":31}]}
$PGRME,19.2,M,150.0,M,151.2,M*17
$GPGLL,3348.608,N,11821.124,W,230155,A*36
{"class":"TPV","mode":3,"time":"2002-10-26T23:01:55.000Z","ept":0.005,"lat":33.810133333,"lon":-118.352066667,"altHAE":16.600,"altMSL":49.000,"epx":28.188,"epy":28.188,"epv":311.441,"magvar":11.8,"speed":1.849,"epc":110.40,"geoidSep":-32.400,"eph":36.100,"sep":313.932}
$PGRMZ,161,f,3*1D
$PGRMM,NAD83*29
$GPBOD,,T,,M,,*47
$GPRTE,1,1,c,0*07
