$GPRMC,071726.929,V,8960.0000,N,00000.0000,E,0.00,0.00,111111,,,N*76
$GPGGA,071727.929,8960.0000,N,00000.0000,E,0,0,,137.0,M,13.0,M,,*45
$GPGSA,A,1,,,,,,,,,,,,,,,*1E
{"class":"TPV","mode":1}
$GPGSV,2,1,05,23,,,37,13,,,34,32,,,43,31,,,30*78
$GPGSV,2,2,05,20,,,41*7B
$GPRMC,071727.929,V,8960.0000,N,00000.0000,E,0.00,0.00,111111,,,N*77
$GPGGA,071728.929,8960.0000,N,00000.0000,E,0,0,,137.0,M,13.0,M,,*4A
$GPGSA,A,1,,,,,,,,,,,,,,,*1E
{"class":"TPV","mode":1}
$GPGSV,2,1,05,23,,,36,13,,,34,32,,,43,31,,,27*7F
$GPGSV,2,2,05,20,,,41*7B
$GPRMC,071728.929,V,8960.0000,N,00000.0000,E,0.00,0.00,111111,,,N*78
$GPGGA,071729.929,8960.0000,N,00000.0000,E,0,0,,137.0,M,13.0,M,,*4B
$GPGSA,A,1,,,,,,,,,,,,,,,*1E
{"class":"TPV","mode":1}
$GPGSV,2,1,05,23,,,36,13,,,34,32,,,43,31,,,31*78
$GPGSV,2,2,05,20,,,41*7B
$GPRMC,071729.929,V,8960.0000,N,00000.0000,E,0.00,0.00,111111,,,N*79
$GPGGA,071730.929,8960.0000,N,00000.0000,E,0,0,,137.0,M,13.0,M,,*43
$GPGSA,A,1,,,,,,,,,,,,,,,*1E
{"class":"TPV","mode":1}
$GPGSV,2,1,05,23,,,36,13,,,34,32,,,43,31,,,31*78
$GPGSV,2,2,05,20,,,41*7B
$GPRMC,071730.929,V,8960.0000,N,00000.0000,E,0.00,0.00,111111,,,N*71
$GPGGA,071731.929,8960.0000,N,00000.0000,E,0,0,,137.0,M,13.0,M,,*42
$GPGSA,A,1,,,,,,,,,,,,,,,*1E
{"class":"TPV","mode":1}
$GPGSV,2,1,05,23,,,36,13,,,34,32,,,43,31,,,31*78
$GPGSV,2,2,05,20,,,41*7B
$GPRMC,071731.929,V,8960.0000,N,00000.0000,E,0.00,0.00,111111,,,N*70
$GPGGA,071732.929,8960.0000,N,00000.0000,E,0,0,,137.0,M,13.0,M,,*41
$GPGSA,A,1,,,,,,,,,,,,,,,*1E
{"class":"TPV","mode":1}
$GPGSV,2,1,05,23,,,36,13,,,34,32,,,43,31,,,31*78
$GPGSV,2,2,05,20,,,41*7B
$GPRMC,071732.929,V,8960.0000,N,00000.0000,E,0.00,0.00,111111,,,N*73
$GPGGA,071733.929,8960.0000,N,00000.0000,E,0,0,,137.0,M,13.0,M,,*40
$GPGSA,A,1,,,,,,,,,,,,,,,*1E
{"class":"TPV","mode":1}
$GPGSV,2,1,05,23,,,36,13,,,34,32,,,43,31,,,31*78
$GPGSV,2,2,05,20,,,41*7B
$GPRMC,071733.929,V,8960.0000,N,00000.0000,E,0.00,0.00,111111,,,N*72
$GPGGA,071734.929,4404.1178,N,12118.8608,W,0,4,,1127.8,M,-19.6,M,,*49
$GPGSA,A,1,,,,,,,,,,,,,,,*1E
{"class":"TPV","mode":1}
$GPGSV,2,1,05,23,,,37,13,,,34,32,,,43,31,,,31*79
$GPGSV,2,2,05,20,,,41*7B
$GPRMC,071734.929,V,4404.1178,N,12118.8608,W,0.10,0.00,111111,,,N*67
$GPGGA,071736.000,4404.1316,N,12118.8445,W,1,4,5.21,1134.4,M,-19.6,M,,*5F
{"class":"TPV","mode":3,"lat":44.068860000,"lon":-121.314075000,"alt":1134.400}
$GPGSA,A,3,23,13,32,20,,,,,,,,,5.30,5.21,0.98*03
{"class":"TPV","mode":3,"lat":44.068860000,"lon":-121.314075000,"alt":1134.400,"epv":22.540}
$GPGSV,2,1,06,20,73,204,41,23,56,298,37,32,54,148,43,48,37,196,*70
$GPGSV,2,2,06,13,30,282,34,31,,,31*41
{"class":"SKY","xdop":3.96,"ydop":4.59,"vdop":0.98,"tdop":4.62,"hdop":5.21,"gdop":8.87,"pdop":5.30,"satellites":[{"PRN":20,"el":73,"az":204,"ss":41,"used":true},{"PRN":23,"el":56,"az":298,"ss":37,"used":true},{"PRN":32,"el":54,"az":148,"ss":43,"used":true},{"PRN":135,"el":37,"az":196,"ss":0,"used":false},{"PRN":13,"el":30,"az":282,"ss":34,"used":true},{"PRN":31,"el":0,"az":0,"ss":31,"used":false}]}
$GPRMC,071736.000,A,4404.1316,N,12118.8445,W,0.20,0.00,111111,,,A*7D
{"class":"TPV","mode":3,"time":"2011-11-11T07:17:36.000Z","ept":0.005,"lat":44.068860000,"lon":-121.314075000,"alt":1134.400,"epx":59.364,"epy":68.891,"epv":22.540,"track":0.0000,"speed":0.103}
$GPGGA,071737.000,4404.1258,N,12118.8537,W,1,4,5.20,1131.0,M,-19.6,M,,*51
$GPGSA,A,3,23,13,32,20,,,,,,,,,5.29,5.20,0.98*0A
$GPGSV,2,1,06,20,73,204,41,23,56,298,37,32,54,148,43,48,37,196,44*70
$GPGSV,2,2,06,13,30,282,34,31,,,31*41
{"class":"SKY","xdop":3.96,"ydop":4.59,"vdop":0.98,"tdop":4.62,"hdop":5.20,"gdop":8.87,"pdop":5.29,"satellites":[{"PRN":20,"el":73,"az":204,"ss":41,"used":true},{"PRN":23,"el":56,"az":298,"ss":37,"used":true},{"PRN":32,"el":54,"az":148,"ss":43,"used":true},{"PRN":135,"el":37,"az":196,"ss":44,"used":false},{"PRN":13,"el":30,"az":282,"ss":34,"used":true},{"PRN":31,"el":0,"az":0,"ss":31,"used":false}]}
$GPRMC,071737.000,A,4404.1258,N,12118.8537,W,0.12,0.00,111111,,,A*72
{"class":"TPV","mode":3,"time":"2011-11-11T07:17:37.000Z","ept":0.005,"lat":44.068763333,"lon":-121.314228333,"alt":1131.000,"epx":59.364,"epy":68.891,"epv":22.540,"track":0.0000,"speed":0.062,"climb":-3.400,"eps":137.78,"epc":45.08}
$GPGGA,071738.000,4404.1279,N,12118.8515,W,1,4,5.20,1137.3,M,-19.6,M,,*58
$GPGSA,A,3,23,13,32,20,,,,,,,,,5.29,5.20,0.98*0A
$GPGSV,2,1,06,20,73,204,41,23,56,298,37,32,54,148,43,48,37,196,45*71
$GPGSV,2,2,06,13,30,282,34,31,,,31*41
{"class":"SKY","xdop":3.96,"ydop":4.59,"vdop":0.98,"tdop":4.62,"hdop":5.20,"gdop":8.87,"pdop":5.29,"satellites":[{"PRN":20,"el":73,"az":204,"ss":41,"used":true},{"PRN":23,"el":56,"az":298,"ss":37,"used":true},{"PRN":32,"el":54,"az":148,"ss":43,"used":true},{"PRN":135,"el":37,"az":196,"ss":45,"used":false},{"PRN":13,"el":30,"az":282,"ss":34,"used":true},{"PRN":31,"el":0,"az":0,"ss":31,"used":false}]}
$GPRMC,071738.000,A,4404.1279,N,12118.8515,W,0.05,0.00,111111,,,A*78
{"class":"TPV","mode":3,"time":"2011-11-11T07:17:38.000Z","ept":0.005,"lat":44.068798333,"lon":-121.314191667,"alt":1137.300,"epx":59.364,"epy":68.891,"epv":22.540,"track":0.0000,"speed":0.026,"climb":6.300,"eps":137.78,"epc":45.08}
$GPGGA,071739.000,4404.1284,N,12118.8506,W,1,4,5.20,1135.9,M,-19.6,M,,*51
$GPGSA,A,3,23,13,32,20,,,,,,,,,5.29,5.20,0.98*0A
$GPGSV,2,1,06,20,73,204,41,23,56,298,37,32,54,148,43,48,37,196,44*70
$GPGSV,2,2,06,13,30,282,34,31,,,31*41
{"class":"SKY","xdop":3.96,"ydop":4.59,"vdop":0.98,"tdop":4.62,"hdop":5.20,"gdop":8.87,"pdop":5.29,"satellites":[{"PRN":20,"el":73,"az":204,"ss":41,"used":true},{"PRN":23,"el":56,"az":298,"ss":37,"used":true},{"PRN":32,"el":54,"az":148,"ss":43,"used":true},{"PRN":135,"el":37,"az":196,"ss":44,"used":false},{"PRN":13,"el":30,"az":282,"ss":34,"used":true},{"PRN":31,"el":0,"az":0,"ss":31,"used":false}]}
$GPRMC,071739.000,A,4404.1284,N,12118.8506,W,0.05,0.00,111111,,,A*79
{"class":"TPV","mode":3,"time":"2011-11-11T07:17:39.000Z","ept":0.005,"lat":44.068806667,"lon":-121.314176667,"alt":1135.900,"epx":59.364,"epy":68.891,"epv":22.540,"track":0.0000,"speed":0.026,"climb":-1.400,"eps":137.78,"epc":45.08}
$GPGGA,071740.000,4404.1303,N,12118.8486,W,1,4,5.20,1134.7,M,-19.6,M,,*57
$GPGSA,A,3,23,13,32,20,,,,,,,,,5.29,5.20,0.98*0A
$GPGSV,2,1,06,20,73,204,41,23,56,298,36,32,54,148,43,48,37,196,45*70
$GPGSV,2,2,06,13,30,282,34,31,,,31*41
{"class":"SKY","xdop":3.96,"ydop":4.59,"vdop":0.98,"tdop":4.62,"hdop":5.20,"gdop":8.87,"pdop":5.29,"satellites":[{"PRN":20,"el":73,"az":204,"ss":41,"used":true},{"PRN":23,"el":56,"az":298,"ss":36,"used":true},{"PRN":32,"el":54,"az":148,"ss":43,"used":true},{"PRN":135,"el":37,"az":196,"ss":45,"used":false},{"PRN":13,"el":30,"az":282,"ss":34,"used":true},{"PRN":31,"el":0,"az":0,"ss":31,"used":false}]}
$GPRMC,071740.000,A,4404.1303,N,12118.8486,W,0.11,0.00,111111,,,A*75
{"class":"TPV","mode":3,"time":"2011-11-11T07:17:40.000Z","ept":0.005,"lat":44.068838333,"lon":-121.314143333,"alt":1134.700,"epx":59.364,"epy":68.891,"epv":22.540,"track":0.0000,"speed":0.057,"climb":-1.200,"eps":137.78,"epc":45.08}
$GPGGA,071741.000,4404.1316,N,12118.8473,W,1,4,5.20,1135.3,M,-19.6,M,,*5D
$GPGSA,A,3,23,13,32,20,,,,,,,,,5.29,5.20,0.98*0A
$GPGSV,2,1,06,20,73,204,41,23,56,298,36,32,54,148,43,48,37,196,45*70
$GPGSV,2,2,06,13,30,282,34,31,,,31*41
{"class":"SKY","xdop":3.96,"ydop":4.59,"vdop":0.98,"tdop":4.62,"hdop":5.20,"gdop":8.87,"pdop":5.29,"satellites":[{"PRN":20,"el":73,"az":204,"ss":41,"used":true},{"PRN":23,"el":56,"az":298,"ss":36,"used":true},{"PRN":32,"el":54,"az":148,"ss":43,"used":true},{"PRN":135,"el":37,"az":196,"ss":45,"used":false},{"PRN":13,"el":30,"az":282,"ss":34,"used":true},{"PRN":31,"el":0,"az":0,"ss":31,"used":false}]}
$GPRMC,071741.000,A,4404.1316,N,12118.8473,W,0.08,0.00,111111,,,A*72
{"class":"TPV","mode":3,"time":"2011-11-11T07:17:41.000Z","ept":0.005,"lat":44.068860000,"lon":-121.314121667,"alt":1135.300,"epx":59.364,"epy":68.891,"epv":22.540,"track":0.0000,"speed":0.041,"climb":0.600,"eps":137.78,"epc":45.08}
$GPGGA,071742.000,4404.1314,N,12118.8476,W,1,4,5.20,1134.4,M,-19.6,M,,*5F
$GPGSA,A,3,23,13,32,20,,,,,,,,,5.29,5.20,0.98*0A
$GPGSV,2,1,06,20,73,204,41,23,56,298,36,32,54,148,43,48,37,196,45*70
$GPGSV,2,2,06,13,30,282,34,31,,,30*40
{"class":"SKY","xdop":3.96,"ydop":4.59,"vdop":0.98,"tdop":4.62,"hdop":5.20,"gdop":8.87,"pdop":5.29,"satellites":[{"PRN":20,"el":73,"az":204,"ss":41,"used":true},{"PRN":23,"el":56,"az":298,"ss":36,"used":true},{"PRN":32,"el":54,"az":148,"ss":43,"used":true},{"PRN":135,"el":37,"az":196,"ss":45,"used":false},{"PRN":13,"el":30,"az":282,"ss":34,"used":true},{"PRN":31,"el":0,"az":0,"ss":30,"used":false}]}
$GPRMC,071742.000,A,4404.1314,N,12118.8476,W,0.03,0.00,111111,,,A*7D
{"class":"TPV","mode":3,"time":"2011-11-11T07:17:42.000Z","ept":0.005,"lat":44.068856667,"lon":-121.314126667,"alt":1134.400,"epx":59.364,"epy":68.891,"epv":22.540,"track":0.0000,"speed":0.015,"climb":-0.900,"eps":137.78,"epc":45.08}
$GPGGA,071743.000,4404.1312,N,12118.8480,W,1,4,5.20,1134.6,M,-19.6,M,,*53
$GPGSA,A,3,23,13,32,20,,,,,,,,,5.29,5.20,0.98*0A
$GPGSV,2,1,06,20,73,204,41,23,56,298,36,32,54,148,43,48,37,196,45*70
$GPGSV,2,2,06,13,30,282,34,31,,,31*41
{"class":"SKY","xdop":3.96,"ydop":4.59,"vdop":0.98,"tdop":4.62,"hdop":5.20,"gdop":8.87,"pdop":5.29,"satellites":[{"PRN":20,"el":73,"az":204,"ss":41,"used":true},{"PRN":23,"el":56,"az":298,"ss":36,"used":true},{"PRN":32,"el":54,"az":148,"ss":43,"used":true},{"PRN":135,"el":37,"az":196,"ss":45,"used":false},{"PRN":13,"el":30,"az":282,"ss":34,"used":true},{"PRN":31,"el":0,"az":0,"ss":31,"used":false}]}
$GPRMC,071743.000,A,4404.1312,N,12118.8480,W,0.04,0.00,111111,,,A*74
{"class":"TPV","mode":3,"time":"2011-11-11T07:17:43.000Z","ept":0.005,"lat":44.068853333,"lon":-121.314133333,"alt":1134.600,"epx":59.364,"epy":68.891,"epv":22.540,"track":0.0000,"speed":0.021,"climb":0.200,"eps":137.78,"epc":45.08}
$GPGGA,071744.000,4404.1305,N,12118.8487,W,1,4,5.20,1136.4,M,-19.6,M,,*55
$GPGSA,A,3,23,13,32,20,,,,,,,,,5.29,5.20,0.98*0A
$GPGSV,2,1,06,20,73,204,41,23,56,298,36,32,54,148,43,48,37,196,45*70
$GPGSV,2,2,06,13,30,282,34,31,,,31*41
{"class":"SKY","xdop":3.96,"ydop":4.59,"vdop":0.98,"tdop":4.62,"hdop":5.20,"gdop":8.87,"pdop":5.29,"satellites":[{"PRN":20,"el":73,"az":204,"ss":41,"used":true},{"PRN":23,"el":56,"az":298,"ss":36,"used":true},{"PRN":32,"el":54,"az":148,"ss":43,"used":true},{"PRN":135,"el":37,"az":196,"ss":45,"used":false},{"PRN":13,"el":30,"az":282,"ss":34,"used":true},{"PRN":31,"el":0,"az":0,"ss":31,"used":false}]}
$GPRMC,071744.000,A,4404.1305,N,12118.8487,W,0.07,0.00,111111,,,A*71
{"class":"TPV","mode":3,"time":"2011-11-11T07:17:44.000Z","ept":0.005,"lat":44.068841667,"lon":-121.314145000,"alt":1136.400,"epx":59.364,"epy":68.891,"epv":22.540,"track":0.0000,"speed":0.036,"climb":1.800,"eps":137.78,"epc":45.08}
$GPGGA,071745.000,4404.1306,N,12118.8488,W,1,4,5.19,1138.1,M,-19.6,M,,*59
$GPGSA,A,3,23,13,32,20,,,,,,,,,5.28,5.19,0.98*01
$GPGSV,2,1,06,20,73,204,41,23,56,298,36,32,54,148,43,48,37,196,45*70
$GPGSV,2,2,06,13,30,282,34,31,,,31*41
{"class":"SKY","xdop":3.96,"ydop":4.59,"vdop":0.98,"tdop":4.62,"hdop":5.19,"gdop":8.87,"pdop":5.28,"satellites":[{"PRN":20,"el":73,"az":204,"ss":41,"used":true},{"PRN":23,"el":56,"az":298,"ss":36,"used":true},{"PRN":32,"el":54,"az":148,"ss":43,"used":true},{"PRN":135,"el":37,"az":196,"ss":45,"used":false},{"PRN":13,"el":30,"az":282,"ss":34,"used":true},{"PRN":31,"el":0,"az":0,"ss":31,"used":false}]}
$GPRMC,071745.000,A,4404.1306,N,12118.8488,W,0.11,0.00,111111,,,A*7B
{"class":"TPV","mode":3,"time":"2011-11-11T07:17:45.000Z","ept":0.005,"lat":44.068843333,"lon":-121.314146667,"alt":1138.100,"epx":59.364,"epy":68.891,"epv":22.540,"track":0.0000,"speed":0.057,"climb":1.700,"eps":137.78,"epc":45.08}
$GPGGA,071746.000,4404.1306,N,12118.8487,W,1,4,5.20,1137.0,M,-19.6,M,,*51
$GPGSA,A,3,23,13,32,20,,,,,,,,,5.29,5.20,0.98*0A
$GPGSV,2,1,06,20,73,204,41,23,56,298,37,32,54,148,43,48,37,196,45*71
$GPGSV,2,2,06,13,30,282,34,31,,,31*41
{"class":"SKY","xdop":3.96,"ydop":4.59,"vdop":0.98,"tdop":4.62,"hdop":5.20,"gdop":8.87,"pdop":5.29,"satellites":[{"PRN":20,"el":73,"az":204,"ss":41,"used":true},{"PRN":23,"el":56,"az":298,"ss":37,"used":true},{"PRN":32,"el":54,"az":148,"ss":43,"used":true},{"PRN":135,"el":37,"az":196,"ss":45,"used":false},{"PRN":13,"el":30,"az":282,"ss":34,"used":true},{"PRN":31,"el":0,"az":0,"ss":31,"used":false}]}
$GPRMC,071746.000,A,4404.1306,N,12118.8487,W,0.04,0.00,111111,,,A*73
{"class":"TPV","mode":3,"time":"2011-11-11T07:17:46.000Z","ept":0.005,"lat":44.068843333,"lon":-121.314145000,"alt":1137.000,"epx":59.364,"epy":68.891,"epv":22.540,"track":0.0000,"speed":0.021,"climb":-1.100,"eps":137.78,"epc":45.08}
$GPGGA,071747.000,4404.1314,N,12118.8479,W,1,4,5.20,1138.0,M,-19.6,M,,*5D
$GPGSA,A,3,23,13,32,20,,,,,,,,,5.29,5.20,0.98*0A
$GPGSV,2,1,07,20,73,204,41,23,56,298,37,32,54,148,43,48,37,196,45*70
$GPGSV,2,2,07,13,30,282,34,01,14,210,,31,,,31*77
{"class":"SKY","xdop":3.96,"ydop":4.59,"vdop":0.98,"tdop":4.62,"hdop":5.20,"gdop":8.87,"pdop":5.29,"satellites":[{"PRN":20,"el":73,"az":204,"ss":41,"used":true},{"PRN":23,"el":56,"az":298,"ss":37,"used":true},{"PRN":32,"el":54,"az":148,"ss":43,"used":true},{"PRN":135,"el":37,"az":196,"ss":45,"used":false},{"PRN":13,"el":30,"az":282,"ss":34,"used":true},{"PRN":1,"el":14,"az":210,"ss":0,"used":false},{"PRN":31,"el":0,"az":0,"ss":31,"used":false}]}
$GPRMC,071747.000,A,4404.1314,N,12118.8479,W,0.05,0.00,111111,,,A*71
{"class":"TPV","mode":3,"time":"2011-11-11T07:17:47.000Z","ept":0.005,"lat":44.068856667,"lon":-121.314131667,"alt":1138.000,"epx":59.364,"epy":68.891,"epv":22.540,"track":0.0000,"speed":0.026,"climb":1.000,"eps":137.78,"epc":45.08}
$GPGGA,071748.000,4404.1318,N,12118.8476,W,1,4,5.19,1137.9,M,-19.6,M,,*5D
$GPGSA,A,3,23,13,32,20,,,,,,,,,5.28,5.19,0.98*01
$GPGSV,2,1,07,20,73,204,41,23,56,298,37,32,54,148,43,48,37,196,45*70
$GPGSV,2,2,07,13,30,282,35,01,14,210,,31,,,31*76
{"class":"SKY","xdop":3.96,"ydop":4.59,"vdop":0.98,"tdop":4.62,"hdop":5.19,"gdop":8.87,"pdop":5.28,"satellites":[{"PRN":20,"el":73,"az":204,"ss":41,"used":true},{"PRN":23,"el":56,"az":298,"ss":37,"used":true},{"PRN":32,"el":54,"az":148,"ss":43,"used":true},{"PRN":135,"el":37,"az":196,"ss":45,"used":false},{"PRN":13,"el":30,"az":282,"ss":35,"used":true},{"PRN":1,"el":14,"az":210,"ss":0,"used":false},{"PRN":31,"el":0,"az":0,"ss":31,"used":false}]}
$GPRMC,071748.000,A,4404.1318,N,12118.8476,W,0.03,0.00,111111,,,A*7B
{"class":"TPV","mode":3,"time":"2011-11-11T07:17:48.000Z","ept":0.005,"lat":44.068863333,"lon":-121.314126667,"alt":1137.900,"epx":59.364,"epy":68.891,"epv":22.540,"track":0.0000,"speed":0.015,"climb":-0.100,"eps":137.78,"epc":45.08}
$GPGGA,071749.000,4404.1318,N,12118.8475,W,1,4,5.19,1137.6,M,-19.6,M,,*50
$GPGSA,A,3,23,13,32,20,,,,,,,,,5.28,5.19,0.98*01
$GPGSV,2,1,07,20,73,204,41,23,56,298,37,32,54,148,43,48,37,196,45*70
$GPGSV,2,2,07,13,30,282,35,01,14,210,,31,,,30*77
{"class":"SKY","xdop":3.96,"ydop":4.59,"vdop":0.98,"tdop":4.62,"hdop":5.19,"gdop":8.87,"pdop":5.28,"satellites":[{"PRN":20,"el":73,"az":204,"ss":41,"used":true},{"PRN":23,"el":56,"az":298,"ss":37,"used":true},{"PRN":32,"el":54,"az":148,"ss":43,"used":true},{"PRN":135,"el":37,"az":196,"ss":45,"used":false},{"PRN":13,"el":30,"az":282,"ss":35,"used":true},{"PRN":1,"el":14,"az":210,"ss":0,"used":false},{"PRN":31,"el":0,"az":0,"ss":30,"used":false}]}
$GPRMC,071749.000,A,4404.1318,N,12118.8475,W,0.04,0.00,111111,,,A*7E
{"class":"TPV","mode":3,"time":"2011-11-11T07:17:49.000Z","ept":0.005,"lat":44.068863333,"lon":-121.314125000,"alt":1137.600,"epx":59.364,"epy":68.891,"epv":22.540,"track":0.0000,"speed":0.021,"climb":-0.300,"eps":137.78,"epc":45.08}
$GPGGA,071750.000,4404.1314,N,12118.8480,W,1,4,5.19,1138.4,M,-19.6,M,,*53
$GPGSA,A,3,23,13,32,20,,,,,,,,,5.28,5.19,0.98*01
$GPGSV,2,1,07,20,73,204,41,23,56,298,37,32,54,148,43,48,37,196,45*70
$GPGSV,2,2,07,13,30,282,35,01,14,210,,31,,,30*77
{"class":"SKY","xdop":3.96,"ydop":4.59,"vdop":0.98,"tdop":4.62,"hdop":5.19,"gdop":8.87,"pdop":5.28,"satellites":[{"PRN":20,"el":73,"az":204,"ss":41,"used":true},{"PRN":23,"el":56,"az":298,"ss":37,"used":true},{"PRN":32,"el":54,"az":148,"ss":43,"used":true},{"PRN":135,"el":37,"az":196,"ss":45,"used":false},{"PRN":13,"el":30,"az":282,"ss":35,"used":true},{"PRN":1,"el":14,"az":210,"ss":0,"used":false},{"PRN":31,"el":0,"az":0,"ss":30,"used":false}]}
$GPRMC,071750.000,A,4404.1314,N,12118.8480,W,0.03,0.00,111111,,,A*77
{"class":"TPV","mode":3,"time":"2011-11-11T07:17:50.000Z","ept":0.005,"lat":44.068856667,"lon":-121.314133333,"alt":1138.400,"epx":59.364,"epy":68.891,"epv":22.540,"track":0.0000,"speed":0.015,"climb":0.800,"eps":137.78,"epc":45.08}
$GPGGA,071751.000,4404.1316,N,12118.8480,W,1,4,5.19,1138.0,M,-19.6,M,,*54
$GPGSA,A,3,23,13,32,20,,,,,,,,,5.28,5.19,0.98*01
$GPGSV,2,1,07,20,73,204,41,23,56,298,37,32,54,148,43,48,37,196,45*70
$GPGSV,2,2,07,13,30,282,35,01,14,210,,31,,,31*76
{"class":"SKY","xdop":3.96,"ydop":4.59,"vdop":0.98,"tdop":4.62,"hdop":5.19,"gdop":8.87,"pdop":5.28,"satellites":[{"PRN":20,"el":73,"az":204,"ss":41,"used":true},{"PRN":23,"el":56,"az":298,"ss":37,"used":true},{"PRN":32,"el":54,"az":148,"ss":43,"used":true},{"PRN":135,"el":37,"az":196,"ss":45,"used":false},{"PRN":13,"el":30,"az":282,"ss":35,"used":true},{"PRN":1,"el":14,"az":210,"ss":0,"used":false},{"PRN":31,"el":0,"az":0,"ss":31,"used":false}]}
$GPRMC,071751.000,A,4404.1316,N,12118.8480,W,0.03,0.00,111111,,,A*74
{"class":"TPV","mode":3,"time":"2011-11-11T07:17:51.000Z","ept":0.005,"lat":44.068860000,"lon":-121.314133333,"alt":1138.000,"epx":59.364,"epy":68.891,"epv":22.540,"track":0.0000,"speed":0.015,"climb":-0.400,"eps":137.78,"epc":45.08}
$GPGGA,071752.000,4404.1316,N,12118.8480,W,1,4,5.19,1138.2,M,-19.6,M,,*55
$GPGSA,A,3,23,13,32,20,,,,,,,,,5.28,5.19,0.98*01
$GPGSV,2,1,07,20,73,204,41,23,56,298,37,32,54,148,43,48,37,196,45*70
$GPGSV,2,2,07,13,30,282,35,01,14,210,,31,,,32*75
{"class":"SKY","xdop":3.96,"ydop":4.59,"vdop":0.98,"tdop":4.62,"hdop":5.19,"gdop":8.87,"pdop":5.28,"satellites":[{"PRN":20,"el":73,"az":204,"ss":41,"used":true},{"PRN":23,"el":56,"az":298,"ss":37,"used":true},{"PRN":32,"el":54,"az":148,"ss":43,"used":true},{"PRN":135,"el":37,"az":196,"ss":45,"used":false},{"PRN":13,"el":30,"az":282,"ss":35,"used":true},{"PRN":1,"el":14,"az":210,"ss":0,"used":false},{"PRN":31,"el":0,"az":0,"ss":32,"used":false}]}
$GPRMC,071752.000,A,4404.1316,N,12118.8480,W,0.03,0.00,111111,,,A*77
{"class":"TPV","mode":3,"time":"2011-11-11T07:17:52.000Z","ept":0.005,"lat":44.068860000,"lon":-121.314133333,"alt":1138.200,"epx":59.364,"epy":68.891,"epv":22.540,"track":0.0000,"speed":0.015,"climb":0.200,"eps":137.78,"epc":45.08}
$GPGGA,071753.000,4404.1316,N,12118.8480,W,1,4,5.19,1137.8,M,-19.6,M,,*51
$GPGSA,A,3,23,13,32,20,,,,,,,,,5.28,5.19,0.98*01
$GPGSV,2,1,07,20,73,204,41,23,56,298,37,32,54,148,43,48,37,196,45*70
$GPGSV,2,2,07,13,30,282,35,01,14,210,,31,,,32*75
{"class":"SKY","xdop":3.96,"ydop":4.59,"vdop":0.98,"tdop":4.62,"hdop":5.19,"gdop":8.87,"pdop":5.28,"satellites":[{"PRN":20,"el":73,"az":204,"ss":41,"used":true},{"PRN":23,"el":56,"az":298,"ss":37,"used":true},{"PRN":32,"el":54,"az":148,"ss":43,"used":true},{"PRN":135,"el":37,"az":196,"ss":45,"used":false},{"PRN":13,"el":30,"az":282,"ss":35,"used":true},{"PRN":1,"el":14,"az":210,"ss":0,"used":false},{"PRN":31,"el":0,"az":0,"ss":32,"used":false}]}
$GPRMC,071753.000,A,4404.1316,N,12118.8480,W,0.04,0.00,111111,,,A*71
{"class":"TPV","mode":3,"time":"2011-11-11T07:17:53.000Z","ept":0.005,"lat":44.068860000,"lon":-121.314133333,"alt":1137.800,"epx":59.364,"epy":68.891,"epv":22.540,"track":0.0000,"speed":0.021,"climb":-0.400,"eps":137.78,"epc":45.08}
$GPGGA,071754.000,4404.1314,N,12118.8481,W,1,4,5.19,1137.2,M,-19.6,M,,*5F
$GPGSA,A,3,23,13,32,20,,,,,,,,,5.28,5.19,0.98*01
$GPGSV,2,1,07,20,73,204,41,23,56,298,37,32,54,148,43,48,37,196,45*70
$GPGSV,2,2,07,13,30,282,35,01,14,210,,31,,,32*75
{"class":"SKY","xdop":3.96,"ydop":4.59,"vdop":0.98,"tdop":4.62,"hdop":5.19,"gdop":8.87,"pdop":5.28,"satellites":[{"PRN":20,"el":73,"az":204,"ss":41,"used":true},{"PRN":23,"el":56,"az":298,"ss":37,"used":true},{"PRN":32,"el":54,"az":148,"ss":43,"used":true},{"PRN":135,"el":37,"az":196,"ss":45,"used":false},{"PRN":13,"el":30,"az":282,"ss":35,"used":true},{"PRN":1,"el":14,"az":210,"ss":0,"used":false},{"PRN":31,"el":0,"az":0,"ss":32,"used":false}]}
$GPRMC,071754.000,A,4404.1314,N,12118.8481,W,0.03,0.00,111111,,,A*72
{"class":"TPV","mode":3,"time":"2011-11-11T07:17:54.000Z","ept":0.005,"lat":44.068856667,"lon":-121.314135000,"alt":1137.200,"epx":59.364,"epy":68.891,"epv":22.540,"track":0.0000,"speed":0.015,"climb":-0.600,"eps":137.78,"epc":45.08}
$GPGGA,071755.000,4404.1320,N,12118.8477,W,1,4,5.18,1136.7,M,-19.6,M,,*55
$GPGSA,A,3,23,13,32,20,,,,,,,,,5.28,5.18,0.98*00
$GPGSV,2,1,07,20,73,204,42,23,56,298,37,32,54,148,43,48,37,196,45*73
$GPGSV,2,2,07,13,30,282,35,01,14,210,,31,,,32*75
{"class":"SKY","xdop":3.96,"ydop":4.59,"vdop":0.98,"tdop":4.62,"hdop":5.18,"gdop":8.87,"pdop":5.28,"satellites":[{"PRN":20,"el":73,"az":204,"ss":42,"used":true},{"PRN":23,"el":56,"az":298,"ss":37,"used":true},{"PRN":32,"el":54,"az":148,"ss":43,"used":true},{"PRN":135,"el":37,"az":196,"ss":45,"used":false},{"PRN":13,"el":30,"az":282,"ss":35,"used":true},{"PRN":1,"el":14,"az":210,"ss":0,"used":false},{"PRN":31,"el":0,"az":0,"ss":32,"used":false}]}
$GPRMC,071755.000,A,4404.1320,N,12118.8477,W,0.05,0.00,111111,,,A*7B
{"class":"TPV","mode":3,"time":"2011-11-11T07:17:55.000Z","ept":0.005,"lat":44.068866667,"lon":-121.314128333,"alt":1136.700,"epx":59.364,"epy":68.891,"epv":22.540,"track":0.0000,"speed":0.026,"climb":-0.500,"eps":137.78,"epc":45.08}
$GPGGA,071756.000,4404.1315,N,12118.8480,W,1,4,5.18,1135.5,M,-19.6,M,,*59
$GPGSA,A,3,23,13,32,20,,,,,,,,,5.28,5.18,0.98*00
$GPGSV,2,1,07,20,73,204,42,23,56,298,37,32,54,148,43,48,37,196,45*73
$GPGSV,2,2,07,13,30,282,34,01,14,210,,31,,,32*74
{"class":"SKY","xdop":3.96,"ydop":4.59,"vdop":0.98,"tdop":4.62,"hdop":5.18,"gdop":8.87,"pdop":5.28,"satellites":[{"PRN":20,"el":73,"az":204,"ss":42,"used":true},{"PRN":23,"el":56,"az":298,"ss":37,"used":true},{"PRN":32,"el":54,"az":148,"ss":43,"used":true},{"PRN":135,"el":37,"az":196,"ss":45,"used":false},{"PRN":13,"el":30,"az":282,"ss":34,"used":true},{"PRN":1,"el":14,"az":210,"ss":0,"used":false},{"PRN":31,"el":0,"az":0,"ss":32,"used":false}]}
$GPRMC,071756.000,A,4404.1315,N,12118.8480,W,0.11,0.00,111111,,,A*73
{"class":"TPV","mode":3,"time":"2011-11-11T07:17:56.000Z","ept":0.005,"lat":44.068858333,"lon":-121.314133333,"alt":1135.500,"epx":59.364,"epy":68.891,"epv":22.540,"track":0.0000,"speed":0.057,"climb":-1.200,"eps":137.78,"epc":45.08}
$GPGGA,071757.000,4404.1319,N,12118.8475,W,1,4,5.19,1135.0,M,-19.6,M,,*5A
$GPGSA,A,3,23,13,32,20,,,,,,,,,5.28,5.19,0.98*01
$GPGSV,2,1,07,20,73,203,42,23,56,298,37,32,54,148,43,48,37,196,45*74
$GPGSV,2,2,07,13,30,282,34,01,14,210,,31,,,32*74
{"class":"SKY","xdop":3.96,"ydop":4.59,"vdop":0.98,"tdop":4.62,"hdop":5.19,"gdop":8.87,"pdop":5.28,"satellites":[{"PRN":20,"el":73,"az":203,"ss":42,"used":true},{"PRN":23,"el":56,"az":298,"ss":37,"used":true},{"PRN":32,"el":54,"az":148,"ss":43,"used":true},{"PRN":135,"el":37,"az":196,"ss":45,"used":false},{"PRN":13,"el":30,"az":282,"ss":34,"used":true},{"PRN":1,"el":14,"az":210,"ss":0,"used":false},{"PRN":31,"el":0,"az":0,"ss":32,"used":false}]}
$GPRMC,071757.000,A,4404.1319,N,12118.8475,W,0.07,0.00,111111,,,A*73
{"class":"TPV","mode":3,"time":"2011-11-11T07:17:57.000Z","ept":0.005,"lat":44.068865000,"lon":-121.314125000,"alt":1135.000,"epx":59.364,"epy":68.891,"epv":22.540,"track":0.0000,"speed":0.036,"climb":-0.500,"eps":137.78,"epc":45.08}
$GPGGA,071758.000,4404.1314,N,12118.8481,W,1,4,5.18,1134.1,M,-19.6,M,,*52
$GPGSA,A,3,23,13,32,20,,,,,,,,,5.28,5.18,0.98*00
$GPGSV,2,1,07,20,73,203,42,23,56,298,37,32,54,148,43,48,37,196,45*74
$GPGSV,2,2,07,13,30,282,34,01,14,210,,31,,,32*74
{"class":"SKY","xdop":3.96,"ydop":4.59,"vdop":0.98,"tdop":4.62,"hdop":5.18,"gdop":8.87,"pdop":5.28,"satellites":[{"PRN":20,"el":73,"az":203,"ss":42,"used":true},{"PRN":23,"el":56,"az":298,"ss":37,"used":true},{"PRN":32,"el":54,"az":148,"ss":43,"used":true},{"PRN":135,"el":37,"az":196,"ss":45,"used":false},{"PRN":13,"el":30,"az":282,"ss":34,"used":true},{"PRN":1,"el":14,"az":210,"ss":0,"used":false},{"PRN":31,"el":0,"az":0,"ss":32,"used":false}]}
$GPRMC,071758.000,A,4404.1314,N,12118.8481,W,0.03,0.00,111111,,,A*7E
{"class":"TPV","mode":3,"time":"2011-11-11T07:17:58.000Z","ept":0.005,"lat":44.068856667,"lon":-121.314135000,"alt":1134.100,"epx":59.364,"epy":68.891,"epv":22.540,"track":0.0000,"speed":0.015,"climb":-0.900,"eps":137.78,"epc":45.08}
$GPGGA,071759.000,4404.1314,N,12118.8481,W,1,4,5.18,1134.1,M,-19.6,M,,*53
$GPGSA,A,3,23,13,32,20,,,,,,,,,5.27,5.18,0.98*0F
$GPGSV,2,1,07,20,73,203,42,23,56,298,37,32,54,148,43,48,37,196,45*74
$GPGSV,2,2,07,13,30,282,34,01,14,210,,31,,,32*74
{"class":"SKY","xdop":3.96,"ydop":4.59,"vdop":0.98,"tdop":4.62,"hdop":5.18,"gdop":8.87,"pdop":5.27,"satellites":[{"PRN":20,"el":73,"az":203,"ss":42,"used":true},{"PRN":23,"el":56,"az":298,"ss":37,"used":true},{"PRN":32,"el":54,"az":148,"ss":43,"used":true},{"PRN":135,"el":37,"az":196,"ss":45,"used":false},{"PRN":13,"el":30,"az":282,"ss":34,"used":true},{"PRN":1,"el":14,"az":210,"ss":0,"used":false},{"PRN":31,"el":0,"az":0,"ss":32,"used":false}]}
$GPRMC,071759.000,A,4404.1314,N,12118.8481,W,0.02,0.00,111111,,,A*7E
{"class":"TPV","mode":3,"time":"2011-11-11T07:17:59.000Z","ept":0.005,"lat":44.068856667,"lon":-121.314135000,"alt":1134.100,"epx":59.364,"epy":68.891,"epv":22.540,"track":0.0000,"speed":0.010,"climb":0.000,"eps":137.78,"epc":45.08}
$GPGGA,071800.000,4404.1313,N,12118.8481,W,1,4,5.18,1133.8,M,-19.6,M,,*59
$GPGSA,A,3,23,13,32,20,,,,,,,,,5.27,5.18,0.98*0F
$GPGSV,2,1,07,20,73,203,42,23,57,298,37,32,54,148,43,48,37,196,45*75
$GPGSV,2,2,07,13,30,282,34,01,14,210,,31,,,32*74
{"class":"SKY","xdop":3.96,"ydop":4.59,"vdop":0.98,"tdop":4.62,"hdop":5.18,"gdop":8.87,"pdop":5.27,"satellites":[{"PRN":20,"el":73,"az":203,"ss":42,"used":true},{"PRN":23,"el":57,"az":298,"ss":37,"used":true},{"PRN":32,"el":54,"az":148,"ss":43,"used":true},{"PRN":135,"el":37,"az":196,"ss":45,"used":false},{"PRN":13,"el":30,"az":282,"ss":34,"used":true},{"PRN":1,"el":14,"az":210,"ss":0,"used":false},{"PRN":31,"el":0,"az":0,"ss":32,"used":false}]}
$GPRMC,071800.000,A,4404.1313,N,12118.8481,W,0.03,0.00,111111,,,A*7B
{"class":"TPV","mode":3,"time":"2011-11-11T07:18:00.000Z","ept":0.005,"lat":44.068855000,"lon":-121.314135000,"alt":1133.800,"epx":59.364,"epy":68.891,"epv":22.540,"track":0.0000,"speed":0.015,"climb":-0.300,"eps":137.78,"epc":45.08}
$GPGGA,071801.000,4404.1312,N,12118.8482,W,1,4,5.18,1134.1,M,-19.6,M,,*54
$GPGSA,A,3,23,13,32,20,,,,,,,,,5.27,5.18,0.98*0F
$GPGSV,2,1,07,20,73,203,42,23,57,298,38,32,54,148,43,48,37,196,45*7A
$GPGSV,2,2,07,13,30,282,34,01,14,210,,31,,,32*74
{"class":"SKY","xdop":3.96,"ydop":4.59,"vdop":0.98,"tdop":4.62,"hdop":5.18,"gdop":8.87,"pdop":5.27,"satellites":[{"PRN":20,"el":73,"az":203,"ss":42,"used":true},{"PRN":23,"el":57,"az":298,"ss":38,"used":true},{"PRN":32,"el":54,"az":148,"ss":43,"used":true},{"PRN":135,"el":37,"az":196,"ss":45,"used":false},{"PRN":13,"el":30,"az":282,"ss":34,"used":true},{"PRN":1,"el":14,"az":210,"ss":0,"used":false},{"PRN":31,"el":0,"az":0,"ss":32,"used":false}]}
$GPRMC,071801.000,A,4404.1312,N,12118.8482,W,0.03,0.00,111111,,,A*78
{"class":"TPV","mode":3,"time":"2011-11-11T07:18:01.000Z","ept":0.005,"lat":44.068853333,"lon":-121.314136667,"alt":1134.100,"epx":59.364,"epy":68.891,"epv":22.540,"track":0.0000,"speed":0.015,"climb":0.300,"eps":137.78,"epc":45.08}
$GPGGA,071802.000,4404.1309,N,12118.8484,W,1,4,5.18,1134.3,M,-19.6,M,,*59
$GPGSA,A,3,23,13,32,20,,,,,,,,,5.27,5.18,0.98*0F
$GPGSV,2,1,07,20,73,203,42,23,57,298,38,32,54,148,43,48,37,196,45*7A
$GPGSV,2,2,07,13,30,282,34,01,14,210,,31,,,32*74
{"class":"SKY","xdop":3.96,"ydop":4.59,"vdop":0.98,"tdop":4.62,"hdop":5.18,"gdop":8.87,"pdop":5.27,"satellites":[{"PRN":20,"el":73,"az":203,"ss":42,"used":true},{"PRN":23,"el":57,"az":298,"ss":38,"used":true},{"PRN":32,"el":54,"az":148,"ss":43,"used":true},{"PRN":135,"el":37,"az":196,"ss":45,"used":false},{"PRN":13,"el":30,"az":282,"ss":34,"used":true},{"PRN":1,"el":14,"az":210,"ss":0,"used":false},{"PRN":31,"el":0,"az":0,"ss":32,"used":false}]}
