$GPGGA,183811.00,4120.3704,N,07542.3562,W,1,00,,244.03,M,-33.430,M,,*48
$GPRMC,183811.00,A,4120.3704,N,07542.3562,W,,,221019,-12.1,W*4D
$GPGSA,A,3,,,,,,,,,,,,,,,*1C
{"class":"TPV","mode":3,"time":"2019-10-22T18:38:11.000Z","leapseconds":18,"ept":0.005,"lat":41.339506891,"lon":-75.705935988,"altHAE":210.604,"altMSL":244.035,"magvar":-12.1,"geoidSep":-33.430}
$GPGGA,183812.00,4120.3704,N,07542.3562,W,1,00,,244.03,M,-33.430,M,,*4B
$GPRMC,183812.00,A,4120.3704,N,07542.3562,W,0.0000,,221019,-12.1,W*50
$GPGSA,A,3,,,,,,,,,,,,,,,*1C
{"class":"TPV","mode":3,"time":"2019-10-22T18:38:12.000Z","leapseconds":18,"ept":0.005,"lat":41.339506891,"lon":-75.705935988,"altHAE":210.604,"altMSL":244.035,"magvar":-12.1,"speed":0.000,"climb":0.000,"geoidSep":-33.430}
$GPGGA,183813.00,4120.3704,N,07542.3562,W,1,00,,244.03,M,-33.430,M,,*4A
$GPRMC,183813.00,A,4120.3704,N,07542.3562,W,0.0000,,221019,-12.1,W*51
$GPGSA,A,3,,,,,,,,,,,,,,,*1C
{"class":"TPV","mode":3,"time":"2019-10-22T18:38:13.000Z","leapseconds":18,"ept":0.005,"lat":41.339506891,"lon":-75.705935988,"altHAE":210.604,"altMSL":244.035,"magvar":-12.1,"speed":0.000,"climb":0.000,"geoidSep":-33.430}
$GPGGA,183814.00,4120.3704,N,07542.3562,W,1,00,,244.03,M,-33.430,M,,*4D
$GPRMC,183814.00,A,4120.3704,N,07542.3562,W,0.0000,,221019,-12.1,W*56
$GPGSA,A,3,,,,,,,,,,,,,,,*1C
{"class":"TPV","mode":3,"time":"2019-10-22T18:38:14.000Z","leapseconds":18,"ept":0.005,"lat":41.339506891,"lon":-75.705935988,"altHAE":210.604,"altMSL":244.035,"magvar":-12.1,"speed":0.000,"climb":0.000,"geoidSep":-33.430}
$GPGGA,183815.00,4120.3704,N,07542.3562,W,1,00,,244.03,M,-33.430,M,,*4C
$GPRMC,183815.00,A,4120.3704,N,07542.3562,W,0.0000,,221019,-12.1,W*57
$GPGSA,A,3,,,,,,,,,,,,,,,*1C
{"class":"TPV","mode":3,"time":"2019-10-22T18:38:15.000Z","leapseconds":18,"ept":0.005,"lat":41.339506891,"lon":-75.705935988,"altHAE":210.604,"altMSL":244.035,"magvar":-12.1,"speed":0.000,"climb":0.000,"geoidSep":-33.430}
$GPGGA,183816.00,4120.3704,N,07542.3562,W,1,00,,244.03,M,-33.430,M,,*4F
$GPRMC,183816.00,A,4120.3704,N,07542.3562,W,0.0000,,221019,-12.1,W*54
$GPGSA,A,3,,,,,,,,,,,,,,,*1C
{"class":"TPV","mode":3,"time":"2019-10-22T18:38:16.000Z","leapseconds":18,"ept":0.005,"lat":41.339506891,"lon":-75.705935988,"altHAE":210.604,"altMSL":244.035,"magvar":-12.1,"speed":0.000,"climb":0.000,"geoidSep":-33.430}
$GPGGA,183817.00,4120.3704,N,07542.3562,W,1,00,,244.03,M,-33.430,M,,*4E
$GPRMC,183817.00,A,4120.3704,N,07542.3562,W,0.0000,,221019,-12.1,W*55
$GPGSA,A,3,,,,,,,,,,,,,,,*1C
{"class":"TPV","mode":3,"time":"2019-10-22T18:38:17.000Z","leapseconds":18,"ept":0.005,"lat":41.339506891,"lon":-75.705935988,"altHAE":210.604,"altMSL":244.035,"magvar":-12.1,"speed":0.000,"climb":0.000,"geoidSep":-33.430}
$GPGGA,183818.00,4120.3704,N,07542.3562,W,1,00,,244.03,M,-33.430,M,,*41
$GPRMC,183818.00,A,4120.3704,N,07542.3562,W,0.0000,,221019,-12.1,W*5A
$GPGSA,A,3,,,,,,,,,,,,,,,*1C
{"class":"TPV","mode":3,"time":"2019-10-22T18:38:18.000Z","leapseconds":18,"ept":0.005,"lat":41.339506891,"lon":-75.705935988,"altHAE":210.604,"altMSL":244.035,"magvar":-12.1,"speed":0.000,"climb":0.000,"geoidSep":-33.430}
$GPGGA,183819.00,4120.3704,N,07542.3562,W,1,00,,244.03,M,-33.430,M,,*40
$GPRMC,183819.00,A,4120.3704,N,07542.3562,W,0.0000,,221019,-12.1,W*5B
$GPGSA,A,3,,,,,,,,,,,,,,,*1C
{"class":"TPV","mode":3,"time":"2019-10-22T18:38:19.000Z","leapseconds":18,"ept":0.005,"lat":41.339506891,"lon":-75.705935988,"altHAE":210.604,"altMSL":244.035,"magvar":-12.1,"speed":0.000,"climb":0.000,"geoidSep":-33.430}
$GPGGA,183820.00,4120.3704,N,07542.3562,W,1,00,,244.03,M,-33.430,M,,*4A
$GPRMC,183820.00,A,4120.3704,N,07542.3562,W,0.0000,,221019,-12.1,W*51
$GPGSA,A,3,,,,,,,,,,,,,,,*1C
{"class":"TPV","mode":3,"time":"2019-10-22T18:38:20.000Z","leapseconds":18,"ept":0.005,"lat":41.339506891,"lon":-75.705935988,"altHAE":210.604,"altMSL":244.035,"magvar":-12.1,"speed":0.000,"climb":0.000,"geoidSep":-33.430}
$GPGGA,183821.00,4120.3704,N,07542.3562,W,1,00,,244.03,M,-33.430,M,,*4B
$GPRMC,183821.00,A,4120.3704,N,07542.3562,W,0.0000,,221019,-12.1,W*50
$GPGSA,A,3,,,,,,,,,,,,,,,*1C
{"class":"TPV","mode":3,"time":"2019-10-22T18:38:21.000Z","leapseconds":18,"ept":0.005,"lat":41.339506891,"lon":-75.705935988,"altHAE":210.604,"altMSL":244.035,"magvar":-12.1,"speed":0.000,"climb":0.000,"geoidSep":-33.430}
$GPGGA,183822.00,4120.3704,N,07542.3562,W,1,00,,244.03,M,-33.430,M,,*48
$GPRMC,183822.00,A,4120.3704,N,07542.3562,W,0.0000,,221019,-12.1,W*53
$GPGSA,A,3,,,,,,,,,,,,,,,*1C
{"class":"TPV","mode":3,"time":"2019-10-22T18:38:22.000Z","leapseconds":18,"ept":0.005,"lat":41.339506891,"lon":-75.705935988,"altHAE":210.604,"altMSL":244.035,"magvar":-12.1,"speed":0.000,"climb":0.000,"geoidSep":-33.430}
$GPGGA,183823.00,4120.3704,N,07542.3562,W,1,00,,244.03,M,-33.430,M,,*49
$GPRMC,183823.00,A,4120.3704,N,07542.3562,W,0.0000,,221019,-12.1,W*52
$GPGSA,A,3,,,,,,,,,,,,,,,*1C
{"class":"TPV","mode":3,"time":"2019-10-22T18:38:23.000Z","leapseconds":18,"ept":0.005,"lat":41.339506891,"lon":-75.705935988,"altHAE":210.604,"altMSL":244.035,"magvar":-12.1,"speed":0.000,"climb":0.000,"geoidSep":-33.430}
$GPGGA,183824.00,4120.3704,N,07542.3562,W,1,00,,244.03,M,-33.430,M,,*4E
$GPRMC,183824.00,A,4120.3704,N,07542.3562,W,0.0000,,221019,-12.1,W*55
$GPGSA,A,3,,,,,,,,,,,,,,,*1C
{"class":"TPV","mode":3,"time":"2019-10-22T18:38:24.000Z","leapseconds":18,"ept":0.005,"lat":41.339506891,"lon":-75.705935988,"altHAE":210.604,"altMSL":244.035,"magvar":-12.1,"speed":0.000,"climb":0.000,"geoidSep":-33.430}
$GPGGA,183825.00,4120.3704,N,07542.3562,W,1,00,,244.03,M,-33.430,M,,*4F
$GPRMC,183825.00,A,4120.3704,N,07542.3562,W,0.0000,,221019,-12.1,W*54
$GPGSA,A,3,,,,,,,,,,,,,,,*1C
{"class":"TPV","mode":3,"time":"2019-10-22T18:38:25.000Z","leapseconds":18,"ept":0.005,"lat":41.339506891,"lon":-75.705935988,"altHAE":210.604,"altMSL":244.035,"magvar":-12.1,"speed":0.000,"climb":0.000,"geoidSep":-33.430}
$GPGGA,183826.00,4120.3704,N,07542.3562,W,1,00,,244.03,M,-33.430,M,,*4C
$GPRMC,183826.00,A,4120.3704,N,07542.3562,W,0.0000,,221019,-12.1,W*57
$GPGSA,A,3,,,,,,,,,,,,,,,*1C
{"class":"TPV","mode":3,"time":"2019-10-22T18:38:26.000Z","leapseconds":18,"ept":0.005,"lat":41.339506891,"lon":-75.705935988,"altHAE":210.604,"altMSL":244.035,"magvar":-12.1,"speed":0.000,"climb":0.000,"geoidSep":-33.430}
$GPGGA,183827.00,4120.3704,N,07542.3562,W,1,00,,244.03,M,-33.430,M,,*4D
$GPRMC,183827.00,A,4120.3704,N,07542.3562,W,0.0000,,221019,-12.1,W*56
$GPGSA,A,3,,,,,,,,,,,,,,,*1C
{"class":"TPV","mode":3,"time":"2019-10-22T18:38:27.000Z","leapseconds":18,"ept":0.005,"lat":41.339506891,"lon":-75.705935988,"altHAE":210.604,"altMSL":244.035,"magvar":-12.1,"speed":0.000,"climb":0.000,"geoidSep":-33.430}
$GPGGA,183828.00,4120.3704,N,07542.3562,W,1,00,,244.03,M,-33.430,M,,*42
$GPRMC,183828.00,A,4120.3704,N,07542.3562,W,0.0000,,221019,-12.1,W*59
$GPGSA,A,3,,,,,,,,,,,,,,,*1C
{"class":"TPV","mode":3,"time":"2019-10-22T18:38:28.000Z","leapseconds":18,"ept":0.005,"lat":41.339506891,"lon":-75.705935988,"altHAE":210.604,"altMSL":244.035,"magvar":-12.1,"speed":0.000,"climb":0.000,"geoidSep":-33.430}
$GPGGA,183829.00,4120.3704,N,07542.3562,W,1,00,,244.03,M,-33.430,M,,*43
$GPRMC,183829.00,A,4120.3704,N,07542.3562,W,0.0000,,221019,-12.1,W*58
$GPGSA,A,3,,,,,,,,,,,,,,,*1C
{"class":"TPV","mode":3,"time":"2019-10-22T18:38:29.000Z","leapseconds":18,"ept":0.005,"lat":41.339506891,"lon":-75.705935988,"altHAE":210.604,"altMSL":244.035,"magvar":-12.1,"speed":0.000,"climb":0.000,"geoidSep":-33.430}
$GPGGA,183830.00,4120.3704,N,07542.3562,W,1,00,,244.03,M,-33.430,M,,*4B
$GPRMC,183830.00,A,4120.3704,N,07542.3562,W,0.0000,,221019,-12.1,W*50
$GPGSA,A,3,,,,,,,,,,,,,,,*1C
{"class":"TPV","mode":3,"time":"2019-10-22T18:38:30.000Z","leapseconds":18,"ept":0.005,"lat":41.339506891,"lon":-75.705935988,"altHAE":210.604,"altMSL":244.035,"magvar":-12.1,"speed":0.000,"climb":0.000,"geoidSep":-33.430}
$GPGGA,183831.00,4120.3704,N,07542.3562,W,1,00,,244.03,M,-33.430,M,,*4A
$GPRMC,183831.00,A,4120.3704,N,07542.3562,W,0.0000,,221019,-12.1,W*51
$GPGSA,A,3,,,,,,,,,,,,,,,*1C
{"class":"TPV","mode":3,"time":"2019-10-22T18:38:31.000Z","leapseconds":18,"ept":0.005,"lat":41.339506891,"lon":-75.705935988,"altHAE":210.604,"altMSL":244.035,"magvar":-12.1,"speed":0.000,"climb":0.000,"geoidSep":-33.430}
$GPGGA,183832.00,4120.3704,N,07542.3562,W,1,00,,244.03,M,-33.430,M,,*49
$GPRMC,183832.00,A,4120.3704,N,07542.3562,W,0.0000,,221019,-12.1,W*52
$GPGSA,A,3,,,,,,,,,,,,,,,*1C
{"class":"TPV","mode":3,"time":"2019-10-22T18:38:32.000Z","leapseconds":18,"ept":0.005,"lat":41.339506891,"lon":-75.705935988,"altHAE":210.604,"altMSL":244.035,"magvar":-12.1,"speed":0.000,"climb":0.000,"geoidSep":-33.430}
$GPGGA,183833.00,4120.3704,N,07542.3562,W,1,00,,244.03,M,-33.430,M,,*48
$GPRMC,183833.00,A,4120.3704,N,07542.3562,W,0.0000,,221019,-12.1,W*53
$GPGSA,A,3,,,,,,,,,,,,,,,*1C
{"class":"TPV","mode":3,"time":"2019-10-22T18:38:33.000Z","leapseconds":18,"ept":0.005,"lat":41.339506891,"lon":-75.705935988,"altHAE":210.604,"altMSL":244.035,"magvar":-12.1,"speed":0.000,"climb":0.000,"geoidSep":-33.430}
$GPGGA,183834.00,4120.3704,N,07542.3562,W,1,00,,244.03,M,-33.430,M,,*4F
$GPRMC,183834.00,A,4120.3704,N,07542.3562,W,0.0000,,221019,-12.1,W*54
$GPGSA,A,3,,,,,,,,,,,,,,,*1C
{"class":"TPV","mode":3,"time":"2019-10-22T18:38:34.000Z","leapseconds":18,"ept":0.005,"lat":41.339506891,"lon":-75.705935988,"altHAE":210.604,"altMSL":244.035,"magvar":-12.1,"speed":0.000,"climb":0.000,"geoidSep":-33.430}
$GPGGA,183835.00,4120.3704,N,07542.3562,W,1,00,,244.03,M,-33.430,M,,*4E
$GPRMC,183835.00,A,4120.3704,N,07542.3562,W,0.0000,,221019,-12.1,W*55
$GPGSA,A,3,,,,,,,,,,,,,,,*1C
{"class":"TPV","mode":3,"time":"2019-10-22T18:38:35.000Z","leapseconds":18,"ept":0.005,"lat":41.339506891,"lon":-75.705935988,"altHAE":210.604,"altMSL":244.035,"magvar":-12.1,"speed":0.000,"climb":0.000,"geoidSep":-33.430}
$GPGGA,183836.00,4120.3704,N,07542.3562,W,1,00,,244.03,M,-33.430,M,,*4D
$GPRMC,183836.00,A,4120.3704,N,07542.3562,W,0.0000,,221019,-12.1,W*56
$GPGSA,A,3,,,,,,,,,,,,,,,*1C
{"class":"TPV","mode":3,"time":"2019-10-22T18:38:36.000Z","leapseconds":18,"ept":0.005,"lat":41.339506891,"lon":-75.705935988,"altHAE":210.604,"altMSL":244.035,"magvar":-12.1,"speed":0.000,"climb":0.000,"geoidSep":-33.430}
$GPGGA,183837.00,4120.3704,N,07542.3562,W,1,00,,244.03,M,-33.430,M,,*4C
$GPRMC,183837.00,A,4120.3704,N,07542.3562,W,0.0000,,221019,-12.1,W*57
$GPGSA,A,3,,,,,,,,,,,,,,,*1C
{"class":"TPV","mode":3,"time":"2019-10-22T18:38:37.000Z","leapseconds":18,"ept":0.005,"lat":41.339506891,"lon":-75.705935988,"altHAE":210.604,"altMSL":244.035,"magvar":-12.1,"speed":0.000,"climb":0.000,"geoidSep":-33.430}
$GPGGA,183838.00,4120.3704,N,07542.3562,W,1,00,,244.03,M,-33.430,M,,*43
$GPRMC,183838.00,A,4120.3704,N,07542.3562,W,0.0000,,221019,-12.1,W*58
$GPGSA,A,3,,,,,,,,,,,,,,,*1C
{"class":"TPV","mode":3,"time":"2019-10-22T18:38:38.000Z","leapseconds":18,"ept":0.005,"lat":41.339506891,"lon":-75.705935988,"altHAE":210.604,"altMSL":244.035,"magvar":-12.1,"speed":0.000,"climb":0.000,"geoidSep":-33.430}
$GPGGA,183839.00,4120.3704,N,07542.3562,W,1,00,,244.03,M,-33.430,M,,*42
$GPRMC,183839.00,A,4120.3704,N,07542.3562,W,0.0000,,221019,-12.1,W*59
$GPGSA,A,3,,,,,,,,,,,,,,,*1C
{"class":"TPV","mode":3,"time":"2019-10-22T18:38:39.000Z","leapseconds":18,"ept":0.005,"lat":41.339506891,"lon":-75.705935988,"altHAE":210.604,"altMSL":244.035,"magvar":-12.1,"speed":0.000,"climb":0.000,"geoidSep":-33.430}
$GPGGA,183840.00,4120.3704,N,07542.3562,W,1,00,,244.03,M,-33.430,M,,*4C
$GPRMC,183840.00,A,4120.3704,N,07542.3562,W,0.0000,,221019,-12.1,W*57
$GPGSA,A,3,,,,,,,,,,,,,,,*1C
{"class":"TPV","mode":3,"time":"2019-10-22T18:38:40.000Z","leapseconds":18,"ept":0.005,"lat":41.339506891,"lon":-75.705935988,"altHAE":210.604,"altMSL":244.035,"magvar":-12.1,"speed":0.000,"climb":0.000,"geoidSep":-33.430}
$GPGGA,183841.00,4120.3704,N,07542.3562,W,1,00,,244.03,M,-33.430,M,,*4D
$GPRMC,183841.00,A,4120.3704,N,07542.3562,W,0.0000,,221019,-12.1,W*56
$GPGSA,A,3,,,,,,,,,,,,,,,*1C
{"class":"TPV","mode":3,"time":"2019-10-22T18:38:41.000Z","leapseconds":18,"ept":0.005,"lat":41.339506891,"lon":-75.705935988,"altHAE":210.604,"altMSL":244.035,"magvar":-12.1,"speed":0.000,"climb":0.000,"geoidSep":-33.430}
$GPGGA,183842.00,4120.3704,N,07542.3562,W,1,00,,244.03,M,-33.430,M,,*4E
$GPRMC,183842.00,A,4120.3704,N,07542.3562,W,0.0000,,221019,-12.1,W*55
$GPGSA,A,3,,,,,,,,,,,,,,,*1C
{"class":"TPV","mode":3,"time":"2019-10-22T18:38:42.000Z","leapseconds":18,"ept":0.005,"lat":41.339506891,"lon":-75.705935988,"altHAE":210.604,"altMSL":244.035,"magvar":-12.1,"speed":0.000,"climb":0.000,"geoidSep":-33.430}
$GPGGA,183843.00,4120.3704,N,07542.3562,W,1,00,,244.03,M,-33.430,M,,*4F
$GPRMC,183843.00,A,4120.3704,N,07542.3562,W,0.0000,,221019,-12.1,W*54
$GPGSA,A,3,,,,,,,,,,,,,,,*1C
{"class":"TPV","mode":3,"time":"2019-10-22T18:38:43.000Z","leapseconds":18,"ept":0.005,"lat":41.339506891,"lon":-75.705935988,"altHAE":210.604,"altMSL":244.035,"magvar":-12.1,"speed":0.000,"climb":0.000,"geoidSep":-33.430}
$GPGGA,183844.00,4120.3704,N,07542.3562,W,1,00,,244.03,M,-33.430,M,,*48
$GPRMC,183844.00,A,4120.3704,N,07542.3562,W,0.0000,,221019,-12.1,W*53
$GPGSA,A,3,,,,,,,,,,,,,,,*1C
{"class":"TPV","mode":3,"time":"2019-10-22T18:38:44.000Z","leapseconds":18,"ept":0.005,"lat":41.339506891,"lon":-75.705935988,"altHAE":210.604,"altMSL":244.035,"magvar":-12.1,"speed":0.000,"climb":0.000,"geoidSep":-33.430}
$GPGGA,183845.00,4120.3704,N,07542.3562,W,1,00,,244.03,M,-33.430,M,,*49
$GPRMC,183845.00,A,4120.3704,N,07542.3562,W,0.0000,,221019,-12.1,W*52
$GPGSA,A,3,,,,,,,,,,,,,,,*1C
{"class":"TPV","mode":3,"time":"2019-10-22T18:38:45.000Z","leapseconds":18,"ept":0.005,"lat":41.339506891,"lon":-75.705935988,"altHAE":210.604,"altMSL":244.035,"magvar":-12.1,"speed":0.000,"climb":0.000,"geoidSep":-33.430}
$GPGGA,183846.00,4120.3704,N,07542.3562,W,1,00,,244.03,M,-33.430,M,,*4A
$GPRMC,183846.00,A,4120.3704,N,07542.3562,W,0.0000,,221019,-12.1,W*51
$GPGSA,A,3,,,,,,,,,,,,,,,*1C
{"class":"TPV","mode":3,"time":"2019-10-22T18:38:46.000Z","leapseconds":18,"ept":0.005,"lat":41.339506891,"lon":-75.705935988,"altHAE":210.604,"altMSL":244.035,"magvar":-12.1,"speed":0.000,"climb":0.000,"geoidSep":-33.430}
$GPGGA,183847.00,4120.3704,N,07542.3562,W,1,00,,244.03,M,-33.430,M,,*4B
$GPRMC,183847.00,A,4120.3704,N,07542.3562,W,0.0000,,221019,-12.1,W*50
$GPGSA,A,3,,,,,,,,,,,,,,,*1C
{"class":"TPV","mode":3,"time":"2019-10-22T18:38:47.000Z","leapseconds":18,"ept":0.005,"lat":41.339506891,"lon":-75.705935988,"altHAE":210.604,"altMSL":244.035,"magvar":-12.1,"speed":0.000,"climb":0.000,"geoidSep":-33.430}
$GPGGA,183848.00,4120.3704,N,07542.3562,W,1,00,,244.03,M,-33.430,M,,*44
$GPRMC,183848.00,A,4120.3704,N,07542.3562,W,0.0000,,221019,-12.1,W*5F
$GPGSA,A,3,,,,,,,,,,,,,,,*1C
{"class":"TPV","mode":3,"time":"2019-10-22T18:38:48.000Z","leapseconds":18,"ept":0.005,"lat":41.339506891,"lon":-75.705935988,"altHAE":210.604,"altMSL":244.035,"magvar":-12.1,"speed":0.000,"climb":0.000,"geoidSep":-33.430}
$GPGGA,183849.00,4120.3704,N,07542.3562,W,1,00,,244.03,M,-33.430,M,,*45
$GPRMC,183849.00,A,4120.3704,N,07542.3562,W,0.0000,,221019,-12.1,W*5E
$GPGSA,A,3,,,,,,,,,,,,,,,*1C
{"class":"TPV","mode":3,"time":"2019-10-22T18:38:49.000Z","leapseconds":18,"ept":0.005,"lat":41.339506891,"lon":-75.705935988,"altHAE":210.604,"altMSL":244.035,"magvar":-12.1,"speed":0.000,"climb":0.000,"geoidSep":-33.430}
$GPGGA,183850.00,4120.3704,N,07542.3562,W,1,00,,244.03,M,-33.430,M,,*4D
$GPRMC,183850.00,A,4120.3704,N,07542.3562,W,0.0000,,221019,-12.1,W*56
$GPGSA,A,3,,,,,,,,,,,,,,,*1C
{"class":"TPV","mode":3,"time":"2019-10-22T18:38:50.000Z","leapseconds":18,"ept":0.005,"lat":41.339506891,"lon":-75.705935988,"altHAE":210.604,"altMSL":244.035,"magvar":-12.1,"speed":0.000,"climb":0.000,"geoidSep":-33.430}
$GPGGA,183851.00,4120.3704,N,07542.3562,W,1,00,,244.03,M,-33.430,M,,*4C
$GPRMC,183851.00,A,4120.3704,N,07542.3562,W,0.0000,,221019,-12.1,W*57
$GPGSA,A,3,,,,,,,,,,,,,,,*1C
{"class":"TPV","mode":3,"time":"2019-10-22T18:38:51.000Z","leapseconds":18,"ept":0.005,"lat":41.339506891,"lon":-75.705935988,"altHAE":210.604,"altMSL":244.035,"magvar":-12.1,"speed":0.000,"climb":0.000,"geoidSep":-33.430}
$GPGGA,183852.00,4120.3704,N,07542.3562,W,1,00,,244.03,M,-33.430,M,,*4F
$GPRMC,183852.00,A,4120.3704,N,07542.3562,W,0.0000,,221019,-12.1,W*54
$GPGSA,A,3,,,,,,,,,,,,,,,*1C
{"class":"TPV","mode":3,"time":"2019-10-22T18:38:52.000Z","leapseconds":18,"ept":0.005,"lat":41.339506891,"lon":-75.705935988,"altHAE":210.604,"altMSL":244.035,"magvar":-12.1,"speed":0.000,"climb":0.000,"geoidSep":-33.430}
$GPGGA,183853.00,4120.3704,N,07542.3562,W,1,00,,244.03,M,-33.430,M,,*4E
$GPRMC,183853.00,A,4120.3704,N,07542.3562,W,0.0000,,221019,-12.1,W*55
$GPGSA,A,3,,,,,,,,,,,,,,,*1C
{"class":"TPV","mode":3,"time":"2019-10-22T18:38:53.000Z","leapseconds":18,"ept":0.005,"lat":41.339506891,"lon":-75.705935988,"altHAE":210.604,"altMSL":244.035,"magvar":-12.1,"speed":0.000,"climb":0.000,"geoidSep":-33.430}
$GPGGA,183854.00,4120.3704,N,07542.3562,W,1,00,,244.03,M,-33.430,M,,*49
$GPRMC,183854.00,A,4120.3704,N,07542.3562,W,0.0000,,221019,-12.1,W*52
$GPGSA,A,3,,,,,,,,,,,,,,,*1C
{"class":"TPV","mode":3,"time":"2019-10-22T18:38:54.000Z","leapseconds":18,"ept":0.005,"lat":41.339506891,"lon":-75.705935988,"altHAE":210.604,"altMSL":244.035,"magvar":-12.1,"speed":0.000,"climb":0.000,"geoidSep":-33.430}
$GPGGA,183855.00,4120.3704,N,07542.3562,W,1,00,,244.03,M,-33.430,M,,*48
$GPRMC,183855.00,A,4120.3704,N,07542.3562,W,0.0000,,221019,-12.1,W*53
$GPGSA,A,3,,,,,,,,,,,,,,,*1C
{"class":"TPV","mode":3,"time":"2019-10-22T18:38:55.000Z","leapseconds":18,"ept":0.005,"lat":41.339506891,"lon":-75.705935988,"altHAE":210.604,"altMSL":244.035,"magvar":-12.1,"speed":0.000,"climb":0.000,"geoidSep":-33.430}
$GPGGA,183856.00,4120.3704,N,07542.3562,W,1,00,,244.03,M,-33.430,M,,*4B
$GPRMC,183856.00,A,4120.3704,N,07542.3562,W,0.0000,,221019,-12.1,W*50
$GPGSA,A,3,,,,,,,,,,,,,,,*1C
{"class":"TPV","mode":3,"time":"2019-10-22T18:38:56.000Z","leapseconds":18,"ept":0.005,"lat":41.339506891,"lon":-75.705935988,"altHAE":210.604,"altMSL":244.035,"magvar":-12.1,"speed":0.000,"climb":0.000,"geoidSep":-33.430}
$GPGGA,183857.00,4120.3704,N,07542.3562,W,1,00,,244.03,M,-33.430,M,,*4A
$GPRMC,183857.00,A,4120.3704,N,07542.3562,W,0.0000,,221019,-12.1,W*51
$GPGSA,A,3,,,,,,,,,,,,,,,*1C
{"class":"TPV","mode":3,"time":"2019-10-22T18:38:57.000Z","leapseconds":18,"ept":0.005,"lat":41.339506891,"lon":-75.705935988,"altHAE":210.604,"altMSL":244.035,"magvar":-12.1,"speed":0.000,"climb":0.000,"geoidSep":-33.430}
$GPGGA,183858.00,4120.3704,N,07542.3562,W,1,00,,244.03,M,-33.430,M,,*45
$GPRMC,183858.00,A,4120.3704,N,07542.3562,W,0.0000,,221019,-12.1,W*5E
$GPGSA,A,3,,,,,,,,,,,,,,,*1C
{"class":"TPV","mode":3,"time":"2019-10-22T18:38:58.000Z","leapseconds":18,"ept":0.005,"lat":41.339506891,"lon":-75.705935988,"altHAE":210.604,"altMSL":244.035,"magvar":-12.1,"speed":0.000,"climb":0.000,"geoidSep":-33.430}
$GPGGA,183859.00,4120.3704,N,07542.3562,W,1,00,,244.03,M,-33.430,M,,*44
$GPRMC,183859.00,A,4120.3704,N,07542.3562,W,0.0000,,221019,-12.1,W*5F
$GPGSA,A,3,,,,,,,,,,,,,,,*1C
{"class":"TPV","mode":3,"time":"2019-10-22T18:38:59.000Z","leapseconds":18,"ept":0.005,"lat":41.339506891,"lon":-75.705935988,"altHAE":210.604,"altMSL":244.035,"magvar":-12.1,"speed":0.000,"climb":0.000,"geoidSep":-33.430}
$GPGGA,183900.00,4120.3704,N,07542.3562,W,1,00,,244.03,M,-33.430,M,,*49
$GPRMC,183900.00,A,4120.3704,N,07542.3562,W,0.0000,,221019,-12.1,W*52
$GPGSA,A,3,,,,,,,,,,,,,,,*1C
{"class":"TPV","mode":3,"time":"2019-10-22T18:39:00.000Z","leapseconds":18,"ept":0.005,"lat":41.339506891,"lon":-75.705935988,"altHAE":210.604,"altMSL":244.035,"magvar":-12.1,"speed":0.000,"climb":0.000,"geoidSep":-33.430}
$GPGGA,183901.00,4120.3704,N,07542.3562,W,1,00,,244.03,M,-33.430,M,,*48
$GPRMC,183901.00,A,4120.3704,N,07542.3562,W,0.0000,,221019,-12.1,W*53
$GPGSA,A,3,,,,,,,,,,,,,,,*1C
{"class":"TPV","mode":3,"time":"2019-10-22T18:39:01.000Z","leapseconds":18,"ept":0.005,"lat":41.339506891,"lon":-75.705935988,"altHAE":210.604,"altMSL":244.035,"magvar":-12.1,"speed":0.000,"climb":0.000,"geoidSep":-33.430}
$GPGGA,183902.00,4120.3704,N,07542.3562,W,1,00,,244.03,M,-33.430,M,,*4B
$GPRMC,183902.00,A,4120.3704,N,07542.3562,W,0.0000,,221019,-12.1,W*50
$GPGSA,A,3,,,,,,,,,,,,,,,*1C
{"class":"TPV","mode":3,"time":"2019-10-22T18:39:02.000Z","leapseconds":18,"ept":0.005,"lat":41.339506891,"lon":-75.705935988,"altHAE":210.604,"altMSL":244.035,"magvar":-12.1,"speed":0.000,"climb":0.000,"geoidSep":-33.430}
$GPGGA,183903.00,4120.3704,N,07542.3562,W,1,00,,244.03,M,-33.430,M,,*4A
$GPRMC,183903.00,A,4120.3704,N,07542.3562,W,0.0000,,221019,-12.1,W*51
$GPGSA,A,3,,,,,,,,,,,,,,,*1C
{"class":"TPV","mode":3,"time":"2019-10-22T18:39:03.000Z","leapseconds":18,"ept":0.005,"lat":41.339506891,"lon":-75.705935988,"altHAE":210.604,"altMSL":244.035,"magvar":-12.1,"speed":0.000,"climb":0.000,"geoidSep":-33.430}
$GPGGA,183904.00,4120.3704,N,07542.3562,W,1,00,,244.03,M,-33.430,M,,*4D
$GPRMC,183904.00,A,4120.3704,N,07542.3562,W,0.0000,,221019,-12.1,W*56
$GPGSA,A,3,,,,,,,,,,,,,,,*1C
{"class":"TPV","mode":3,"time":"2019-10-22T18:39:04.000Z","leapseconds":18,"ept":0.005,"lat":41.339506891,"lon":-75.705935988,"altHAE":210.604,"altMSL":244.035,"magvar":-12.1,"speed":0.000,"climb":0.000,"geoidSep":-33.430}
$GPGGA,183905.00,4120.3704,N,07542.3562,W,1,00,,244.03,M,-33.430,M,,*4C
$GPRMC,183905.00,A,4120.3704,N,07542.3562,W,0.0000,,221019,-12.1,W*57
$GPGSA,A,3,,,,,,,,,,,,,,,*1C
{"class":"TPV","mode":3,"time":"2019-10-22T18:39:05.000Z","leapseconds":18,"ept":0.005,"lat":41.339506891,"lon":-75.705935988,"altHAE":210.604,"altMSL":244.035,"magvar":-12.1,"speed":0.000,"climb":0.000,"geoidSep":-33.430}
$GPGGA,183906.00,4120.3704,N,07542.3562,W,1,00,,244.03,M,-33.430,M,,*4F
$GPRMC,183906.00,A,4120.3704,N,07542.3562,W,0.0000,,221019,-12.1,W*54
$GPGSA,A,3,,,,,,,,,,,,,,,*1C
{"class":"TPV","mode":3,"time":"2019-10-22T18:39:06.000Z","leapseconds":18,"ept":0.005,"lat":41.339506891,"lon":-75.705935988,"altHAE":210.604,"altMSL":244.035,"magvar":-12.1,"speed":0.000,"climb":0.000,"geoidSep":-33.430}
$GPGGA,183907.00,4120.3704,N,07542.3562,W,1,00,,244.03,M,-33.430,M,,*4E
$GPRMC,183907.00,A,4120.3704,N,07542.3562,W,0.0000,,221019,-12.1,W*55
$GPGSA,A,3,,,,,,,,,,,,,,,*1C
{"class":"TPV","mode":3,"time":"2019-10-22T18:39:07.000Z","leapseconds":18,"ept":0.005,"lat":41.339506891,"lon":-75.705935988,"altHAE":210.604,"altMSL":244.035,"magvar":-12.1,"speed":0.000,"climb":0.000,"geoidSep":-33.430}
$GPGGA,183908.00,4120.3704,N,07542.3562,W,1,00,,244.03,M,-33.430,M,,*41
$GPRMC,183908.00,A,4120.3704,N,07542.3562,W,0.0000,,221019,-12.1,W*5A
$GPGSA,A,3,,,,,,,,,,,,,,,*1C
{"class":"TPV","mode":3,"time":"2019-10-22T18:39:08.000Z","leapseconds":18,"ept":0.005,"lat":41.339506891,"lon":-75.705935988,"altHAE":210.604,"altMSL":244.035,"magvar":-12.1,"speed":0.000,"climb":0.000,"geoidSep":-33.430}
$GPGGA,183909.00,4120.3704,N,07542.3562,W,1,00,,244.03,M,-33.430,M,,*40
$GPRMC,183909.00,A,4120.3704,N,07542.3562,W,0.0000,,221019,-12.1,W*5B
$GPGSA,A,3,,,,,,,,,,,,,,,*1C
{"class":"TPV","mode":3,"time":"2019-10-22T18:39:09.000Z","leapseconds":18,"ept":0.005,"lat":41.339506891,"lon":-75.705935988,"altHAE":210.604,"altMSL":244.035,"magvar":-12.1,"speed":0.000,"climb":0.000,"geoidSep":-33.430}
