$GPRMC,040928.00,V,,S,,W,0.0000,0.000,120419,,*23
$GPGSA,A,1,,,,,,,,,,,,,,,,*32
{"class":"TPV","mode":1,"time":"2019-04-12T04:09:28.000Z","ept":0.005}
$GPRMC,040929.00,V,2037.7075,N,08704.0535,W,,,120419,-2.0,W*62
{"class":"TPV","mode":0,"time":"2019-04-12T04:09:29.000Z","ept":0.005}
$GPGGA,040929.00,2037.7075,N,08704.0535,W,1,05,2.34,27.90,M,-15.010,M,,*67
$GPRMC,040929.00,A,2037.7075,N,08704.0535,W,0.0000,0.000,120419,-2.0,W*45
$GPGSA,A,3,,,,,,,,,,,,,2.9,2.3,1.7*3E
{"class":"TPV","mode":3,"time":"2019-04-12T04:09:29.000Z","ept":0.005,"lat":20.628457567,"lon":-87.067558169,"altHAE":12.892,"altMSL":27.902,"epv":39.373,"track":0.0000,"magtrack":358.0076,"magvar":-2.0,"speed":0.000,"climb":0.000,"velN":0.000,"velE":0.000,"velD":-0.000,"geoidSep":-15.010,"eph":44.377,"sep":55.020}
$GPRMC,040930.00,A,2037.7075,N,08704.0535,W,,,120419,-2.0,W*7D
{"class":"TPV","mode":0,"time":"2019-04-12T04:09:30.000Z","ept":0.005}
$GPGGA,040930.00,2037.7075,N,08704.0535,W,1,05,2.34,27.90,M,-15.010,M,,*6F
$GPRMC,040930.00,A,2037.7075,N,08704.0535,W,0.0000,0.000,120419,-2.0,W*4D
$GPGSA,A,3,,,,,,,,,,,,,2.9,2.3,1.7*3E
{"class":"TPV","mode":3,"time":"2019-04-12T04:09:30.000Z","ept":0.005,"lat":20.628457697,"lon":-87.067558187,"altHAE":12.894,"altMSL":27.904,"epv":39.384,"track":0.0000,"magtrack":358.0076,"magvar":-2.0,"speed":0.000,"climb":0.000,"epc":78.76,"velN":0.000,"velE":0.000,"velD":-0.000,"geoidSep":-15.010,"eph":44.392,"sep":55.038}
$GPRMC,040931.00,A,2037.7075,N,08704.0535,W,,,120419,-2.0,W*7C
{"class":"TPV","mode":0,"time":"2019-04-12T04:09:31.000Z","ept":0.005}
$GPGGA,040931.00,2037.7075,N,08704.0535,W,1,05,2.34,27.91,M,-15.010,M,,*6F
$GPRMC,040931.00,A,2037.7075,N,08704.0535,W,0.0000,0.000,120419,-2.0,W*4C
$GPGSA,A,3,,,,,,,,,,,,,2.9,2.3,1.7*3E
{"class":"TPV","mode":3,"time":"2019-04-12T04:09:31.000Z","ept":0.005,"lat":20.628457840,"lon":-87.067558197,"altHAE":12.896,"altMSL":27.906,"epv":39.384,"track":0.0000,"magtrack":358.0076,"magvar":-2.0,"speed":0.000,"climb":0.000,"epc":78.77,"velN":0.000,"velE":0.000,"velD":-0.000,"geoidSep":-15.010,"eph":44.392,"sep":55.038}
$GPRMC,040932.00,A,2037.7075,N,08704.0535,W,,,120419,-2.0,W*7F
{"class":"TPV","mode":0,"time":"2019-04-12T04:09:32.000Z","ept":0.005}
$GPGGA,040937.53,2037.7075,N,08704.0535,W,1,05,2.34,27.91,M,-15.010,M,,*6F
$GPRMC,040937.53,A,2037.7075,N,08704.0535,W,0.0000,0.000,221206,-2.0,W*46
$GPGSA,A,3,,,,,,,,,,,,,2.9,2.3,1.7*3E
{"class":"TPV","mode":3,"time":"2006-12-22T04:09:37.531Z","leapseconds":14,"ept":0.005,"lat":20.628457990,"lon":-87.067558204,"altHAE":12.897,"altMSL":27.907,"epv":39.393,"track":0.0000,"magtrack":358.0076,"magvar":-2.0,"speed":0.000,"climb":0.000,"velN":0.000,"velE":0.000,"velD":-0.000,"geoidSep":-15.010,"eph":44.405,"sep":55.053}
$GPRMC,040938.00,A,2037.7075,N,08704.0535,W,,,221206,-2.0,W*7F
{"class":"TPV","mode":0,"time":"2006-12-22T04:09:38.000Z","leapseconds":14,"ept":0.005}
$GPGGA,040938.00,2037.7075,N,08704.0535,W,1,05,2.34,27.91,M,-15.010,M,,*66
$GPRMC,040938.00,A,2037.7075,N,08704.0535,W,0.0000,0.000,221206,-2.0,W*4F
$GPGSA,A,3,,,,,,,,,,,,,2.9,2.3,1.7*3E
{"class":"TPV","mode":3,"time":"2006-12-22T04:09:38.000Z","leapseconds":14,"ept":0.005,"lat":20.628458149,"lon":-87.067558205,"altHAE":12.899,"altMSL":27.909,"epv":39.393,"track":0.0000,"magtrack":358.0076,"magvar":-2.0,"speed":0.000,"climb":0.000,"epc":168.08,"velN":0.000,"velE":0.000,"velD":-0.000,"geoidSep":-15.010,"eph":44.405,"sep":55.053}
$GPRMC,040939.00,A,2037.7075,N,08704.0535,W,,,221206,-2.0,W*7E
{"class":"TPV","mode":0,"time":"2006-12-22T04:09:39.000Z","leapseconds":14,"ept":0.005}
$GPGGA,040939.00,2037.7075,N,08704.0535,W,1,05,2.34,27.91,M,-15.010,M,,*67
$GPRMC,040939.00,A,2037.7075,N,08704.0535,W,0.0000,0.000,221206,-2.0,W*4E
$GPGSA,A,3,,,,,,,,,,,,,2.9,2.3,1.7*3E
{"class":"TPV","mode":3,"time":"2006-12-22T04:09:39.000Z","leapseconds":14,"ept":0.005,"lat":20.628458307,"lon":-87.067558207,"altHAE":12.900,"altMSL":27.910,"epv":39.402,"track":0.0000,"magtrack":358.0076,"magvar":-2.0,"speed":0.000,"climb":0.000,"epc":78.80,"velN":0.000,"velE":0.000,"velD":-0.000,"geoidSep":-15.010,"eph":44.419,"sep":55.068}
$GPRMC,040940.00,A,2037.7075,N,08704.0535,W,,,221206,-2.0,W*70
{"class":"TPV","mode":0,"time":"2006-12-22T04:09:40.000Z","leapseconds":14,"ept":0.005}
$GPGGA,040940.00,2037.7075,N,08704.0535,W,1,05,2.34,27.91,M,-15.010,M,,*69
$GPRMC,040940.00,A,2037.7075,N,08704.0535,W,0.0000,0.000,221206,-2.0,W*40
$GPGSA,A,3,,,,,,,,,,,,,2.9,2.3,1.7*3E
{"class":"TPV","mode":3,"time":"2006-12-22T04:09:40.000Z","leapseconds":14,"ept":0.005,"lat":20.628458324,"lon":-87.067558207,"altHAE":12.900,"altMSL":27.910,"epv":39.402,"track":0.0000,"magtrack":358.0076,"magvar":-2.0,"speed":0.000,"climb":0.000,"epc":78.80,"velN":0.000,"velE":0.000,"velD":-0.000,"geoidSep":-15.010,"eph":44.419,"sep":55.068}
$GPRMC,040941.00,A,2037.7075,N,08704.0535,W,,,221206,-2.0,W*71
{"class":"TPV","mode":0,"time":"2006-12-22T04:09:41.000Z","leapseconds":14,"ept":0.005}
$GPGGA,040941.00,2037.7075,N,08704.0535,W,1,05,2.34,27.91,M,-15.010,M,,*68
$GPRMC,040941.00,A,2037.7075,N,08704.0535,W,0.0000,0.000,221206,-2.0,W*41
$GPGSA,A,3,,,,,,,,,,,,,2.9,2.3,1.7*3E
{"class":"TPV","mode":3,"time":"2006-12-22T04:09:41.000Z","leapseconds":14,"ept":0.005,"lat":20.628458343,"lon":-87.067558205,"altHAE":12.900,"altMSL":27.910,"epv":39.411,"track":0.0000,"magtrack":358.0076,"magvar":-2.0,"speed":0.000,"climb":0.000,"epc":78.81,"velN":0.000,"velE":0.000,"velD":-0.000,"geoidSep":-15.010,"eph":44.432,"sep":55.083}
$GPRMC,040942.00,A,2037.7075,N,08704.0535,W,,,221206,-2.0,W*72
{"class":"TPV","mode":0,"time":"2006-12-22T04:09:42.000Z","leapseconds":14,"ept":0.005}
$GPGGA,040942.59,2037.7075,N,08704.0535,W,1,05,2.34,27.91,M,-15.010,M,,*67
$GPRMC,040942.59,A,2037.7075,N,08704.0535,W,0.0000,0.000,221206,-2.0,W*4E
$GPGSA,A,3,,,,,,,,,,,,,2.9,2.3,1.7*3E
{"class":"TPV","mode":3,"time":"2006-12-22T04:09:42.594Z","leapseconds":14,"ept":0.005,"lat":20.628458362,"lon":-87.067558203,"altHAE":12.901,"altMSL":27.910,"epv":39.411,"track":0.0000,"magtrack":358.0076,"magvar":-2.0,"speed":0.000,"climb":0.000,"velN":0.000,"velE":0.000,"velD":-0.000,"geoidSep":-15.010,"eph":44.432,"sep":55.083}
$GPRMC,040943.00,A,2037.7075,N,08704.0535,W,,,221206,-2.0,W*73
{"class":"TPV","mode":0,"time":"2006-12-22T04:09:43.000Z","leapseconds":14,"ept":0.005}
$GPGGA,040943.00,2037.7075,N,08704.0535,W,1,05,2.34,27.91,M,-15.010,M,,*6A
$GPRMC,040943.00,A,2037.7075,N,08704.0535,W,0.0000,0.000,221206,-2.0,W*43
$GPGSA,A,3,,,,,,,,,,,,,2.9,2.3,1.7*3E
{"class":"TPV","mode":3,"time":"2006-12-22T04:09:43.000Z","leapseconds":14,"ept":0.005,"lat":20.628458558,"lon":-87.067558182,"altHAE":12.902,"altMSL":27.912,"epv":39.411,"track":0.0000,"magtrack":358.0076,"magvar":-2.0,"speed":0.000,"climb":0.000,"epc":194.02,"velN":0.000,"velE":0.000,"velD":-0.000,"geoidSep":-15.010,"eph":44.432,"sep":55.083}
$GPRMC,040944.00,A,2037.7075,N,08704.0535,W,,,221206,-2.0,W*74
{"class":"TPV","mode":0,"time":"2006-12-22T04:09:44.000Z","leapseconds":14,"ept":0.005}
$GPGGA,040944.00,2037.7075,N,08704.0535,W,1,05,2.34,27.91,M,-15.010,M,,*6D
$GPRMC,040944.00,A,2037.7075,N,08704.0535,W,0.0000,0.000,221206,-2.0,W*44
$GPGSA,A,3,,,,,,,,,,,,,2.9,2.3,1.7*3E
{"class":"TPV","mode":3,"time":"2006-12-22T04:09:44.000Z","leapseconds":14,"ept":0.005,"lat":20.628458758,"lon":-87.067558159,"altHAE":12.903,"altMSL":27.913,"epv":39.421,"track":0.0000,"magtrack":358.0076,"magvar":-2.0,"speed":0.000,"climb":0.000,"epc":78.83,"velN":0.000,"velE":0.000,"velD":-0.000,"geoidSep":-15.010,"eph":44.447,"sep":55.101}
$GPRMC,040945.00,A,2037.7075,N,08704.0535,W,,,221206,-2.0,W*75
{"class":"TPV","mode":0,"time":"2006-12-22T04:09:45.000Z","leapseconds":14,"ept":0.005}
$GPGGA,040945.00,2037.7075,N,08704.0535,W,1,05,2.34,27.91,M,-15.010,M,,*6C
$GPRMC,040945.00,A,2037.7075,N,08704.0535,W,0.0000,0.000,221206,-2.0,W*45
$GPGSA,A,3,,,,,,,,,,,,,2.9,2.3,1.7*3E
{"class":"TPV","mode":3,"time":"2006-12-22T04:09:45.000Z","leapseconds":14,"ept":0.005,"lat":20.628458957,"lon":-87.067558137,"altHAE":12.904,"altMSL":27.914,"epv":39.421,"track":0.0000,"magtrack":358.0076,"magvar":-2.0,"speed":0.000,"climb":0.000,"epc":78.84,"velN":0.000,"velE":0.000,"velD":-0.000,"geoidSep":-15.010,"eph":44.447,"sep":55.101}
$GPRMC,040946.00,A,2037.7075,N,08704.0535,W,,,221206,-2.0,W*76
{"class":"TPV","mode":0,"time":"2006-12-22T04:09:46.000Z","leapseconds":14,"ept":0.005}
$GPGGA,040946.00,2037.7075,N,08704.0535,W,1,05,2.34,27.91,M,-15.010,M,,*6F
$GPRMC,040946.00,A,2037.7075,N,08704.0535,W,0.0000,0.000,221206,-2.0,W*46
$GPGSA,A,3,,,,,,,,,,,,,2.9,2.3,1.7*3E
{"class":"TPV","mode":3,"time":"2006-12-22T04:09:46.000Z","leapseconds":14,"ept":0.005,"lat":20.628459152,"lon":-87.067558118,"altHAE":12.904,"altMSL":27.914,"epv":39.430,"track":0.0000,"magtrack":358.0076,"magvar":-2.0,"speed":0.000,"climb":0.000,"epc":78.85,"velN":0.000,"velE":0.000,"velD":-0.000,"geoidSep":-15.010,"eph":44.461,"sep":55.116}
$GPRMC,040947.00,A,2037.7076,N,08704.0535,W,,,221206,-2.0,W*74
{"class":"TPV","mode":0,"time":"2006-12-22T04:09:47.000Z","leapseconds":14,"ept":0.005}
$GPGGA,040947.44,2037.7076,N,08704.0535,W,1,05,2.34,27.91,M,-15.010,M,,*6D
$GPRMC,040947.44,A,2037.7076,N,08704.0535,W,0.0000,0.000,221206,-2.0,W*44
$GPGSA,A,3,,,,,,,,,,,,,2.9,2.3,1.7*3E
{"class":"TPV","mode":3,"time":"2006-12-22T04:09:47.438Z","leapseconds":14,"ept":0.005,"lat":20.628459346,"lon":-87.067558101,"altHAE":12.905,"altMSL":27.915,"epv":39.430,"track":0.0000,"magtrack":358.0076,"magvar":-2.0,"speed":0.000,"climb":0.000,"velN":0.000,"velE":0.000,"velD":-0.000,"geoidSep":-15.010,"eph":44.461,"sep":55.116}
$GPRMC,040948.00,A,2037.7076,N,08704.0535,W,,,221206,-2.0,W*7B
{"class":"TPV","mode":0,"time":"2006-12-22T04:09:48.000Z","leapseconds":14,"ept":0.005}
$GPGGA,040948.00,2037.7076,N,08704.0535,W,1,05,2.34,27.91,M,-15.010,M,,*62
$GPRMC,040948.00,A,2037.7076,N,08704.0535,W,0.0000,0.000,221206,-2.0,W*4B
$GPGSA,A,3,,,,,,,,,,,,,2.9,2.3,1.7*3E
{"class":"TPV","mode":3,"time":"2006-12-22T04:09:48.000Z","leapseconds":14,"ept":0.005,"lat":20.628459533,"lon":-87.067558088,"altHAE":12.905,"altMSL":27.914,"epv":39.440,"track":0.0000,"magtrack":358.0076,"magvar":-2.0,"speed":0.000,"climb":0.000,"epc":140.21,"velN":0.000,"velE":0.000,"velD":-0.000,"geoidSep":-15.010,"eph":44.474,"sep":55.131}
$GPRMC,040949.00,A,2037.7076,N,08704.0535,W,,,221206,-2.0,W*7A
{"class":"TPV","mode":0,"time":"2006-12-22T04:09:49.000Z","leapseconds":14,"ept":0.005}
$GPGGA,040949.00,2037.7076,N,08704.0535,W,1,05,2.34,27.91,M,-15.010,M,,*63
$GPRMC,040949.00,A,2037.7076,N,08704.0535,W,0.0000,0.000,221206,-2.0,W*4A
$GPGSA,A,3,,,,,,,,,,,,,2.9,2.3,1.7*3E
{"class":"TPV","mode":3,"time":"2006-12-22T04:09:49.000Z","leapseconds":14,"ept":0.005,"lat":20.628459708,"lon":-87.067558086,"altHAE":12.904,"altMSL":27.914,"epv":39.440,"track":0.0000,"magtrack":358.0076,"magvar":-2.0,"speed":0.000,"climb":0.000,"epc":78.88,"velN":0.000,"velE":0.000,"velD":-0.000,"geoidSep":-15.010,"eph":44.474,"sep":55.131}
$GPRMC,040950.00,A,2037.7077,N,08704.0534,W,,,221206,-2.0,W*72
{"class":"TPV","mode":0,"time":"2006-12-22T04:09:50.000Z","leapseconds":14,"ept":0.005}
$GPGGA,040950.00,2037.7077,N,08704.0534,W,1,04,5.94,27.91,M,-15.010,M,,*67
$GPRMC,040950.00,A,2037.7077,N,08704.0534,W,0.9218,36.764,221206,-2.0,W*70
$GPGSA,A,2,,,,,,,,,,,,,5.9,5.9,0.0*33
{"class":"TPV","mode":2,"time":"2006-12-22T04:09:50.000Z","leapseconds":14,"ept":0.005,"lat":20.628461879,"lon":-87.067556535,"altHAE":12.904,"altMSL":27.914,"track":36.7642,"magtrack":34.7718,"magvar":-2.0,"speed":0.474,"eph":112.803,"sep":112.805}
$GPRMC,040951.00,A,2037.7077,N,08704.0534,W,,,221206,-2.0,W*73
{"class":"TPV","mode":0,"time":"2006-12-22T04:09:51.000Z","leapseconds":14,"ept":0.005}
$GPGGA,040951.00,2037.7077,N,08704.0534,W,1,04,5.94,27.91,M,-15.010,M,,*66
$GPRMC,040951.00,A,2037.7077,N,08704.0534,W,0.0136,146.790,221206,-2.0,W*4A
$GPGSA,A,2,,,,,,,,,,,,,5.9,5.9,0.0*33
{"class":"TPV","mode":2,"time":"2006-12-22T04:09:51.000Z","leapseconds":14,"ept":0.005,"lat":20.628461935,"lon":-87.067556636,"altHAE":12.903,"altMSL":27.913,"track":146.7902,"magtrack":144.7978,"magvar":-2.0,"speed":0.007,"eph":112.803,"sep":112.805}
$GPRMC,040952.00,A,2037.7076,N,08704.0535,W,,,221206,-2.0,W*70
{"class":"TPV","mode":0,"time":"2006-12-22T04:09:52.000Z","leapseconds":14,"ept":0.005}
$GPGGA,040952.44,2037.7076,N,08704.0535,W,1,04,5.95,27.91,M,-15.010,M,,*64
$GPRMC,040952.44,A,2037.7076,N,08704.0535,W,0.1168,212.494,221206,-2.0,W*46
$GPGSA,A,2,,,,,,,,,,,,,5.9,5.9,0.0*33
{"class":"TPV","mode":2,"time":"2006-12-22T04:09:52.438Z","leapseconds":14,"ept":0.005,"lat":20.628459841,"lon":-87.067558434,"altHAE":12.902,"altMSL":27.912,"track":212.4936,"magtrack":210.5011,"magvar":-2.0,"speed":0.060,"eph":113.000,"sep":113.001}
$GPRMC,040953.00,A,2037.7059,N,08704.0550,W,,,221206,-2.0,W*7F
{"class":"TPV","mode":0,"time":"2006-12-22T04:09:53.000Z","leapseconds":14,"ept":0.005}
$GPGGA,040953.00,2037.7059,N,08704.0550,W,1,04,5.95,27.90,M,-15.010,M,,*6A
$GPRMC,040953.00,A,2037.7059,N,08704.0550,W,0.0000,0.000,221206,-2.0,W*4F
$GPGSA,A,2,,,,,,,,,,,,,5.9,5.9,0.0*33
{"class":"TPV","mode":2,"time":"2006-12-22T04:09:53.000Z","leapseconds":14,"ept":0.005,"lat":20.628431397,"lon":-87.067584101,"altHAE":12.888,"altMSL":27.898,"track":0.0000,"magtrack":358.0076,"magvar":-2.0,"speed":0.000,"eph":113.000,"sep":113.001}
$GPRMC,040954.00,A,2037.7053,N,08704.0556,W,,,221206,-2.0,W*74
{"class":"TPV","mode":0,"time":"2006-12-22T04:09:54.000Z","leapseconds":14,"ept":0.005}
$GPGGA,040954.00,2037.7053,N,08704.0556,W,1,04,5.95,27.89,M,-15.010,M,,*69
$GPRMC,040954.00,A,2037.7053,N,08704.0556,W,0.0000,0.000,221206,-2.0,W*44
$GPGSA,A,2,,,,,,,,,,,,,6.0,6.0,0.0*33
{"class":"TPV","mode":2,"time":"2006-12-22T04:09:54.000Z","leapseconds":14,"ept":0.005,"lat":20.628422135,"lon":-87.067592525,"altHAE":12.883,"altMSL":27.893,"track":0.0000,"magtrack":358.0076,"magvar":-2.0,"speed":0.000,"eph":113.097,"sep":113.099}
$GPRMC,040955.00,A,2037.7051,N,08704.0558,W,,,221206,-2.0,W*79
{"class":"TPV","mode":0,"time":"2006-12-22T04:09:55.000Z","leapseconds":14,"ept":0.005}
$GPGGA,040955.00,2037.7051,N,08704.0558,W,1,04,5.96,27.89,M,-15.010,M,,*67
$GPRMC,040955.00,A,2037.7051,N,08704.0558,W,0.0000,0.000,221206,-2.0,W*49
$GPGSA,A,2,,,,,,,,,,,,,6.0,6.0,0.0*33
{"class":"TPV","mode":2,"time":"2006-12-22T04:09:55.000Z","leapseconds":14,"ept":0.005,"lat":20.628417512,"lon":-87.067596726,"altHAE":12.881,"altMSL":27.890,"track":0.0000,"magtrack":358.0076,"magvar":-2.0,"speed":0.000,"eph":113.257,"sep":113.259}
$GPRMC,040956.00,A,2037.7049,N,08704.0559,W,,,221206,-2.0,W*72
{"class":"TPV","mode":0,"time":"2006-12-22T04:09:56.000Z","leapseconds":14,"ept":0.005}
$GPGGA,040956.00,2037.7049,N,08704.0559,W,1,04,5.96,27.89,M,-15.010,M,,*6C
$GPRMC,040956.00,A,2037.7049,N,08704.0559,W,0.0000,0.000,221206,-2.0,W*42
$GPGSA,A,2,,,,,,,,,,,,,6.0,6.0,0.0*33
{"class":"TPV","mode":2,"time":"2006-12-22T04:09:56.000Z","leapseconds":14,"ept":0.005,"lat":20.628414864,"lon":-87.067599151,"altHAE":12.879,"altMSL":27.889,"track":0.0000,"magtrack":358.0076,"magvar":-2.0,"speed":0.000,"eph":113.257,"sep":113.259}
$GPRMC,040957.00,A,2037.7048,N,08704.0560,W,,,221206,-2.0,W*78
{"class":"TPV","mode":0,"time":"2006-12-22T04:09:57.000Z","leapseconds":14,"ept":0.005}
$GPGGA,040957.53,2037.7048,N,08704.0560,W,1,04,5.97,27.89,M,-15.010,M,,*61
$GPRMC,040957.53,A,2037.7048,N,08704.0560,W,0.0000,0.000,221206,-2.0,W*4E
$GPGSA,A,2,,,,,,,,,,,,,6.0,6.0,0.0*33
{"class":"TPV","mode":2,"time":"2006-12-22T04:09:57.531Z","leapseconds":14,"ept":0.005,"lat":20.628413245,"lon":-87.067600661,"altHAE":12.878,"altMSL":27.888,"track":0.0000,"magtrack":358.0076,"magvar":-2.0,"speed":0.000,"eph":113.449,"sep":113.451}
$GPRMC,040958.00,A,2037.7047,N,08704.0561,W,,,221206,-2.0,W*79
{"class":"TPV","mode":0,"time":"2006-12-22T04:09:58.000Z","leapseconds":14,"ept":0.005}
$GPGGA,040958.00,2037.7047,N,08704.0561,W,1,04,5.97,27.89,M,-15.010,M,,*66
$GPRMC,040958.00,A,2037.7047,N,08704.0561,W,0.0000,0.000,221206,-2.0,W*49
$GPGSA,A,2,,,,,,,,,,,,,6.0,6.0,0.0*33
{"class":"TPV","mode":2,"time":"2006-12-22T04:09:58.000Z","leapseconds":14,"ept":0.005,"lat":20.628412157,"lon":-87.067601693,"altHAE":12.878,"altMSL":27.887,"track":0.0000,"magtrack":358.0076,"magvar":-2.0,"speed":0.000,"eph":113.449,"sep":113.451}
$GPRMC,040959.00,A,2037.7047,N,08704.0561,W,,,221206,-2.0,W*78
{"class":"TPV","mode":0,"time":"2006-12-22T04:09:59.000Z","leapseconds":14,"ept":0.005}
$GPGGA,040959.00,2037.7047,N,08704.0561,W,1,04,5.98,27.89,M,-15.010,M,,*68
$GPRMC,040959.00,A,2037.7047,N,08704.0561,W,0.0000,0.000,221206,-2.0,W*48
$GPGSA,A,2,,,,,,,,,,,,,6.0,6.0,0.0*33
{"class":"TPV","mode":2,"time":"2006-12-22T04:09:59.000Z","leapseconds":14,"ept":0.005,"lat":20.628411442,"lon":-87.067602401,"altHAE":12.877,"altMSL":27.887,"track":0.0000,"magtrack":358.0076,"magvar":-2.0,"speed":0.000,"eph":113.680,"sep":113.681}
$GPRMC,041000.00,A,2037.7046,N,08704.0562,W,,,221206,-2.0,W*7E
{"class":"TPV","mode":0,"time":"2006-12-22T04:10:00.000Z","leapseconds":14,"ept":0.005}
$GPGGA,041000.00,2037.7046,N,08704.0562,W,1,04,5.98,27.89,M,-15.010,M,,*6E
$GPRMC,041000.00,A,2037.7046,N,08704.0562,W,0.0000,0.000,221206,-2.0,W*4E
$GPGSA,A,2,,,,,,,,,,,,,6.0,6.0,0.0*33
{"class":"TPV","mode":2,"time":"2006-12-22T04:10:00.000Z","leapseconds":14,"ept":0.005,"lat":20.628410818,"lon":-87.067603019,"altHAE":12.877,"altMSL":27.886,"track":0.0000,"magtrack":358.0076,"magvar":-2.0,"speed":0.000,"eph":113.680,"sep":113.681}
$GPRMC,041001.00,A,2037.7046,N,08704.0562,W,,,221206,-2.0,W*7F
{"class":"TPV","mode":0,"time":"2006-12-22T04:10:01.000Z","leapseconds":14,"ept":0.005}
$GPGGA,041001.00,2037.7046,N,08704.0562,W,1,04,5.99,27.89,M,-15.010,M,,*6E
$GPRMC,041001.00,A,2037.7046,N,08704.0562,W,0.0000,0.000,221206,-2.0,W*4F
$GPGSA,A,2,,,,,,,,,,,,,6.0,6.0,0.0*33
{"class":"TPV","mode":2,"time":"2006-12-22T04:10:01.000Z","leapseconds":14,"ept":0.005,"lat":20.628410348,"lon":-87.067603497,"altHAE":12.876,"altMSL":27.886,"track":0.0000,"magtrack":358.0076,"magvar":-2.0,"speed":0.000,"eph":113.887,"sep":113.889}
$GPRMC,041002.00,A,2037.7046,N,08704.0562,W,,,221206,-2.0,W*7C
{"class":"TPV","mode":0,"time":"2006-12-22T04:10:02.000Z","leapseconds":14,"ept":0.005}
$GPGGA,041002.59,2037.7046,N,08704.0562,W,1,04,5.99,27.89,M,-15.010,M,,*61
$GPRMC,041002.59,A,2037.7046,N,08704.0562,W,0.0000,0.000,221206,-2.0,W*40
$GPGSA,A,2,,,,,,,,,,,,,6.0,6.0,0.0*33
{"class":"TPV","mode":2,"time":"2006-12-22T04:10:02.594Z","leapseconds":14,"ept":0.005,"lat":20.628409918,"lon":-87.067603928,"altHAE":12.876,"altMSL":27.886,"track":0.0000,"magtrack":358.0076,"magvar":-2.0,"speed":0.000,"eph":113.887,"sep":113.889}
$GPRMC,041003.00,A,2037.7046,N,08704.0563,W,,,221206,-2.0,W*7C
{"class":"TPV","mode":0,"time":"2006-12-22T04:10:03.000Z","leapseconds":14,"ept":0.005}
$GPGGA,041003.00,2037.7046,N,08704.0563,W,1,04,6.00,27.89,M,-15.010,M,,*6E
$GPRMC,041003.00,A,2037.7046,N,08704.0563,W,0.0000,0.000,221206,-2.0,W*4C
$GPGSA,A,2,,,,,,,,,,,,,6.0,6.0,0.0*33
{"class":"TPV","mode":2,"time":"2006-12-22T04:10:03.000Z","leapseconds":14,"ept":0.005,"lat":20.628409633,"lon":-87.067604238,"altHAE":12.876,"altMSL":27.886,"track":0.0000,"magtrack":358.0076,"magvar":-2.0,"speed":0.000,"eph":113.978,"sep":113.980}
$GPRMC,041004.00,A,2037.7046,N,08704.0563,W,,,221206,-2.0,W*7B
{"class":"TPV","mode":0,"time":"2006-12-22T04:10:04.000Z","leapseconds":14,"ept":0.005}
$GPGGA,041004.00,2037.7046,N,08704.0563,W,1,04,6.01,27.89,M,-15.010,M,,*68
$GPRMC,041004.00,A,2037.7046,N,08704.0563,W,0.0000,0.000,221206,-2.0,W*4B
$GPGSA,A,2,,,,,,,,,,,,,6.0,6.0,0.0*33
{"class":"TPV","mode":2,"time":"2006-12-22T04:10:04.000Z","leapseconds":14,"ept":0.005,"lat":20.628409424,"lon":-87.067604483,"altHAE":12.876,"altMSL":27.885,"track":0.0000,"magtrack":358.0076,"magvar":-2.0,"speed":0.000,"eph":114.095,"sep":114.097}
$GPRMC,041005.00,A,2037.7046,N,08704.0563,W,,,221206,-2.0,W*7A
{"class":"TPV","mode":0,"time":"2006-12-22T04:10:05.000Z","leapseconds":14,"ept":0.005}
$GPGGA,041005.00,2037.7046,N,08704.0563,W,1,04,6.01,27.89,M,-15.010,M,,*69
$GPRMC,041005.00,A,2037.7046,N,08704.0563,W,0.0000,0.000,221206,-2.0,W*4A
$GPGSA,A,2,,,,,,,,,,,,,6.0,6.0,0.0*33
{"class":"TPV","mode":2,"time":"2006-12-22T04:10:05.000Z","leapseconds":14,"ept":0.005,"lat":20.628409303,"lon":-87.067604649,"altHAE":12.876,"altMSL":27.885,"track":0.0000,"magtrack":358.0076,"magvar":-2.0,"speed":0.000,"eph":114.095,"sep":114.097}
$GPRMC,041006.00,A,2037.7046,N,08704.0563,W,,,221206,-2.0,W*79
{"class":"TPV","mode":0,"time":"2006-12-22T04:10:06.000Z","leapseconds":14,"ept":0.005}
$GPGGA,041006.00,2037.7046,N,08704.0563,W,1,04,6.02,27.89,M,-15.010,M,,*69
$GPRMC,041006.00,A,2037.7046,N,08704.0563,W,0.0000,0.000,221206,-2.0,W*49
$GPGSA,A,2,,,,,,,,,,,,,6.0,6.0,0.0*33
{"class":"TPV","mode":2,"time":"2006-12-22T04:10:06.000Z","leapseconds":14,"ept":0.005,"lat":20.628409574,"lon":-87.067604517,"altHAE":12.876,"altMSL":27.885,"track":0.0000,"magtrack":358.0076,"magvar":-2.0,"speed":0.000,"eph":114.331,"sep":114.333}
$GPRMC,041007.00,A,2037.7046,N,08704.0562,W,,,221206,-2.0,W*79
{"class":"TPV","mode":0,"time":"2006-12-22T04:10:07.000Z","leapseconds":14,"ept":0.005}
$GPGGA,041007.44,2037.7046,N,08704.0562,W,1,04,6.02,27.89,M,-15.010,M,,*69
$GPRMC,041007.44,A,2037.7046,N,08704.0562,W,0.0000,0.000,221206,-2.0,W*49
$GPGSA,A,2,,,,,,,,,,,,,6.0,6.0,0.0*33
{"class":"TPV","mode":2,"time":"2006-12-22T04:10:07.438Z","leapseconds":14,"ept":0.005,"lat":20.628410134,"lon":-87.067604158,"altHAE":12.876,"altMSL":27.885,"track":0.0000,"magtrack":358.0076,"magvar":-2.0,"speed":0.000,"eph":114.331,"sep":114.333}
$GPRMC,041008.00,A,2037.7054,N,08704.0557,W,,,221206,-2.0,W*73
{"class":"TPV","mode":0,"time":"2006-12-22T04:10:08.000Z","leapseconds":14,"ept":0.005}
$GPGGA,041008.00,2037.7054,N,08704.0557,W,1,04,6.03,27.88,M,-15.010,M,,*63
$GPRMC,041008.00,A,2037.7054,N,08704.0557,W,0.9335,36.580,221206,-2.0,W*77
$GPGSA,A,2,,,,,,,,,,,,,6.0,6.0,0.0*33
{"class":"TPV","mode":2,"time":"2006-12-22T04:10:08.000Z","leapseconds":14,"ept":0.005,"lat":20.628422923,"lon":-87.067595569,"altHAE":12.875,"altMSL":27.884,"track":36.5797,"magtrack":34.5873,"magvar":-2.0,"speed":0.480,"eph":114.548,"sep":114.550}
$GPRMC,041009.00,A,2037.7055,N,08704.0557,W,,,221206,-2.0,W*73
{"class":"TPV","mode":0,"time":"2006-12-22T04:10:09.000Z","leapseconds":14,"ept":0.005}
$GPGGA,041009.00,2037.7055,N,08704.0557,W,1,04,6.03,27.88,M,-15.010,M,,*63
$GPRMC,041009.00,A,2037.7055,N,08704.0557,W,0.1059,213.164,221206,-2.0,W*4D
$GPGSA,A,2,,,,,,,,,,,,,6.0,6.0,0.0*33
{"class":"TPV","mode":2,"time":"2006-12-22T04:10:09.000Z","leapseconds":14,"ept":0.005,"lat":20.628424397,"lon":-87.067594400,"altHAE":12.875,"altMSL":27.885,"track":213.1641,"magtrack":211.1717,"magvar":-2.0,"speed":0.054,"eph":114.548,"sep":114.550}
$GPRMC,041010.00,A,2037.7055,N,08704.0556,W,,,221206,-2.0,W*7A
{"class":"TPV","mode":0,"time":"2006-12-22T04:10:10.000Z","leapseconds":14,"ept":0.005}
$GPGGA,041010.00,2037.7055,N,08704.0556,W,1,04,6.04,27.88,M,-15.010,M,,*6D
$GPRMC,041010.00,A,2037.7055,N,08704.0556,W,0.5486,37.410,221206,-2.0,W*74
$GPGSA,A,2,,,,,,,,,,,,,6.0,6.0,0.0*33
{"class":"TPV","mode":2,"time":"2006-12-22T04:10:10.000Z","leapseconds":14,"ept":0.005,"lat":20.628425279,"lon":-87.067593686,"altHAE":12.875,"altMSL":27.885,"track":37.4096,"magtrack":35.4172,"magvar":-2.0,"speed":0.282,"eph":114.769,"sep":114.771}
$GPRMC,041011.00,A,2037.7056,N,08704.0556,W,,,221206,-2.0,W*78
{"class":"TPV","mode":0,"time":"2006-12-22T04:10:11.000Z","leapseconds":14,"ept":0.005}
$GPGGA,041011.00,2037.7056,N,08704.0556,W,1,04,6.04,27.88,M,-15.010,M,,*6F
$GPRMC,041011.00,A,2037.7056,N,08704.0556,W,0.0000,0.000,221206,-2.0,W*48
$GPGSA,A,2,,,,,,,,,,,,,6.0,6.0,0.0*33
{"class":"TPV","mode":2,"time":"2006-12-22T04:10:11.000Z","leapseconds":14,"ept":0.005,"lat":20.628426358,"lon":-87.067593107,"altHAE":12.874,"altMSL":27.884,"track":0.0000,"magtrack":358.0076,"magvar":-2.0,"speed":0.000,"eph":114.769,"sep":114.771}
$GPRMC,041012.00,A,2037.7057,N,08704.0555,W,,,221206,-2.0,W*79
{"class":"TPV","mode":0,"time":"2006-12-22T04:10:12.000Z","leapseconds":14,"ept":0.005}
$GPGGA,041012.44,2037.7057,N,08704.0555,W,1,04,6.05,27.88,M,-15.010,M,,*6F
$GPRMC,041012.44,A,2037.7057,N,08704.0555,W,0.0000,0.000,221206,-2.0,W*49
$GPGSA,A,2,,,,,,,,,,,,,6.1,6.1,0.0*33
{"class":"TPV","mode":2,"time":"2006-12-22T04:10:12.438Z","leapseconds":14,"ept":0.005,"lat":20.628427819,"lon":-87.067592123,"altHAE":12.874,"altMSL":27.884,"track":0.0000,"magtrack":358.0076,"magvar":-2.0,"speed":0.000,"eph":115.002,"sep":115.004}
$GPRMC,041013.00,A,2037.7058,N,08704.0555,W,,,221206,-2.0,W*77
{"class":"TPV","mode":0,"time":"2006-12-22T04:10:13.000Z","leapseconds":14,"ept":0.005}
$GPGGA,041013.00,2037.7058,N,08704.0555,W,1,04,6.05,27.88,M,-15.010,M,,*61
$GPRMC,041013.00,A,2037.7058,N,08704.0555,W,0.0000,0.000,221206,-2.0,W*47
$GPGSA,A,2,,,,,,,,,,,,,6.1,6.1,0.0*33
{"class":"TPV","mode":2,"time":"2006-12-22T04:10:13.000Z","leapseconds":14,"ept":0.005,"lat":20.628429374,"lon":-87.067591015,"altHAE":12.874,"altMSL":27.884,"track":0.0000,"magtrack":358.0076,"magvar":-2.0,"speed":0.000,"eph":115.002,"sep":115.004}
