$GPRMC,233738.00,V,4404.1298,N,12118.8428,W,,,120419,14.4,E*66
{"class":"TPV","mode":0,"time":"2019-04-12T23:37:38.000Z","ept":0.005}
$GPZDA,233739.00,01,11,2019,00,00*62
$GPGGA,233739.00,4404.1299,N,12118.8429,W,1,03,,1126.37,M,-22.154,M,,*7A
$GPRMC,233739.00,A,4404.1299,N,12118.8429,W,0.0000,0.000,011119,14.4,E*46
$GPGSA,A,2,,,,,,,,,,,,,,,*1D
{"class":"TPV","mode":2,"time":"2019-11-01T23:37:39.000Z","leapseconds":18,"ept":0.005,"lat":44.068830928,"lon":-121.314048507,"altHAE":1104.218,"altMSL":1126.373,"track":0.0000,"magtrack":14.4184,"magvar":14.4,"speed":0.000}
$GPGGA,233739.00,4404.1299,N,12118.8429,W,1,03,3.70,1126.37,M,-22.154,M,,*60
$GPRMC,233739.00,A,4404.1299,N,12118.8429,W,0.0000,0.000,011119,14.4,E*46
$GPGSA,A,2,,,,,,,,,,,,,3.8,3.7,1.0*3D
{"class":"TPV","mode":2,"time":"2019-11-01T23:37:39.000Z","leapseconds":18,"ept":0.005,"lat":44.068830928,"lon":-121.314048507,"altHAE":1104.218,"altMSL":1126.373,"track":0.0000,"magtrack":14.4184,"magvar":14.4,"speed":0.000,"eph":70.370,"sep":72.875}
$GPRMC,233740.00,A,4404.1298,N,12118.8428,W,,,011119,14.4,E*78
{"class":"TPV","mode":0,"time":"2019-11-01T23:37:40.000Z","leapseconds":18,"ept":0.005}
$GPZDA,233740.00,01,11,2019,00,00*6C
$GPGGA,233740.00,4404.1299,N,12118.8429,W,1,03,3.70,1126.37,M,-22.154,M,,*6E
$GPRMC,233740.00,A,4404.1299,N,12118.8429,W,0.0000,0.000,011119,14.4,E*48
$GPGSA,A,2,,,,,,,,,,,,,3.8,3.7,1.0*3D
{"class":"TPV","mode":2,"time":"2019-11-01T23:37:40.000Z","leapseconds":18,"ept":0.005,"lat":44.068830928,"lon":-121.314048507,"altHAE":1104.218,"altMSL":1126.373,"track":0.0000,"magtrack":14.4184,"magvar":14.4,"speed":0.000,"eph":70.370,"sep":72.875}
$GPGGA,233740.47,4404.1299,N,12118.8429,W,1,03,3.71,1126.37,M,-22.154,M,,*6C
$GPRMC,233740.47,A,4404.1299,N,12118.8429,W,0.0000,0.000,011119,14.4,E*4B
$GPGSA,A,2,,,,,,,,,,,,,3.8,3.7,1.0*3D
{"class":"TPV","mode":2,"time":"2019-11-01T23:37:40.469Z","leapseconds":18,"ept":0.005,"lat":44.068830928,"lon":-121.314048507,"altHAE":1104.218,"altMSL":1126.373,"track":0.0000,"magtrack":14.4184,"magvar":14.4,"speed":0.000,"eph":70.370,"sep":72.875}
$GPRMC,233741.00,A,4404.1298,N,12118.8428,W,,,011119,14.4,E*79
{"class":"TPV","mode":0,"time":"2019-11-01T23:37:41.000Z","leapseconds":18,"ept":0.005}
$GPZDA,233741.00,01,11,2019,00,00*6D
$GPGGA,233741.00,4404.1299,N,12118.8429,W,1,03,3.71,1126.37,M,-22.154,M,,*6E
$GPRMC,233741.00,A,4404.1299,N,12118.8429,W,0.0000,0.000,011119,14.4,E*49
$GPGSA,A,2,,,,,,,,,,,,,3.8,3.7,1.0*3D
{"class":"TPV","mode":2,"time":"2019-11-01T23:37:41.000Z","leapseconds":18,"ept":0.005,"lat":44.068830844,"lon":-121.314048507,"altHAE":1104.218,"altMSL":1126.373,"track":0.0000,"magtrack":14.4184,"magvar":14.4,"speed":0.000,"eph":70.416,"sep":72.919}
$GPGGA,233741.00,4404.1299,N,12118.8429,W,1,03,3.71,1126.37,M,-22.154,M,,*6E
$GPRMC,233741.00,A,4404.1299,N,12118.8429,W,0.0000,0.000,011119,14.4,E*49
$GPGSA,A,2,,,,,,,,,,,,,3.8,3.7,1.0*3D
{"class":"TPV","mode":2,"time":"2019-11-01T23:37:41.000Z","leapseconds":18,"ept":0.005,"lat":44.068830844,"lon":-121.314048507,"altHAE":1104.218,"altMSL":1126.373,"track":0.0000,"magtrack":14.4184,"magvar":14.4,"speed":0.000,"eph":70.416,"sep":72.919}
$GPRMC,233742.00,A,4404.1298,N,12118.8428,W,,,011119,14.4,E*7A
{"class":"TPV","mode":0,"time":"2019-11-01T23:37:42.000Z","leapseconds":18,"ept":0.005}
$GPZDA,233742.00,01,11,2019,00,00*6E
$GPGGA,233742.00,4404.1299,N,12118.8429,W,1,03,3.71,1126.37,M,-22.154,M,,*6D
$GPRMC,233742.00,A,4404.1299,N,12118.8429,W,0.0000,0.000,011119,14.4,E*4A
$GPGSA,A,2,,,,,,,,,,,,,3.8,3.7,1.0*3D
{"class":"TPV","mode":2,"time":"2019-11-01T23:37:42.000Z","leapseconds":18,"ept":0.005,"lat":44.068830844,"lon":-121.314048423,"altHAE":1104.218,"altMSL":1126.373,"track":0.0000,"magtrack":14.4184,"magvar":14.4,"speed":0.000,"eph":70.416,"sep":72.919}
$GPGGA,233742.00,4404.1299,N,12118.8429,W,1,03,3.71,1126.37,M,-22.154,M,,*6D
$GPRMC,233742.00,A,4404.1299,N,12118.8429,W,0.0000,0.000,011119,14.4,E*4A
$GPGSA,A,2,,,,,,,,,,,,,3.8,3.7,1.0*3D
{"class":"TPV","mode":2,"time":"2019-11-01T23:37:42.000Z","leapseconds":18,"ept":0.005,"lat":44.068830844,"lon":-121.314048423,"altHAE":1104.218,"altMSL":1126.373,"track":0.0000,"magtrack":14.4184,"magvar":14.4,"speed":0.000,"eph":70.416,"sep":72.919}
$GPRMC,233743.00,A,4404.1298,N,12118.8428,W,,,011119,14.4,E*7B
{"class":"TPV","mode":0,"time":"2019-11-01T23:37:43.000Z","leapseconds":18,"ept":0.005}
$GPZDA,233743.00,01,11,2019,00,00*6F
$GPGGA,233743.00,4404.1299,N,12118.8429,W,1,03,3.71,1126.37,M,-22.154,M,,*6C
$GPRMC,233743.00,A,4404.1299,N,12118.8429,W,0.0000,0.000,011119,14.4,E*4B
$GPGSA,A,2,,,,,,,,,,,,,3.8,3.7,1.0*3D
{"class":"TPV","mode":2,"time":"2019-11-01T23:37:43.000Z","leapseconds":18,"ept":0.005,"lat":44.068830844,"lon":-121.314048423,"altHAE":1104.218,"altMSL":1126.373,"track":0.0000,"magtrack":14.4184,"magvar":14.4,"speed":0.000,"eph":70.461,"sep":72.962}
$GPGGA,233743.00,4404.1299,N,12118.8429,W,1,03,3.71,1126.37,M,-22.154,M,,*6C
$GPRMC,233743.00,A,4404.1299,N,12118.8429,W,0.0000,0.000,011119,14.4,E*4B
$GPGSA,A,2,,,,,,,,,,,,,3.8,3.7,1.0*3D
{"class":"TPV","mode":2,"time":"2019-11-01T23:37:43.000Z","leapseconds":18,"ept":0.005,"lat":44.068830844,"lon":-121.314048423,"altHAE":1104.218,"altMSL":1126.373,"track":0.0000,"magtrack":14.4184,"magvar":14.4,"speed":0.000,"eph":70.461,"sep":72.962}
$GPRMC,233744.00,A,4404.1299,N,12118.8428,W,,,011119,14.4,E*7D
{"class":"TPV","mode":0,"time":"2019-11-01T23:37:44.000Z","leapseconds":18,"ept":0.005}
$GPZDA,233744.00,01,11,2019,00,00*68
$GPGGA,233744.00,4404.1299,N,12118.8429,W,1,03,3.71,1126.37,M,-22.154,M,,*6B
$GPRMC,233744.00,A,4404.1299,N,12118.8429,W,0.0000,0.000,011119,14.4,E*4C
$GPGSA,A,2,16,3,31,26,23,14,1,22,,,,,3.8,3.7,1.0*3A
{"class":"TPV","mode":2,"time":"2019-11-01T23:37:44.000Z","leapseconds":18,"ept":0.005,"lat":44.068830844,"lon":-121.314048423,"altHAE":1104.218,"altMSL":1126.373,"track":0.0000,"magtrack":14.4184,"magvar":14.4,"speed":0.000,"eph":70.461,"sep":72.962}
$GPGGA,233744.00,4404.1299,N,12118.8429,W,1,03,3.71,1126.37,M,-22.154,M,,*6B
$GPRMC,233744.00,A,4404.1299,N,12118.8429,W,0.0000,0.000,011119,14.4,E*4C
$GPGSA,A,2,16,3,31,26,23,14,1,22,,,,,3.8,3.7,1.0*3A
{"class":"TPV","mode":2,"time":"2019-11-01T23:37:44.000Z","leapseconds":18,"ept":0.005,"lat":44.068830844,"lon":-121.314048423,"altHAE":1104.218,"altMSL":1126.373,"track":0.0000,"magtrack":14.4184,"magvar":14.4,"speed":0.000,"eph":70.461,"sep":72.962}
$GPRMC,233745.00,A,4404.1299,N,12118.8428,W,,,011119,14.4,E*7C
{"class":"TPV","mode":0,"time":"2019-11-01T23:37:45.000Z","leapseconds":18,"ept":0.005}
$GPZDA,233745.00,01,11,2019,00,00*69
$GPGGA,233745.00,4404.1299,N,12118.8429,W,1,03,3.71,1126.37,M,-22.154,M,,*6A
$GPRMC,233745.00,A,4404.1299,N,12118.8429,W,0.0000,0.000,011119,14.4,E*4D
$GPGSA,A,2,16,3,31,26,23,14,1,22,,,,,3.8,3.7,1.0*3A
{"class":"TPV","mode":2,"time":"2019-11-01T23:37:45.000Z","leapseconds":18,"ept":0.005,"lat":44.068830844,"lon":-121.314048423,"altHAE":1104.218,"altMSL":1126.373,"track":0.0000,"magtrack":14.4184,"magvar":14.4,"speed":0.000,"eph":70.461,"sep":72.962}
$GPGGA,233745.44,4404.1299,N,12118.8429,W,1,03,3.71,1126.37,M,-22.154,M,,*6A
$GPRMC,233745.44,A,4404.1299,N,12118.8429,W,0.0000,0.000,011119,14.4,E*4D
$GPGSA,A,2,16,3,31,26,23,14,1,22,,,,,3.8,3.7,1.0*3A
{"class":"TPV","mode":2,"time":"2019-11-01T23:37:45.438Z","leapseconds":18,"ept":0.005,"lat":44.068830844,"lon":-121.314048423,"altHAE":1104.218,"altMSL":1126.373,"track":0.0000,"magtrack":14.4184,"magvar":14.4,"speed":0.000,"eph":70.461,"sep":72.962}
$GPRMC,233746.00,A,4404.1298,N,12118.8427,W,,,011119,14.4,E*71
{"class":"TPV","mode":0,"time":"2019-11-01T23:37:46.000Z","leapseconds":18,"ept":0.005}
$GPZDA,233746.00,01,11,2019,00,00*6A
$GPGGA,233746.00,4404.1299,N,12118.8429,W,1,03,3.71,1126.37,M,-22.154,M,,*69
$GPRMC,233746.00,A,4404.1299,N,12118.8429,W,0.0000,0.000,011119,14.4,E*4E
$GPGSA,A,2,16,3,31,26,23,14,1,22,,,,,3.8,3.7,1.0*3A
{"class":"TPV","mode":2,"time":"2019-11-01T23:37:46.000Z","leapseconds":18,"ept":0.005,"lat":44.068830844,"lon":-121.314048339,"altHAE":1104.218,"altMSL":1126.373,"track":0.0000,"magtrack":14.4184,"magvar":14.4,"speed":0.000,"eph":70.511,"sep":73.011}
$GPGGA,233746.00,4404.1299,N,12118.8429,W,1,03,3.71,1126.37,M,-22.154,M,,*69
$GPRMC,233746.00,A,4404.1299,N,12118.8429,W,0.0000,0.000,011119,14.4,E*4E
$GPGSA,A,2,16,3,31,26,23,14,1,22,,,,,3.8,3.7,1.0*3A
{"class":"TPV","mode":2,"time":"2019-11-01T23:37:46.000Z","leapseconds":18,"ept":0.005,"lat":44.068830844,"lon":-121.314048339,"altHAE":1104.218,"altMSL":1126.373,"track":0.0000,"magtrack":14.4184,"magvar":14.4,"speed":0.000,"eph":70.511,"sep":73.011}
$GPRMC,233747.00,A,4404.1298,N,12118.8427,W,,,011119,14.4,E*70
{"class":"TPV","mode":0,"time":"2019-11-01T23:37:47.000Z","leapseconds":18,"ept":0.005}
$GPZDA,233747.00,01,11,2019,00,00*6B
$GPGGA,233747.00,4404.1299,N,12118.8429,W,1,03,3.71,1126.37,M,-22.154,M,,*68
$GPRMC,233747.00,A,4404.1299,N,12118.8429,W,0.0000,0.000,011119,14.4,E*4F
$GPGSA,A,2,16,3,31,26,23,14,1,22,,,,,3.8,3.7,1.0*3A
{"class":"TPV","mode":2,"time":"2019-11-01T23:37:47.000Z","leapseconds":18,"ept":0.005,"lat":44.068830844,"lon":-121.314048339,"altHAE":1104.218,"altMSL":1126.373,"track":0.0000,"magtrack":14.4184,"magvar":14.4,"speed":0.000,"eph":70.511,"sep":73.011}
$GPGGA,233747.00,4404.1299,N,12118.8429,W,1,03,3.71,1126.37,M,-22.154,M,,*68
$GPRMC,233747.00,A,4404.1299,N,12118.8429,W,0.0000,0.000,011119,14.4,E*4F
$GPGSA,A,2,16,3,31,26,23,14,1,22,,,,,3.8,3.7,1.0*3A
{"class":"TPV","mode":2,"time":"2019-11-01T23:37:47.000Z","leapseconds":18,"ept":0.005,"lat":44.068830844,"lon":-121.314048339,"altHAE":1104.218,"altMSL":1126.373,"track":0.0000,"magtrack":14.4184,"magvar":14.4,"speed":0.000,"eph":70.511,"sep":73.011}
$GPRMC,233748.00,A,4404.1298,N,12118.8427,W,,,011119,14.4,E*7F
{"class":"TPV","mode":0,"time":"2019-11-01T23:37:48.000Z","leapseconds":18,"ept":0.005}
$GPZDA,233748.00,01,11,2019,00,00*64
$GPGGA,233748.00,4404.1299,N,12118.8429,W,1,03,3.71,1126.37,M,-22.154,M,,*67
$GPRMC,233748.00,A,4404.1299,N,12118.8429,W,0.0000,0.000,011119,14.4,E*40
$GPGSA,A,2,16,3,31,26,23,14,1,22,,,,,3.8,3.7,1.0*3A
{"class":"TPV","mode":2,"time":"2019-11-01T23:37:48.000Z","leapseconds":18,"ept":0.005,"lat":44.068830844,"lon":-121.314048339,"altHAE":1104.218,"altMSL":1126.373,"track":0.0000,"magtrack":14.4184,"magvar":14.4,"speed":0.000,"eph":70.555,"sep":73.053}
$GPGGA,233748.00,4404.1299,N,12118.8429,W,1,03,3.71,1126.37,M,-22.154,M,,*67
$GPRMC,233748.00,A,4404.1299,N,12118.8429,W,0.0000,0.000,011119,14.4,E*40
$GPGSA,A,2,16,3,31,26,23,14,1,22,,,,,3.8,3.7,1.0*3A
{"class":"TPV","mode":2,"time":"2019-11-01T23:37:48.000Z","leapseconds":18,"ept":0.005,"lat":44.068830844,"lon":-121.314048339,"altHAE":1104.218,"altMSL":1126.373,"track":0.0000,"magtrack":14.4184,"magvar":14.4,"speed":0.000,"eph":70.555,"sep":73.053}
$GPGSV,3,1,10,16,19,141,26,03,76,287,37,31,40,052,40,26,33,113,33*7C
$GPGSV,3,2,10,09,16,275,00,23,46,284,30,06,11,325,00,14,26,076,34*7C
$GPGSV,3,3,10,01,25,212,38,22,74,181,37*7B
{"class":"SKY","time":"2019-11-01T23:37:48.500Z","xdop":0.74,"ydop":0.99,"vdop":1.00,"tdop":0.92,"hdop":3.71,"gdop":3.95,"pdop":3.84,"satellites":[{"PRN":16,"el":18.5,"az":140.8,"ss":26.0,"used":true,"gnssid":0,"svid":16},{"PRN":3,"el":76.2,"az":287.2,"ss":37.0,"used":true,"gnssid":0,"svid":3},{"PRN":31,"el":40.1,"az":52.0,"ss":40.0,"used":true,"gnssid":0,"svid":31},{"PRN":26,"el":33.4,"az":113.3,"ss":33.0,"used":true,"gnssid":0,"svid":26},{"PRN":9,"el":15.7,"az":275.2,"ss":0.0,"used":false,"gnssid":0,"svid":9},{"PRN":23,"el":46.0,"az":284.4,"ss":30.0,"used":true,"gnssid":0,"svid":23},{"PRN":6,"el":11.3,"az":325.1,"ss":0.0,"used":false,"gnssid":0,"svid":6},{"PRN":14,"el":25.8,"az":76.0,"ss":34.0,"used":true,"gnssid":0,"svid":14},{"PRN":1,"el":24.6,"az":212.3,"ss":38.0,"used":true,"gnssid":0,"svid":1}]}
$GPRMC,233749.00,A,4404.1298,N,12118.8428,W,,,011119,14.4,E*71
{"class":"TPV","mode":0,"time":"2019-11-01T23:37:49.000Z","leapseconds":18,"ept":0.005}
$GPZDA,233749.00,01,11,2019,00,00*65
$GPGGA,233749.00,4404.1299,N,12118.8429,W,1,03,3.71,1126.37,M,-22.154,M,,*66
$GPRMC,233749.00,A,4404.1299,N,12118.8429,W,0.0000,0.000,011119,14.4,E*41
$GPGSA,A,2,16,3,31,26,23,14,1,22,,,,,3.8,3.7,1.0*3A
$GPGBS,233749.00,11.154,14.784,,,,,*69
{"class":"TPV","mode":2,"time":"2019-11-01T23:37:49.000Z","leapseconds":18,"ept":0.005,"lat":44.068830844,"lon":-121.314048255,"altHAE":1104.218,"altMSL":1126.373,"epx":11.154,"epy":14.784,"track":0.0000,"magtrack":14.4184,"magvar":14.4,"speed":0.000,"eps":29.57,"eph":70.555,"sep":73.053}
$GPGGA,233749.00,4404.1299,N,12118.8429,W,1,03,3.72,1126.37,M,-22.154,M,,*65
$GPRMC,233749.00,A,4404.1299,N,12118.8429,W,0.0000,0.000,011119,14.4,E*41
$GPGSA,A,2,16,3,31,26,23,14,1,22,,,,,3.8,3.7,1.0*3A
$GPGBS,233749.00,11.154,14.784,,,,,*69
{"class":"TPV","mode":2,"time":"2019-11-01T23:37:49.000Z","leapseconds":18,"ept":0.005,"lat":44.068830844,"lon":-121.314048255,"altHAE":1104.218,"altMSL":1126.373,"epx":11.154,"epy":14.784,"track":0.0000,"magtrack":14.4184,"magvar":14.4,"speed":0.000,"eps":29.57,"eph":70.555,"sep":73.053}
$GPRMC,233750.00,A,4404.1298,N,12118.8428,W,,,011119,14.4,E*79
{"class":"TPV","mode":0,"time":"2019-11-01T23:37:50.000Z","leapseconds":18,"ept":0.005}
$GPZDA,233750.00,01,11,2019,00,00*6D
$GPGGA,233750.00,4404.1299,N,12118.8429,W,1,03,3.72,1126.37,M,-22.154,M,,*6D
$GPRMC,233750.00,A,4404.1299,N,12118.8429,W,0.0000,0.000,011119,14.4,E*49
$GPGSA,A,2,16,3,31,26,23,14,1,22,,,,,3.8,3.7,1.0*3A
$GPGBS,233750.00,11.154,14.784,,,,,*61
{"class":"TPV","mode":2,"time":"2019-11-01T23:37:50.000Z","leapseconds":18,"ept":0.005,"lat":44.068830844,"lon":-121.314048255,"altHAE":1104.218,"altMSL":1126.373,"epx":11.154,"epy":14.784,"track":0.0000,"magtrack":14.4184,"magvar":14.4,"speed":0.000,"eps":29.57,"eph":70.601,"sep":73.098}
$GPGGA,233750.44,4404.1299,N,12118.8429,W,1,03,3.72,1126.37,M,-22.154,M,,*6D
$GPRMC,233750.44,A,4404.1299,N,12118.8429,W,0.0000,0.000,011119,14.4,E*49
$GPGSA,A,2,16,3,31,26,23,14,1,22,,,,,3.8,3.7,1.0*3A
$GPGBS,233750.44,11.154,14.784,,,,,*61
{"class":"TPV","mode":2,"time":"2019-11-01T23:37:50.438Z","leapseconds":18,"ept":0.005,"lat":44.068830844,"lon":-121.314048255,"altHAE":1104.218,"altMSL":1126.373,"epx":11.154,"epy":14.784,"track":0.0000,"magtrack":14.4184,"magvar":14.4,"speed":0.000,"eps":29.57,"eph":70.601,"sep":73.098}
$GPRMC,233751.00,A,4404.1298,N,12118.8428,W,,,011119,14.4,E*78
{"class":"TPV","mode":0,"time":"2019-11-01T23:37:51.000Z","leapseconds":18,"ept":0.005}
$GPZDA,233751.00,01,11,2019,00,00*6C
$GPGGA,233751.00,4404.1299,N,12118.8429,W,1,03,3.72,1126.37,M,-22.154,M,,*6C
$GPRMC,233751.00,A,4404.1299,N,12118.8429,W,0.0000,0.000,011119,14.4,E*48
$GPGSA,A,2,16,3,31,26,23,14,1,22,,,,,3.8,3.7,1.0*3A
$GPGBS,233751.00,11.154,14.784,,,,,*60
{"class":"TPV","mode":2,"time":"2019-11-01T23:37:51.000Z","leapseconds":18,"ept":0.005,"lat":44.068830844,"lon":-121.314048255,"altHAE":1104.218,"altMSL":1126.373,"epx":11.154,"epy":14.784,"track":0.0000,"magtrack":14.4184,"magvar":14.4,"speed":0.000,"eps":52.57,"eph":70.601,"sep":73.098}
$GPGGA,233751.00,4404.1299,N,12118.8429,W,1,03,3.72,1126.37,M,-22.154,M,,*6C
$GPRMC,233751.00,A,4404.1299,N,12118.8429,W,0.0000,0.000,011119,14.4,E*48
$GPGSA,A,2,16,3,31,26,23,14,1,22,,,,,3.8,3.7,1.0*3A
$GPGBS,233751.00,11.154,14.784,,,,,*60
{"class":"TPV","mode":2,"time":"2019-11-01T23:37:51.000Z","leapseconds":18,"ept":0.005,"lat":44.068830844,"lon":-121.314048255,"altHAE":1104.218,"altMSL":1126.373,"epx":11.154,"epy":14.784,"track":0.0000,"magtrack":14.4184,"magvar":14.4,"speed":0.000,"eps":52.57,"eph":70.601,"sep":73.098}
$GPRMC,233752.00,A,4404.1298,N,12118.8428,W,,,011119,14.4,E*7B
{"class":"TPV","mode":0,"time":"2019-11-01T23:37:52.000Z","leapseconds":18,"ept":0.005}
$GPZDA,233752.00,01,11,2019,00,00*6F
$GPGGA,233752.00,4404.1299,N,12118.8429,W,1,03,3.72,1126.37,M,-22.154,M,,*6F
$GPRMC,233752.00,A,4404.1299,N,12118.8429,W,0.0000,0.000,011119,14.4,E*4B
$GPGSA,A,2,16,3,31,26,23,14,1,22,,,,,3.8,3.7,1.0*3A
$GPGBS,233752.00,11.154,14.784,,,,,*63
{"class":"TPV","mode":2,"time":"2019-11-01T23:37:52.000Z","leapseconds":18,"ept":0.005,"lat":44.068830844,"lon":-121.314048172,"altHAE":1104.218,"altMSL":1126.373,"epx":11.154,"epy":14.784,"track":0.0000,"magtrack":14.4184,"magvar":14.4,"speed":0.000,"eps":29.57,"eph":70.645,"sep":73.141}
$GPGGA,233752.00,4404.1299,N,12118.8429,W,1,03,3.72,1126.37,M,-22.154,M,,*6F
$GPRMC,233752.00,A,4404.1299,N,12118.8429,W,0.0000,0.000,011119,14.4,E*4B
$GPGSA,A,2,16,3,31,26,23,14,1,22,,,,,3.8,3.7,1.0*3A
$GPGBS,233752.00,11.154,14.784,,,,,*63
{"class":"TPV","mode":2,"time":"2019-11-01T23:37:52.000Z","leapseconds":18,"ept":0.005,"lat":44.068830844,"lon":-121.314048172,"altHAE":1104.218,"altMSL":1126.373,"epx":11.154,"epy":14.784,"track":0.0000,"magtrack":14.4184,"magvar":14.4,"speed":0.000,"eps":29.57,"eph":70.645,"sep":73.141}
$GPRMC,233753.00,A,4404.1298,N,12118.8428,W,,,011119,14.4,E*7A
{"class":"TPV","mode":0,"time":"2019-11-01T23:37:53.000Z","leapseconds":18,"ept":0.005}
$GPZDA,233753.00,01,11,2019,00,00*6E
$GPGGA,233753.00,4404.1299,N,12118.8429,W,1,03,3.72,1126.37,M,-22.154,M,,*6E
$GPRMC,233753.00,A,4404.1299,N,12118.8429,W,0.0000,0.000,011119,14.4,E*4A
$GPGSA,A,2,16,3,31,26,23,14,1,22,,,,,3.8,3.7,1.0*3A
$GPGBS,233753.00,11.154,14.784,,,,,*62
{"class":"TPV","mode":2,"time":"2019-11-01T23:37:53.000Z","leapseconds":18,"ept":0.005,"lat":44.068830844,"lon":-121.314048172,"altHAE":1104.218,"altMSL":1126.373,"epx":11.154,"epy":14.784,"track":0.0000,"magtrack":14.4184,"magvar":14.4,"speed":0.000,"eps":29.57,"eph":70.645,"sep":73.141}
$GPGGA,233753.00,4404.1299,N,12118.8429,W,1,03,3.72,1126.37,M,-22.154,M,,*6E
$GPRMC,233753.00,A,4404.1299,N,12118.8429,W,0.0000,0.000,011119,14.4,E*4A
$GPGSA,A,2,16,3,31,26,23,14,1,22,,,,,3.9,3.7,1.0*3B
$GPGBS,233753.00,11.154,14.784,,,,,*62
{"class":"TPV","mode":2,"time":"2019-11-01T23:37:53.000Z","leapseconds":18,"ept":0.005,"lat":44.068830844,"lon":-121.314048172,"altHAE":1104.218,"altMSL":1126.373,"epx":11.154,"epy":14.784,"track":0.0000,"magtrack":14.4184,"magvar":14.4,"speed":0.000,"eps":29.57,"eph":70.645,"sep":73.141}
$GPGSV,3,1,10,16,19,141,26,03,76,287,37,31,40,052,40,26,33,113,33*7C
$GPGSV,3,2,10,09,16,275,00,23,46,284,30,06,11,325,00,14,26,076,34*7C
$GPGSV,3,3,10,01,25,212,37,22,74,181,37*74
{"class":"SKY","time":"2019-11-01T23:37:53.500Z","xdop":0.74,"ydop":0.99,"vdop":1.00,"tdop":0.92,"hdop":3.72,"gdop":3.96,"pdop":3.85,"satellites":[{"PRN":16,"el":18.6,"az":140.8,"ss":26.0,"used":true,"gnssid":0,"svid":16},{"PRN":3,"el":76.2,"az":287.1,"ss":37.0,"used":true,"gnssid":0,"svid":3},{"PRN":31,"el":40.1,"az":51.9,"ss":40.0,"used":true,"gnssid":0,"svid":31},{"PRN":26,"el":33.5,"az":113.3,"ss":33.0,"used":true,"gnssid":0,"svid":26},{"PRN":9,"el":15.7,"az":275.2,"ss":0.0,"used":false,"gnssid":0,"svid":9},{"PRN":23,"el":46.1,"az":284.5,"ss":30.0,"used":true,"gnssid":0,"svid":23},{"PRN":6,"el":11.4,"az":325.1,"ss":0.0,"used":false,"gnssid":0,"svid":6},{"PRN":14,"el":25.8,"az":76.1,"ss":34.0,"used":true,"gnssid":0,"svid":14},{"PRN":1,"el":24.5,"az":212.3,"ss":37.0,"used":true,"gnssid":0,"svid":1}]}
$GPRMC,233754.00,A,4404.1298,N,12118.8427,W,,,011119,14.4,E*72
{"class":"TPV","mode":0,"time":"2019-11-01T23:37:54.000Z","leapseconds":18,"ept":0.005}
$GPZDA,233754.00,01,11,2019,00,00*69
$GPGGA,233754.00,4404.1299,N,12118.8429,W,1,03,3.72,1126.37,M,-22.154,M,,*69
$GPRMC,233754.00,A,4404.1299,N,12118.8429,W,0.0000,0.000,011119,14.4,E*4D
$GPGSA,A,2,16,3,31,26,23,14,1,22,,,,,3.9,3.7,1.0*3B
$GPGBS,233754.00,11.154,14.784,,,,,*65
{"class":"TPV","mode":2,"time":"2019-11-01T23:37:54.000Z","leapseconds":18,"ept":0.005,"lat":44.068830844,"lon":-121.314048172,"altHAE":1104.218,"altMSL":1126.373,"epx":11.154,"epy":14.784,"track":0.0000,"magtrack":14.4184,"magvar":14.4,"speed":0.000,"eps":29.57,"eph":70.691,"sep":73.185}
$GPGGA,233754.00,4404.1299,N,12118.8429,W,1,03,3.72,1126.37,M,-22.154,M,,*69
$GPRMC,233754.00,A,4404.1299,N,12118.8429,W,0.0000,0.000,011119,14.4,E*4D
$GPGSA,A,2,16,3,31,26,23,14,1,22,,,,,3.9,3.7,1.0*3B
$GPGBS,233754.00,11.154,14.784,,,,,*65
{"class":"TPV","mode":2,"time":"2019-11-01T23:37:54.000Z","leapseconds":18,"ept":0.005,"lat":44.068830844,"lon":-121.314048172,"altHAE":1104.218,"altMSL":1126.373,"epx":11.154,"epy":14.784,"track":0.0000,"magtrack":14.4184,"magvar":14.4,"speed":0.000,"eps":29.57,"eph":70.691,"sep":73.185}
$GPRMC,233755.00,A,4404.1298,N,12118.8427,W,,,011119,14.4,E*73
{"class":"TPV","mode":0,"time":"2019-11-01T23:37:55.000Z","leapseconds":18,"ept":0.005}
$GPZDA,233755.00,01,11,2019,00,00*68
$GPGGA,233755.00,4404.1298,N,12118.8429,W,1,03,3.72,1126.37,M,-22.154,M,,*69
$GPRMC,233755.00,A,4404.1298,N,12118.8429,W,0.0000,0.000,011119,14.4,E*4D
$GPGSA,A,2,16,3,31,26,23,14,1,22,,,,,3.9,3.7,1.0*3B
$GPGBS,233755.00,11.154,14.784,,,,,*64
{"class":"TPV","mode":2,"time":"2019-11-01T23:37:55.000Z","leapseconds":18,"ept":0.005,"lat":44.068830760,"lon":-121.314048172,"altHAE":1104.218,"altMSL":1126.373,"epx":11.154,"epy":14.784,"track":0.0000,"magtrack":14.4184,"magvar":14.4,"speed":0.000,"eps":29.57,"eph":70.691,"sep":73.185}
$GPGGA,233755.44,4404.1298,N,12118.8429,W,1,03,3.72,1126.37,M,-22.154,M,,*69
$GPRMC,233755.44,A,4404.1298,N,12118.8429,W,0.0000,0.000,011119,14.4,E*4D
$GPGSA,A,2,16,3,31,26,23,14,1,22,,,,,3.9,3.7,1.0*3B
$GPGBS,233755.44,11.154,14.784,,,,,*64
{"class":"TPV","mode":2,"time":"2019-11-01T23:37:55.438Z","leapseconds":18,"ept":0.005,"lat":44.068830760,"lon":-121.314048172,"altHAE":1104.218,"altMSL":1126.373,"epx":11.154,"epy":14.784,"track":0.0000,"magtrack":14.4184,"magvar":14.4,"speed":0.000,"eps":29.57,"eph":70.691,"sep":73.185}
$GPRMC,233756.00,A,4404.1298,N,12118.8428,W,,,011119,14.4,E*7F
{"class":"TPV","mode":0,"time":"2019-11-01T23:37:56.000Z","leapseconds":18,"ept":0.005}
$GPZDA,233756.00,01,11,2019,00,00*6B
$GPGGA,233756.00,4404.1298,N,12118.8429,W,1,03,3.72,1126.37,M,-22.154,M,,*6A
$GPRMC,233756.00,A,4404.1298,N,12118.8429,W,0.0000,0.000,011119,14.4,E*4E
$GPGSA,A,2,16,3,31,26,23,14,1,22,,,,,3.9,3.7,1.0*3B
$GPGBS,233756.00,11.154,14.784,,,,,*67
{"class":"TPV","mode":2,"time":"2019-11-01T23:37:56.000Z","leapseconds":18,"ept":0.005,"lat":44.068830760,"lon":-121.314048088,"altHAE":1104.218,"altMSL":1126.373,"epx":11.154,"epy":14.784,"track":0.0000,"magtrack":14.4184,"magvar":14.4,"speed":0.000,"eps":52.57,"eph":70.748,"sep":73.240}
$GPGGA,233756.00,4404.1298,N,12118.8429,W,1,03,3.72,1126.37,M,-22.154,M,,*6A
$GPRMC,233756.00,A,4404.1298,N,12118.8429,W,0.0000,0.000,011119,14.4,E*4E
$GPGSA,A,2,16,3,31,26,23,14,1,22,,,,,3.9,3.7,1.0*3B
$GPGBS,233756.00,11.154,14.784,,,,,*67
{"class":"TPV","mode":2,"time":"2019-11-01T23:37:56.000Z","leapseconds":18,"ept":0.005,"lat":44.068830760,"lon":-121.314048088,"altHAE":1104.218,"altMSL":1126.373,"epx":11.154,"epy":14.784,"track":0.0000,"magtrack":14.4184,"magvar":14.4,"speed":0.000,"eps":52.57,"eph":70.748,"sep":73.240}
$GPRMC,233757.00,A,4404.1298,N,12118.8428,W,,,011119,14.4,E*7E
{"class":"TPV","mode":0,"time":"2019-11-01T23:37:57.000Z","leapseconds":18,"ept":0.005}
$GPZDA,233757.00,01,11,2019,00,00*6A
$GPGGA,233757.00,4404.1298,N,12118.8429,W,1,03,3.72,1126.37,M,-22.154,M,,*6B
$GPRMC,233757.00,A,4404.1298,N,12118.8429,W,0.0000,0.000,011119,14.4,E*4F
$GPGSA,A,2,16,3,31,26,23,14,1,22,,,,,3.9,3.7,1.0*3B
$GPGBS,233757.00,11.154,14.784,,,,,*66
{"class":"TPV","mode":2,"time":"2019-11-01T23:37:57.000Z","leapseconds":18,"ept":0.005,"lat":44.068830760,"lon":-121.314048088,"altHAE":1104.218,"altMSL":1126.373,"epx":11.154,"epy":14.784,"track":0.0000,"magtrack":14.4184,"magvar":14.4,"speed":0.000,"eps":29.57,"eph":70.736,"sep":73.229}
$GPGGA,233757.00,4404.1298,N,12118.8429,W,1,03,3.72,1126.37,M,-22.154,M,,*6B
$GPRMC,233757.00,A,4404.1298,N,12118.8429,W,0.0000,0.000,011119,14.4,E*4F
$GPGSA,A,2,16,3,31,26,23,14,1,22,,,,,3.9,3.7,1.0*3B
$GPGBS,233757.00,11.154,14.784,,,,,*66
{"class":"TPV","mode":2,"time":"2019-11-01T23:37:57.000Z","leapseconds":18,"ept":0.005,"lat":44.068830760,"lon":-121.314048088,"altHAE":1104.218,"altMSL":1126.373,"epx":11.154,"epy":14.784,"track":0.0000,"magtrack":14.4184,"magvar":14.4,"speed":0.000,"eps":29.57,"eph":70.736,"sep":73.229}
$GPRMC,233758.00,A,4404.1298,N,12118.8428,W,,,011119,14.4,E*71
{"class":"TPV","mode":0,"time":"2019-11-01T23:37:58.000Z","leapseconds":18,"ept":0.005}
$GPZDA,233758.00,01,11,2019,00,00*65
$GPGGA,233758.00,4404.1298,N,12118.8429,W,1,03,3.72,1126.37,M,-22.154,M,,*64
$GPRMC,233758.00,A,4404.1298,N,12118.8429,W,0.0000,0.000,011119,14.4,E*40
$GPGSA,A,2,16,3,31,26,23,14,1,22,,,,,3.9,3.7,1.0*3B
$GPGBS,233758.00,11.154,14.784,,,,,*69
{"class":"TPV","mode":2,"time":"2019-11-01T23:37:58.000Z","leapseconds":18,"ept":0.005,"lat":44.068830760,"lon":-121.314048088,"altHAE":1104.218,"altMSL":1126.373,"epx":11.154,"epy":14.784,"track":0.0000,"magtrack":14.4184,"magvar":14.4,"speed":0.000,"eps":29.57,"eph":70.736,"sep":73.229}
$GPGGA,233758.00,4404.1298,N,12118.8429,W,1,03,3.73,1126.37,M,-22.154,M,,*65
$GPRMC,233758.00,A,4404.1298,N,12118.8429,W,0.0000,0.000,011119,14.4,E*40
$GPGSA,A,2,16,3,31,26,23,14,1,22,,,,,3.9,3.7,1.0*3B
$GPGBS,233758.00,11.154,14.784,,,,,*69
{"class":"TPV","mode":2,"time":"2019-11-01T23:37:58.000Z","leapseconds":18,"ept":0.005,"lat":44.068830760,"lon":-121.314048088,"altHAE":1104.218,"altMSL":1126.373,"epx":11.154,"epy":14.784,"track":0.0000,"magtrack":14.4184,"magvar":14.4,"speed":0.000,"eps":29.57,"eph":70.736,"sep":73.229}
$GPGSV,3,1,10,16,19,141,26,03,76,287,37,31,40,052,40,26,33,113,33*7C
$GPGSV,3,2,10,09,16,275,00,23,46,284,30,06,11,325,00,14,26,076,34*7C
$GPGSV,3,3,10,01,25,212,37,22,74,181,37*74
{"class":"SKY","time":"2019-11-01T23:37:58.500Z","xdop":0.74,"ydop":0.99,"vdop":1.00,"tdop":0.92,"hdop":3.73,"gdop":3.97,"pdop":3.86,"satellites":[{"PRN":16,"el":18.6,"az":140.7,"ss":26.0,"used":true,"gnssid":0,"svid":16},{"PRN":3,"el":76.2,"az":287.0,"ss":37.0,"used":true,"gnssid":0,"svid":3},{"PRN":31,"el":40.0,"az":51.9,"ss":40.0,"used":true,"gnssid":0,"svid":31},{"PRN":26,"el":33.5,"az":113.2,"ss":33.0,"used":true,"gnssid":0,"svid":26},{"PRN":9,"el":15.7,"az":275.2,"ss":0.0,"used":false,"gnssid":0,"svid":9},{"PRN":23,"el":46.1,"az":284.5,"ss":30.0,"used":true,"gnssid":0,"svid":23},{"PRN":6,"el":11.4,"az":325.1,"ss":0.0,"used":false,"gnssid":0,"svid":6},{"PRN":14,"el":25.7,"az":76.1,"ss":34.0,"used":true,"gnssid":0,"svid":14},{"PRN":1,"el":24.5,"az":212.3,"ss":37.0,"used":true,"gnssid":0,"svid":1}]}
$GPRMC,233759.00,A,4404.1298,N,12118.8428,W,,,011119,14.4,E*70
{"class":"TPV","mode":0,"time":"2019-11-01T23:37:59.000Z","leapseconds":18,"ept":0.005}
$GPZDA,233759.00,01,11,2019,00,00*64
$GPGGA,233759.00,4404.1298,N,12118.8429,W,1,03,3.73,1126.37,M,-22.154,M,,*64
$GPRMC,233759.00,A,4404.1298,N,12118.8429,W,0.0000,0.000,011119,14.4,E*41
$GPGSA,A,2,16,3,31,26,23,14,1,22,,,,,3.9,3.7,1.0*3B
$GPGBS,233759.00,11.154,14.784,,,,,*68
{"class":"TPV","mode":2,"time":"2019-11-01T23:37:59.000Z","leapseconds":18,"ept":0.005,"lat":44.068830760,"lon":-121.314048088,"altHAE":1104.218,"altMSL":1126.373,"epx":11.154,"epy":14.784,"track":0.0000,"magtrack":14.4184,"magvar":14.4,"speed":0.000,"eps":29.57,"eph":70.787,"sep":73.277}
$GPGGA,233759.00,4404.1298,N,12118.8429,W,1,03,3.73,1126.37,M,-22.154,M,,*64
$GPRMC,233759.00,A,4404.1298,N,12118.8429,W,0.0000,0.000,011119,14.4,E*41
$GPGSA,A,2,16,3,31,26,23,14,1,22,,,,,3.9,3.7,1.0*3B
$GPGBS,233759.00,11.154,14.784,,,,,*68
{"class":"TPV","mode":2,"time":"2019-11-01T23:37:59.000Z","leapseconds":18,"ept":0.005,"lat":44.068830760,"lon":-121.314048088,"altHAE":1104.218,"altMSL":1126.373,"epx":11.154,"epy":14.784,"track":0.0000,"magtrack":14.4184,"magvar":14.4,"speed":0.000,"eps":29.57,"eph":70.787,"sep":73.277}
$GPRMC,233800.00,A,4404.1298,N,12118.8428,W,,,011119,14.4,E*73
{"class":"TPV","mode":0,"time":"2019-11-01T23:38:00.000Z","leapseconds":18,"ept":0.005}
$GPZDA,233800.00,01,11,2019,00,00*67
$GPGGA,233800.00,4404.1298,N,12118.8429,W,1,03,3.73,1126.37,M,-22.154,M,,*67
$GPRMC,233800.00,A,4404.1298,N,12118.8429,W,0.0000,0.000,011119,14.4,E*42
$GPGSA,A,2,16,3,31,26,23,14,1,22,,,,,3.9,3.7,1.0*3B
$GPGBS,233800.00,11.154,14.784,,,,,*6B
{"class":"TPV","mode":2,"time":"2019-11-01T23:38:00.000Z","leapseconds":18,"ept":0.005,"lat":44.068830760,"lon":-121.314048088,"altHAE":1104.218,"altMSL":1126.373,"epx":11.154,"epy":14.784,"track":0.0000,"magtrack":14.4184,"magvar":14.4,"speed":0.000,"eps":29.57,"eph":70.787,"sep":73.277}
$GPGGA,233800.47,4404.1298,N,12118.8429,W,1,03,3.73,1126.37,M,-22.154,M,,*64
$GPRMC,233800.47,A,4404.1298,N,12118.8429,W,0.0000,0.000,011119,14.4,E*41
$GPGSA,A,2,16,3,31,26,23,14,1,22,,,,,3.9,3.7,1.0*3B
$GPGBS,233800.47,11.154,14.784,,,,,*68
{"class":"TPV","mode":2,"time":"2019-11-01T23:38:00.469Z","leapseconds":18,"ept":0.005,"lat":44.068830760,"lon":-121.314048088,"altHAE":1104.218,"altMSL":1126.373,"epx":11.154,"epy":14.784,"track":0.0000,"magtrack":14.4184,"magvar":14.4,"speed":0.000,"eps":29.57,"eph":70.787,"sep":73.277}
$GPRMC,233801.00,A,4404.1298,N,12118.8428,W,,,011119,14.4,E*72
{"class":"TPV","mode":0,"time":"2019-11-01T23:38:01.000Z","leapseconds":18,"ept":0.005}
$GPZDA,233801.00,01,11,2019,00,00*66
$GPGGA,233801.00,4404.1298,N,12118.8429,W,1,03,3.73,1126.37,M,-22.154,M,,*66
$GPRMC,233801.00,A,4404.1298,N,12118.8429,W,0.0000,0.000,011119,14.4,E*43
$GPGSA,A,2,16,3,31,26,23,14,1,22,,,,,3.9,3.7,1.0*3B
$GPGBS,233801.00,11.154,14.784,,,,,*6A
{"class":"TPV","mode":2,"time":"2019-11-01T23:38:01.000Z","leapseconds":18,"ept":0.005,"lat":44.068830760,"lon":-121.314048088,"altHAE":1104.218,"altMSL":1126.373,"epx":11.154,"epy":14.784,"track":0.0000,"magtrack":14.4184,"magvar":14.4,"speed":0.000,"eps":55.66,"eph":70.831,"sep":73.320}
$GPGGA,233801.00,4404.1298,N,12118.8429,W,1,03,3.73,1126.37,M,-22.154,M,,*66
$GPRMC,233801.00,A,4404.1298,N,12118.8429,W,0.0000,0.000,011119,14.4,E*43
$GPGSA,A,2,16,3,31,26,23,14,1,22,,,,,3.9,3.7,1.0*3B
$GPGBS,233801.00,11.154,14.784,,,,,*6A
{"class":"TPV","mode":2,"time":"2019-11-01T23:38:01.000Z","leapseconds":18,"ept":0.005,"lat":44.068830760,"lon":-121.314048088,"altHAE":1104.218,"altMSL":1126.373,"epx":11.154,"epy":14.784,"track":0.0000,"magtrack":14.4184,"magvar":14.4,"speed":0.000,"eps":55.66,"eph":70.831,"sep":73.320}
$GPRMC,233802.00,A,4404.1298,N,12118.8428,W,,,011119,14.4,E*71
{"class":"TPV","mode":0,"time":"2019-11-01T23:38:02.000Z","leapseconds":18,"ept":0.005}
$GPZDA,233802.00,01,11,2019,00,00*65
$GPGGA,233802.00,4404.1298,N,12118.8429,W,1,03,3.73,1126.37,M,-22.154,M,,*65
$GPRMC,233802.00,A,4404.1298,N,12118.8429,W,0.0000,0.000,011119,14.4,E*40
$GPGSA,A,2,16,3,31,26,23,14,1,22,,,,,3.9,3.7,1.0*3B
$GPGBS,233802.00,11.154,14.784,,,,,*69
{"class":"TPV","mode":2,"time":"2019-11-01T23:38:02.000Z","leapseconds":18,"ept":0.005,"lat":44.068830760,"lon":-121.314048004,"altHAE":1104.218,"altMSL":1126.373,"epx":11.154,"epy":14.784,"track":0.0000,"magtrack":14.4184,"magvar":14.4,"speed":0.000,"eps":29.57,"eph":70.831,"sep":73.320}
$GPGGA,233802.00,4404.1298,N,12118.8429,W,1,03,3.73,1126.37,M,-22.154,M,,*65
$GPRMC,233802.00,A,4404.1298,N,12118.8429,W,0.0000,0.000,011119,14.4,E*40
$GPGSA,A,2,16,3,31,26,23,14,1,22,,,,,3.9,3.7,1.0*3B
$GPGBS,233802.00,11.154,14.784,,,,,*69
{"class":"TPV","mode":2,"time":"2019-11-01T23:38:02.000Z","leapseconds":18,"ept":0.005,"lat":44.068830760,"lon":-121.314048004,"altHAE":1104.218,"altMSL":1126.373,"epx":11.154,"epy":14.784,"track":0.0000,"magtrack":14.4184,"magvar":14.4,"speed":0.000,"eps":29.57,"eph":70.831,"sep":73.320}
$GPRMC,233803.00,A,4404.1298,N,12118.8428,W,,,011119,14.4,E*70
{"class":"TPV","mode":0,"time":"2019-11-01T23:38:03.000Z","leapseconds":18,"ept":0.005}
$GPZDA,233803.00,01,11,2019,00,00*64
$GPGGA,233803.00,4404.1298,N,12118.8429,W,1,03,3.73,1126.37,M,-22.154,M,,*64
$GPRMC,233803.00,A,4404.1298,N,12118.8429,W,0.0000,0.000,011119,14.4,E*41
$GPGSA,A,2,16,3,31,26,23,14,1,22,,,,,3.9,3.7,1.0*3B
$GPGBS,233803.00,11.154,14.784,,,,,*68
{"class":"TPV","mode":2,"time":"2019-11-01T23:38:03.000Z","leapseconds":18,"ept":0.005,"lat":44.068830676,"lon":-121.314048004,"altHAE":1104.218,"altMSL":1126.373,"epx":11.154,"epy":14.784,"track":0.0000,"magtrack":14.4184,"magvar":14.4,"speed":0.000,"eps":29.57,"eph":70.877,"sep":73.365}
$GPGGA,233803.00,4404.1298,N,12118.8429,W,1,03,3.73,1126.37,M,-22.154,M,,*64
$GPRMC,233803.00,A,4404.1298,N,12118.8429,W,0.0000,0.000,011119,14.4,E*41
$GPGSA,A,2,16,3,31,26,23,14,1,22,,,,,3.9,3.7,1.0*3B
$GPGBS,233803.00,11.154,14.784,,,,,*68
{"class":"TPV","mode":2,"time":"2019-11-01T23:38:03.000Z","leapseconds":18,"ept":0.005,"lat":44.068830676,"lon":-121.314048004,"altHAE":1104.218,"altMSL":1126.373,"epx":11.154,"epy":14.784,"track":0.0000,"magtrack":14.4184,"magvar":14.4,"speed":0.000,"eps":29.57,"eph":70.877,"sep":73.365}
$GPGSV,3,1,10,16,19,141,26,03,76,287,37,31,40,052,41,26,33,113,34*7A
$GPGSV,3,2,10,09,16,275,00,23,46,285,29,06,11,325,00,14,26,076,34*75
$GPGSV,3,3,10,01,24,212,37,22,74,181,37*75
{"class":"SKY","time":"2019-11-01T23:38:03.531Z","xdop":0.74,"ydop":0.99,"vdop":1.00,"tdop":0.92,"hdop":3.73,"gdop":3.97,"pdop":3.86,"satellites":[{"PRN":16,"el":18.6,"az":140.7,"ss":26.0,"used":true,"gnssid":0,"svid":16},{"PRN":3,"el":76.3,"az":286.9,"ss":37.0,"used":true,"gnssid":0,"svid":3},{"PRN":31,"el":40.0,"az":51.9,"ss":41.0,"used":true,"gnssid":0,"svid":31},{"PRN":26,"el":33.5,"az":113.2,"ss":34.0,"used":true,"gnssid":0,"svid":26},{"PRN":9,"el":15.7,"az":275.2,"ss":0.0,"used":false,"gnssid":0,"svid":9},{"PRN":23,"el":46.1,"az":284.5,"ss":29.0,"used":true,"gnssid":0,"svid":23},{"PRN":6,"el":11.4,"az":325.1,"ss":0.0,"used":false,"gnssid":0,"svid":6},{"PRN":14,"el":25.7,"az":76.1,"ss":34.0,"used":true,"gnssid":0,"svid":14},{"PRN":1,"el":24.5,"az":212.3,"ss":37.0,"used":true,"gnssid":0,"svid":1}]}
$GPRMC,233804.00,A,4404.1298,N,12118.8428,W,,,011119,14.4,E*77
{"class":"TPV","mode":0,"time":"2019-11-01T23:38:04.000Z","leapseconds":18,"ept":0.005}
$GPZDA,233804.00,01,11,2019,00,00*63
$GPGGA,233804.00,4404.1298,N,12118.8429,W,1,03,3.73,1126.37,M,-22.154,M,,*63
$GPRMC,233804.00,A,4404.1298,N,12118.8429,W,0.0000,0.000,011119,14.4,E*46
$GPGSA,A,2,16,3,31,26,23,14,1,22,,,,,3.9,3.7,1.0*3B
$GPGBS,233804.00,11.154,14.784,,,,,*6F
{"class":"TPV","mode":2,"time":"2019-11-01T23:38:04.000Z","leapseconds":18,"ept":0.005,"lat":44.068830676,"lon":-121.314048004,"altHAE":1104.218,"altMSL":1126.373,"epx":11.154,"epy":14.784,"track":0.0000,"magtrack":14.4184,"magvar":14.4,"speed":0.000,"eps":29.57,"eph":70.877,"sep":73.365}
$GPGGA,233804.00,4404.1298,N,12118.8429,W,1,03,3.73,1126.37,M,-22.154,M,,*63
$GPRMC,233804.00,A,4404.1298,N,12118.8429,W,0.0000,0.000,011119,14.4,E*46
$GPGSA,A,2,16,3,31,26,23,14,1,22,,,,,3.9,3.7,1.0*3B
$GPGBS,233804.00,11.154,14.784,,,,,*6F
{"class":"TPV","mode":2,"time":"2019-11-01T23:38:04.000Z","leapseconds":18,"ept":0.005,"lat":44.068830676,"lon":-121.314048004,"altHAE":1104.218,"altMSL":1126.373,"epx":11.154,"epy":14.784,"track":0.0000,"magtrack":14.4184,"magvar":14.4,"speed":0.000,"eps":29.57,"eph":70.877,"sep":73.365}
$GPRMC,233805.00,A,4404.1298,N,12118.8429,W,,,011119,14.4,E*77
{"class":"TPV","mode":0,"time":"2019-11-01T23:38:05.000Z","leapseconds":18,"ept":0.005}
$GPZDA,233805.00,01,11,2019,00,00*62
$GPGGA,233805.00,4404.1298,N,12118.8429,W,1,03,3.73,1126.37,M,-22.154,M,,*62
$GPRMC,233805.00,A,4404.1298,N,12118.8429,W,0.0000,0.000,011119,14.4,E*47
$GPGSA,A,2,16,3,31,26,23,14,1,22,,,,,3.9,3.7,1.0*3B
$GPGBS,233805.00,11.154,14.784,,,,,*6E
{"class":"TPV","mode":2,"time":"2019-11-01T23:38:05.000Z","leapseconds":18,"ept":0.005,"lat":44.068830676,"lon":-121.314048004,"altHAE":1104.218,"altMSL":1126.373,"epx":11.154,"epy":14.784,"track":0.0000,"magtrack":14.4184,"magvar":14.4,"speed":0.000,"eps":29.57,"eph":70.922,"sep":73.408}
$GPGGA,233805.44,4404.1298,N,12118.8429,W,1,03,3.73,1126.37,M,-22.154,M,,*62
$GPRMC,233805.44,A,4404.1298,N,12118.8429,W,0.0000,0.000,011119,14.4,E*47
$GPGSA,A,2,16,3,31,26,23,14,1,22,,,,,3.9,3.7,1.0*3B
$GPGBS,233805.44,11.154,14.784,,,,,*6E
{"class":"TPV","mode":2,"time":"2019-11-01T23:38:05.438Z","leapseconds":18,"ept":0.005,"lat":44.068830676,"lon":-121.314048004,"altHAE":1104.218,"altMSL":1126.373,"epx":11.154,"epy":14.784,"track":0.0000,"magtrack":14.4184,"magvar":14.4,"speed":0.000,"eps":29.57,"eph":70.922,"sep":73.408}
$GPRMC,233806.00,A,4404.1298,N,12118.8429,W,,,011119,14.4,E*74
{"class":"TPV","mode":0,"time":"2019-11-01T23:38:06.000Z","leapseconds":18,"ept":0.005}
$GPZDA,233806.00,01,11,2019,00,00*61
$GPGGA,233806.00,4404.1298,N,12118.8429,W,1,03,3.73,1126.37,M,-22.154,M,,*61
$GPRMC,233806.00,A,4404.1298,N,12118.8429,W,0.0000,0.000,011119,14.4,E*44
$GPGSA,A,2,16,3,31,26,23,14,1,22,,,,,3.9,3.7,1.0*3B
$GPGBS,233806.00,11.154,14.784,,,,,*6D
{"class":"TPV","mode":2,"time":"2019-11-01T23:38:06.000Z","leapseconds":18,"ept":0.005,"lat":44.068830676,"lon":-121.314048004,"altHAE":1104.218,"altMSL":1126.373,"epx":11.154,"epy":14.784,"track":0.0000,"magtrack":14.4184,"magvar":14.4,"speed":0.000,"eps":52.57,"eph":70.922,"sep":73.408}
$GPGGA,233806.00,4404.1298,N,12118.8429,W,1,03,3.74,1126.37,M,-22.154,M,,*66
$GPRMC,233806.00,A,4404.1298,N,12118.8429,W,0.0000,0.000,011119,14.4,E*44
$GPGSA,A,2,16,3,31,26,23,14,1,22,,,,,3.9,3.7,1.0*3B
$GPGBS,233806.00,11.154,14.784,,,,,*6D
{"class":"TPV","mode":2,"time":"2019-11-01T23:38:06.000Z","leapseconds":18,"ept":0.005,"lat":44.068830676,"lon":-121.314048004,"altHAE":1104.218,"altMSL":1126.373,"epx":11.154,"epy":14.784,"track":0.0000,"magtrack":14.4184,"magvar":14.4,"speed":0.000,"eps":52.57,"eph":70.922,"sep":73.408}
$GPRMC,233807.00,A,4404.1298,N,12118.8430,W,,,011119,14.4,E*7D
{"class":"TPV","mode":0,"time":"2019-11-01T23:38:07.000Z","leapseconds":18,"ept":0.005}
$GPZDA,233807.00,01,11,2019,00,00*60
$GPGGA,233807.00,4404.1298,N,12118.8429,W,1,03,3.74,1126.37,M,-22.154,M,,*67
$GPRMC,233807.00,A,4404.1298,N,12118.8429,W,0.0000,0.000,011119,14.4,E*45
$GPGSA,A,2,16,3,31,26,23,14,1,22,,,,,3.9,3.7,1.0*3B
$GPGBS,233807.00,11.154,14.784,,,,,*6C
{"class":"TPV","mode":2,"time":"2019-11-01T23:38:07.000Z","leapseconds":18,"ept":0.005,"lat":44.068830676,"lon":-121.314048004,"altHAE":1104.218,"altMSL":1126.373,"epx":11.154,"epy":14.784,"track":0.0000,"magtrack":14.4184,"magvar":14.4,"speed":0.000,"eps":29.57,"eph":70.969,"sep":73.453}
$GPGGA,233807.00,4404.1298,N,12118.8429,W,1,03,3.74,1126.37,M,-22.154,M,,*67
$GPRMC,233807.00,A,4404.1298,N,12118.8429,W,0.0000,0.000,011119,14.4,E*45
$GPGSA,A,2,16,3,31,26,23,14,1,22,,,,,3.9,3.7,1.0*3B
$GPGBS,233807.00,11.154,14.784,,,,,*6C
{"class":"TPV","mode":2,"time":"2019-11-01T23:38:07.000Z","leapseconds":18,"ept":0.005,"lat":44.068830676,"lon":-121.314048004,"altHAE":1104.218,"altMSL":1126.373,"epx":11.154,"epy":14.784,"track":0.0000,"magtrack":14.4184,"magvar":14.4,"speed":0.000,"eps":29.57,"eph":70.969,"sep":73.453}
$GPRMC,233808.00,A,4404.1298,N,12118.8431,W,,,011119,14.4,E*73
{"class":"TPV","mode":0,"time":"2019-11-01T23:38:08.000Z","leapseconds":18,"ept":0.005}
$GPZDA,233808.00,01,11,2019,00,00*6F
$GPGGA,233808.00,4404.1298,N,12118.8429,W,1,03,3.74,1126.37,M,-22.154,M,,*68
$GPRMC,233808.00,A,4404.1298,N,12118.8429,W,0.0000,0.000,011119,14.4,E*4A
$GPGSA,A,2,16,3,31,26,23,14,1,22,,,,,3.9,3.7,1.0*3B
$GPGBS,233808.00,11.154,14.784,,,,,*63
{"class":"TPV","mode":2,"time":"2019-11-01T23:38:08.000Z","leapseconds":18,"ept":0.005,"lat":44.068830676,"lon":-121.314048088,"altHAE":1104.218,"altMSL":1126.373,"epx":11.154,"epy":14.784,"track":0.0000,"magtrack":14.4184,"magvar":14.4,"speed":0.000,"eps":29.57,"eph":70.969,"sep":73.453}
$GPGGA,233808.00,4404.1298,N,12118.8429,W,1,03,3.74,1126.37,M,-22.154,M,,*68
$GPRMC,233808.00,A,4404.1298,N,12118.8429,W,0.0000,0.000,011119,14.4,E*4A
$GPGSA,A,2,16,3,31,26,23,14,1,22,,,,,3.9,3.7,1.0*3B
$GPGBS,233808.00,11.154,14.784,,,,,*63
{"class":"TPV","mode":2,"time":"2019-11-01T23:38:08.000Z","leapseconds":18,"ept":0.005,"lat":44.068830676,"lon":-121.314048088,"altHAE":1104.218,"altMSL":1126.373,"epx":11.154,"epy":14.784,"track":0.0000,"magtrack":14.4184,"magvar":14.4,"speed":0.000,"eps":29.57,"eph":70.969,"sep":73.453}
$GPGSV,3,1,10,16,19,141,26,03,76,287,37,31,40,052,41,26,34,113,33*7A
$GPGSV,3,2,10,09,16,275,00,23,46,285,29,06,11,325,00,14,26,076,34*75
$GPGSV,3,3,10,01,24,212,37,22,74,181,38*7A
{"class":"SKY","time":"2019-11-01T23:38:08.469Z","xdop":0.74,"ydop":0.99,"vdop":1.00,"tdop":0.92,"hdop":3.74,"gdop":3.98,"pdop":3.87,"satellites":[{"PRN":16,"el":18.7,"az":140.7,"ss":26.0,"used":true,"gnssid":0,"svid":16},{"PRN":3,"el":76.3,"az":286.7,"ss":37.0,"used":true,"gnssid":0,"svid":3},{"PRN":31,"el":40.0,"az":51.9,"ss":41.0,"used":true,"gnssid":0,"svid":31},{"PRN":26,"el":33.5,"az":113.2,"ss":33.0,"used":true,"gnssid":0,"svid":26},{"PRN":9,"el":15.8,"az":275.3,"ss":0.0,"used":false,"gnssid":0,"svid":9},{"PRN":23,"el":46.1,"az":284.6,"ss":29.0,"used":true,"gnssid":0,"svid":23},{"PRN":6,"el":11.4,"az":325.1,"ss":0.0,"used":false,"gnssid":0,"svid":6},{"PRN":14,"el":25.7,"az":76.1,"ss":34.0,"used":true,"gnssid":0,"svid":14},{"PRN":1,"el":24.4,"az":212.3,"ss":37.0,"used":true,"gnssid":0,"svid":1}]}
