$GPGGA,,,S,,W,1,04,2.37,,M,,M,,*7F
$GPRMC,,A,,S,,W,,,,,*22
$GPGSA,A,3,,,,,,,,,,,,,3.8,2.4,3.0*3C
{"class":"TPV","mode":3,"epv":68.490,"eph":44.949,"sep":72.261}
$GPGGA,,,S,,W,1,04,2.37,,M,,M,,*7F
$GPRMC,,A,,S,,W,,,,,*22
$GPGSA,A,3,,,,,,,,,,,,,3.8,2.4,3.0*3C
{"class":"TPV","mode":3,"epv":68.490,"eph":44.949,"sep":72.261}
$GPGGA,,,S,,W,1,05,1.43,,M,,M,,*7E
$GPRMC,,A,,S,,W,,,,,*22
$GPGSA,A,3,,,,,,,,,,,,,2.9,1.4,2.6*38
{"class":"TPV","mode":3,"epv":68.490,"eph":44.949,"sep":72.261}
$GPGGA,,,S,,W,1,05,1.43,,M,,M,,*7E
$GPRMC,,A,,S,,W,,,,,*22
$GPGSA,A,3,19,18,1,11,3,22,9,,,,,,2.9,1.4,2.6*02
{"class":"TPV","mode":3,"epv":68.490,"eph":44.949,"sep":72.261}
$GPGGA,065729.48,,S,,W,1,05,1.43,,M,,M,,*53
$GPRMC,065729.48,A,,S,,W,,,261106,,*0D
$GPGSA,A,3,19,18,1,11,3,22,9,,,,,,2.9,1.4,2.6*02
{"class":"TPV","mode":3,"time":"2006-11-26T06:57:29.477Z","leapseconds":14,"ept":0.005,"epv":68.490,"eph":44.949,"sep":72.261}
$GPGGA,065729.48,,S,,W,1,05,1.43,,M,,M,,*53
$GPRMC,065729.48,A,,S,,W,,,261106,,*0D
$GPGSA,A,3,19,18,1,11,3,22,9,,,,,,2.9,1.4,2.6*02
{"class":"TPV","mode":3,"time":"2006-11-26T06:57:29.477Z","leapseconds":14,"ept":0.005,"epv":68.490,"eph":44.949,"sep":72.261}
$GPGGA,065729.48,,S,,W,1,05,1.43,,M,,M,,*53
$GPRMC,065729.48,A,,S,,W,,,261106,,*0D
$GPGSA,A,3,19,18,1,11,3,22,9,,,,,,2.9,1.4,2.6*02
{"class":"TPV","mode":3,"time":"2006-11-26T06:57:29.477Z","leapseconds":14,"ept":0.005,"epv":68.490,"eph":44.949,"sep":72.261}
$GPGSV,2,1,07,19,26,250,29,18,26,096,37,01,29,221,26,11,24,307,29*7D
$GPGSV,2,2,07,03,08,225,28,22,65,094,37,09,24,045,37*4A
{"class":"SKY","xdop":0.64,"ydop":0.85,"vdop":2.56,"tdop":1.47,"hdop":1.43,"gdop":3.28,"pdop":2.93,"satellites":[{"PRN":19,"el":26.0,"az":249.7,"ss":29.0,"used":true,"gnssid":0,"svid":19},{"PRN":18,"el":26.2,"az":95.6,"ss":37.0,"used":true,"gnssid":0,"svid":18},{"PRN":1,"el":29.1,"az":221.3,"ss":26.0,"used":true,"gnssid":0,"svid":1},{"PRN":11,"el":24.5,"az":307.3,"ss":29.0,"used":true,"gnssid":0,"svid":11},{"PRN":3,"el":7.9,"az":225.4,"ss":28.0,"used":true,"gnssid":0,"svid":3}]}
$GPGGA,065739.46,,S,,W,1,05,1.75,,M,,M,,*59
$GPRMC,065739.46,A,,S,,W,,,261106,,*02
$GPGSA,A,3,19,18,1,11,3,22,9,,,,,,3.1,1.8,2.5*04
$GPGBS,065739.46,9.628,12.701,68.490,,,,*4E
{"class":"TPV","mode":3,"time":"2006-11-26T06:57:39.455Z","leapseconds":14,"ept":0.005,"epx":9.628,"epy":12.701,"epv":68.490,"eps":2.55,"epc":13.73,"eph":44.949,"sep":72.261}
$GPGGA,065739.46,,S,,W,1,05,1.75,,M,,M,,*59
$GPRMC,065739.46,A,,S,,W,,,261106,,*02
$GPGSA,A,3,19,18,1,11,3,22,9,,,,,,3.1,1.8,2.5*04
$GPGBS,065739.46,9.628,12.701,68.490,,,,*4E
{"class":"TPV","mode":3,"time":"2006-11-26T06:57:39.455Z","leapseconds":14,"ept":0.005,"epx":9.628,"epy":12.701,"epv":68.490,"eps":2.55,"epc":13.73,"eph":44.949,"sep":72.261}
$GPGSV,2,1,07,19,26,250,29,18,26,096,38,01,29,221,29,11,25,307,26*73
$GPGSV,2,2,07,03,08,225,28,22,65,094,38,09,24,045,38*4A
{"class":"SKY","xdop":0.64,"ydop":0.85,"vdop":2.51,"tdop":1.38,"hdop":1.75,"gdop":3.36,"pdop":3.06,"satellites":[{"PRN":19,"el":26.0,"az":249.7,"ss":29.0,"used":true,"gnssid":0,"svid":19},{"PRN":18,"el":26.2,"az":95.7,"ss":38.0,"used":true,"gnssid":0,"svid":18},{"PRN":1,"el":29.2,"az":221.3,"ss":29.0,"used":true,"gnssid":0,"svid":1},{"PRN":11,"el":24.5,"az":307.3,"ss":26.0,"used":true,"gnssid":0,"svid":11},{"PRN":3,"el":7.8,"az":225.4,"ss":28.0,"used":true,"gnssid":0,"svid":3}]}
$GPGGA,065739.46,,S,,W,1,04,2.07,,M,,M,,*5E
$GPRMC,065739.46,A,,S,,W,,,261106,,*02
$GPGSA,A,3,19,18,1,11,3,22,9,,,,,,3.3,2.1,2.5*0C
$GPGBS,065739.46,9.628,12.701,68.490,,,,*4E
{"class":"TPV","mode":3,"time":"2006-11-26T06:57:39.455Z","leapseconds":14,"ept":0.005,"epx":9.628,"epy":12.701,"epv":68.490,"eps":2.55,"epc":13.73,"eph":44.949,"sep":72.261}
$GPGGA,065739.46,,S,,W,1,04,2.07,,M,,M,,*5E
$GPRMC,065739.46,A,,S,,W,,,261106,,*02
$GPGSA,A,3,19,18,1,11,3,22,9,,,,,,3.3,2.1,2.5*0C
$GPGBS,065739.46,9.628,12.701,68.490,,,,*4E
{"class":"TPV","mode":3,"time":"2006-11-26T06:57:39.455Z","leapseconds":14,"ept":0.005,"epx":9.628,"epy":12.701,"epv":68.490,"eps":2.55,"epc":13.73,"eph":44.949,"sep":72.261}
$GPGGA,065739.46,,S,,W,1,04,2.07,,M,,M,,*5E
$GPRMC,065739.46,A,,S,,W,,,261106,,*02
$GPGSA,A,3,19,18,1,11,3,22,9,,,,,,3.3,2.1,2.5*0C
$GPGBS,065739.46,9.628,12.701,68.490,,,,*4E
{"class":"TPV","mode":3,"time":"2006-11-26T06:57:39.455Z","leapseconds":14,"ept":0.005,"epx":9.628,"epy":12.701,"epv":68.490,"eps":2.55,"epc":13.73,"eph":44.949,"sep":72.261}
$GPGGA,065739.46,,S,,W,1,04,2.07,,M,,M,,*5E
$GPRMC,065739.46,A,,S,,W,,,261106,,*02
$GPGSA,A,3,19,18,1,11,3,22,9,,,,,,3.3,2.1,2.5*0C
$GPGBS,065739.46,9.628,12.701,68.490,,,,*4E
{"class":"TPV","mode":3,"time":"2006-11-26T06:57:39.455Z","leapseconds":14,"ept":0.005,"epx":9.628,"epy":12.701,"epv":68.490,"eps":2.55,"epc":13.73,"eph":44.949,"sep":72.261}
$GPGGA,065744.46,,S,,W,1,04,2.07,,M,,M,,*54
$GPRMC,065744.46,A,,S,,W,,,261106,,*08
$GPGSA,A,3,19,18,1,11,3,22,9,,,,,,3.3,2.1,2.5*0C
$GPGBS,065744.46,9.628,12.701,68.490,,,,*44
{"class":"TPV","mode":3,"time":"2006-11-26T06:57:44.463Z","leapseconds":14,"ept":0.005,"epx":9.628,"epy":12.701,"epv":68.490,"eps":2.55,"epc":13.73,"eph":44.949,"sep":72.261}
$GPGSV,2,1,07,19,26,250,29,18,26,096,39,01,29,221,30,11,25,307,26*7A
$GPGSV,2,2,07,03,08,225,28,22,65,094,38,09,24,045,41*44
{"class":"SKY","xdop":0.64,"ydop":0.85,"vdop":2.54,"tdop":1.54,"hdop":2.07,"gdop":3.62,"pdop":3.27,"satellites":[{"PRN":19,"el":26.0,"az":249.7,"ss":29.0,"used":true,"gnssid":0,"svid":19},{"PRN":18,"el":26.1,"az":95.7,"ss":39.0,"used":true,"gnssid":0,"svid":18},{"PRN":1,"el":29.2,"az":221.3,"ss":30.0,"used":true,"gnssid":0,"svid":1},{"PRN":11,"el":24.6,"az":307.2,"ss":26.0,"used":true,"gnssid":0,"svid":11},{"PRN":3,"el":7.8,"az":225.4,"ss":28.0,"used":true,"gnssid":0,"svid":3}]}
$GPGGA,065744.46,,S,,W,1,04,2.07,,M,,M,,*54
$GPRMC,065744.46,A,,S,,W,,,261106,,*08
$GPGSA,A,3,19,18,1,11,3,22,9,,,,,,3.3,2.1,2.5*0C
$GPGBS,065744.46,9.628,12.701,68.490,,,,*44
{"class":"TPV","mode":3,"time":"2006-11-26T06:57:44.463Z","leapseconds":14,"ept":0.005,"epx":9.628,"epy":12.701,"epv":68.490,"eps":2.55,"epc":13.73,"eph":44.949,"sep":72.261}
$GPGGA,065744.46,,S,,W,1,04,2.07,,M,,M,,*54
$GPRMC,065744.46,A,,S,,W,,,261106,,*08
$GPGSA,A,3,19,18,1,11,3,22,9,,,,,,3.3,2.1,2.5*0C
$GPGBS,065744.46,9.628,12.701,68.490,,,,*44
{"class":"TPV","mode":3,"time":"2006-11-26T06:57:44.463Z","leapseconds":14,"ept":0.005,"epx":9.628,"epy":12.701,"epv":68.490,"eps":2.55,"epc":13.73,"eph":44.949,"sep":72.261}
$GPGGA,065744.46,,S,,W,1,04,2.07,,M,,M,,*54
$GPRMC,065744.46,A,,S,,W,,,261106,,*08
$GPGSA,A,3,19,18,1,11,3,22,9,,,,,,3.3,2.1,2.5*0C
$GPGBS,065744.46,9.628,12.701,68.490,,,,*44
{"class":"TPV","mode":3,"time":"2006-11-26T06:57:44.463Z","leapseconds":14,"ept":0.005,"epx":9.628,"epy":12.701,"epv":68.490,"eps":2.55,"epc":13.73,"eph":44.949,"sep":72.261}
$GPGGA,065744.46,,S,,W,1,04,2.07,,M,,M,,*54
$GPRMC,065744.46,A,,S,,W,,,261106,,*08
$GPGSA,A,3,19,18,1,11,3,22,9,,,,,,3.3,2.1,2.5*0C
$GPGBS,065744.46,9.628,12.701,68.490,,,,*44
{"class":"TPV","mode":3,"time":"2006-11-26T06:57:44.463Z","leapseconds":14,"ept":0.005,"epx":9.628,"epy":12.701,"epv":68.490,"eps":2.55,"epc":13.73,"eph":44.949,"sep":72.261}
$GPGSV,2,1,07,19,26,250,29,18,26,096,39,01,29,221,30,11,25,307,26*7A
$GPGSV,2,2,07,03,08,225,28,22,64,094,39,09,24,045,40*45
{"class":"SKY","xdop":0.64,"ydop":0.85,"vdop":2.54,"tdop":1.54,"hdop":2.07,"gdop":3.62,"pdop":3.27,"satellites":[{"PRN":19,"el":26.0,"az":249.7,"ss":29.0,"used":true,"gnssid":0,"svid":19},{"PRN":18,"el":26.1,"az":95.7,"ss":39.0,"used":true,"gnssid":0,"svid":18},{"PRN":1,"el":29.3,"az":221.3,"ss":30.0,"used":true,"gnssid":0,"svid":1},{"PRN":11,"el":24.6,"az":307.2,"ss":26.0,"used":true,"gnssid":0,"svid":11},{"PRN":3,"el":7.8,"az":225.3,"ss":28.0,"used":true,"gnssid":0,"svid":3}]}
$GPGGA,065744.46,,S,,W,1,04,2.06,,M,,M,,*55
$GPRMC,065744.46,A,,S,,W,,,261106,,*08
$GPGSA,A,3,19,18,1,11,3,22,9,,,,,,3.3,2.1,2.5*0C
$GPGBS,065744.46,9.628,12.701,68.490,,,,*44
{"class":"TPV","mode":3,"time":"2006-11-26T06:57:44.463Z","leapseconds":14,"ept":0.005,"epx":9.628,"epy":12.701,"epv":68.490,"eps":2.55,"epc":13.73,"eph":44.949,"sep":72.261}
$GPGGA,065756.57,,S,,W,1,04,2.06,,M,,M,,*56
$GPRMC,065756.57,A,,S,,W,,,261106,,*0B
$GPGSA,A,3,19,18,1,11,3,22,9,,,,,,3.3,2.1,2.5*0C
$GPGBS,065756.57,9.628,12.701,68.490,,,,*47
{"class":"TPV","mode":3,"time":"2006-11-26T06:57:56.566Z","leapseconds":14,"ept":0.005,"epx":9.628,"epy":12.701,"epv":68.490,"eps":2.55,"epc":13.73,"eph":44.949,"sep":72.261}
$GPGGA,065756.57,,S,,W,1,04,2.06,,M,,M,,*56
$GPRMC,065756.57,A,,S,,W,,,261106,,*0B
$GPGSA,A,3,19,18,1,11,3,22,9,,,,,,3.3,2.1,2.5*0C
$GPGBS,065756.57,9.628,12.701,68.490,,,,*47
{"class":"TPV","mode":3,"time":"2006-11-26T06:57:56.566Z","leapseconds":14,"ept":0.005,"epx":9.628,"epy":12.701,"epv":68.490,"eps":2.55,"epc":13.73,"eph":44.949,"sep":72.261}
$GPGGA,065756.57,,S,,W,1,04,2.06,,M,,M,,*56
$GPRMC,065756.57,A,,S,,W,,,261106,,*0B
$GPGSA,A,3,19,18,1,11,3,22,9,,,,,,3.3,2.1,2.5*0C
$GPGBS,065756.57,9.628,12.701,68.490,,,,*47
{"class":"TPV","mode":3,"time":"2006-11-26T06:57:56.566Z","leapseconds":14,"ept":0.005,"epx":9.628,"epy":12.701,"epv":68.490,"eps":2.55,"epc":13.73,"eph":44.949,"sep":72.261}
$GPGSV,2,1,07,19,26,250,29,18,26,096,39,01,29,221,30,11,25,307,26*7A
$GPGSV,2,2,07,03,08,225,28,22,64,094,40,09,24,045,39*45
{"class":"SKY","xdop":0.64,"ydop":0.85,"vdop":2.54,"tdop":1.54,"hdop":2.06,"gdop":3.62,"pdop":3.27,"satellites":[{"PRN":19,"el":26.0,"az":249.7,"ss":29.0,"used":true,"gnssid":0,"svid":19},{"PRN":18,"el":26.1,"az":95.7,"ss":39.0,"used":true,"gnssid":0,"svid":18},{"PRN":1,"el":29.3,"az":221.3,"ss":30.0,"used":true,"gnssid":0,"svid":1},{"PRN":11,"el":24.6,"az":307.2,"ss":26.0,"used":true,"gnssid":0,"svid":11},{"PRN":3,"el":7.7,"az":225.3,"ss":28.0,"used":true,"gnssid":0,"svid":3}]}
$GPGSV,2,1,07,19,26,250,29,18,26,096,39,01,29,221,29,11,25,307,26*72
$GPGSV,2,2,07,03,08,225,28,22,64,094,41,09,24,045,38*45
{"class":"SKY","xdop":0.64,"ydop":0.85,"vdop":2.54,"tdop":1.54,"hdop":2.06,"gdop":3.62,"pdop":3.27,"satellites":[{"PRN":19,"el":26.0,"az":249.7,"ss":29.0,"used":true,"gnssid":0,"svid":19},{"PRN":18,"el":26.0,"az":95.7,"ss":39.0,"used":true,"gnssid":0,"svid":18},{"PRN":1,"el":29.3,"az":221.3,"ss":29.0,"used":true,"gnssid":0,"svid":1},{"PRN":11,"el":24.7,"az":307.2,"ss":26.0,"used":true,"gnssid":0,"svid":11},{"PRN":3,"el":7.7,"az":225.3,"ss":28.0,"used":true,"gnssid":0,"svid":3}]}
$GPGGA,065804.45,,S,,W,1,04,2.06,,M,,M,,*5D
$GPRMC,065804.45,A,,S,,W,,,261106,,*00
$GPGSA,A,3,19,18,1,11,3,22,9,,,,,,3.3,2.1,2.5*0C
$GPGBS,065804.45,9.628,12.701,68.490,,,,*4C
{"class":"TPV","mode":3,"time":"2006-11-26T06:58:04.449Z","leapseconds":14,"ept":0.005,"epx":9.628,"epy":12.701,"epv":68.490,"eps":2.55,"epc":13.73,"eph":44.949,"sep":72.261}
$GPGGA,065804.45,,S,,W,1,04,2.06,,M,,M,,*5D
$GPRMC,065804.45,A,,S,,W,,,261106,,*00
$GPGSA,A,3,19,18,1,11,3,22,9,,,,,,3.3,2.1,2.5*0C
$GPGBS,065804.45,9.628,12.701,68.490,,,,*4C
{"class":"TPV","mode":3,"time":"2006-11-26T06:58:04.449Z","leapseconds":14,"ept":0.005,"epx":9.628,"epy":12.701,"epv":68.490,"eps":2.55,"epc":13.73,"eph":44.949,"sep":72.261}
$GPGGA,065804.45,,S,,W,1,04,2.06,,M,,M,,*5D
$GPRMC,065804.45,A,,S,,W,,,261106,,*00
$GPGSA,A,3,19,18,1,11,3,22,9,,,,,,3.3,2.1,2.5*0C
$GPGBS,065804.45,9.628,12.701,68.490,,,,*4C
{"class":"TPV","mode":3,"time":"2006-11-26T06:58:04.449Z","leapseconds":14,"ept":0.005,"epx":9.628,"epy":12.701,"epv":68.490,"eps":2.55,"epc":13.73,"eph":44.949,"sep":72.261}
$GPGSV,2,1,07,19,26,250,29,18,26,096,39,01,29,221,28,11,25,307,26*73
$GPGSV,2,2,07,03,08,225,28,22,64,094,41,09,24,045,40*4A
{"class":"SKY","xdop":0.64,"ydop":0.85,"vdop":2.54,"tdop":1.54,"hdop":2.06,"gdop":3.61,"pdop":3.27,"satellites":[{"PRN":19,"el":26.0,"az":249.7,"ss":29.0,"used":true,"gnssid":0,"svid":19},{"PRN":18,"el":26.0,"az":95.8,"ss":39.0,"used":true,"gnssid":0,"svid":18},{"PRN":1,"el":29.4,"az":221.4,"ss":28.0,"used":true,"gnssid":0,"svid":1},{"PRN":11,"el":24.7,"az":307.2,"ss":26.0,"used":true,"gnssid":0,"svid":11},{"PRN":3,"el":7.7,"az":225.3,"ss":28.0,"used":true,"gnssid":0,"svid":3}]}
$GPGGA,065809.43,,S,,W,1,04,2.06,,M,,M,,*56
$GPRMC,065809.43,A,,S,,W,,,261106,,*0B
$GPGSA,A,3,19,18,1,11,3,22,9,,,,,,3.3,2.1,2.5*0C
$GPGBS,065809.43,9.628,12.701,68.490,,,,*47
{"class":"TPV","mode":3,"time":"2006-11-26T06:58:09.434Z","leapseconds":14,"ept":0.005,"epx":9.628,"epy":12.701,"epv":68.490,"eps":2.55,"epc":13.73,"eph":44.949,"sep":72.261}
$GPZDA,005549.52,07,01,2007,00,00*6F
$GPGGA,005549.52,5332.3091,N,11329.9353,W,1,03,2.06,679.15,M,-18.860,M,,*5D
$GPRMC,005549.52,A,5332.3091,N,11329.9353,W,0.0000,0.000,070107,13.9,E*42
$GPGSA,A,2,19,18,1,11,3,22,9,,,,,,3.3,2.1,2.5*0D
$GPGBS,005549.52,9.628,12.701,,,,,*55
{"class":"TPV","mode":2,"time":"2007-01-07T00:55:49.520Z","leapseconds":14,"ept":0.005,"lat":53.538484440,"lon":-113.498921410,"altHAE":660.289,"altMSL":679.149,"epx":9.628,"epy":12.701,"track":0.0000,"magtrack":13.9355,"magvar":13.9,"speed":0.000,"eps":0.00,"eph":39.110,"sep":62.108}
$GPZDA,011229.52,07,01,2007,00,00*6B
$GPGGA,011229.52,5332.3090,N,11329.9353,W,1,03,2.06,679.15,M,-18.860,M,,*58
$GPRMC,011229.52,A,5332.3090,N,11329.9353,W,0.0000,0.000,070107,13.9,E*47
$GPGSA,A,2,19,18,1,11,3,22,9,,,,,,3.3,2.1,2.5*0D
$GPGBS,011229.52,9.628,12.701,,,,,*51
{"class":"TPV","mode":2,"time":"2007-01-07T01:12:29.520Z","leapseconds":14,"ept":0.005,"lat":53.538484105,"lon":-113.498921158,"altHAE":660.293,"altMSL":679.153,"epx":9.628,"epy":12.701,"track":0.0000,"magtrack":13.9355,"magvar":13.9,"speed":0.000,"eps":0.03,"eph":39.110,"sep":62.108}
$GPGGA,065814.45,5332.3090,N,11329.9353,W,1,03,3.72,679.15,M,-18.860,M,,*5B
$GPRMC,065814.45,A,5332.3090,N,11329.9353,W,0.0000,0.000,261106,13.9,E*45
$GPGSA,A,2,19,18,1,11,3,22,9,,,,,,3.8,3.7,1.0*07
$GPGBS,065814.45,9.628,12.701,,,,,*50
{"class":"TPV","mode":2,"time":"2006-11-26T06:58:14.451Z","leapseconds":14,"ept":0.005,"lat":53.538484105,"lon":-113.498921158,"altHAE":660.293,"altMSL":679.153,"epx":9.628,"epy":12.701,"track":0.0000,"magtrack":13.9355,"magvar":13.9,"speed":0.000,"eps":0.03,"eph":39.110,"sep":62.108}
$GPGSV,2,1,07,19,26,249,27,18,26,096,38,01,29,221,26,11,25,307,26*7A
$GPGSV,2,2,07,03,08,225,28,22,64,094,41,09,24,045,41*4B
{"class":"SKY","xdop":0.64,"ydop":0.85,"vdop":1.00,"tdop":2.55,"hdop":3.72,"gdop":4.62,"pdop":3.85,"satellites":[{"PRN":19,"el":25.7,"az":249.4,"ss":27.0,"used":true,"gnssid":0,"svid":19},{"PRN":18,"el":26.0,"az":95.8,"ss":38.0,"used":true,"gnssid":0,"svid":18},{"PRN":1,"el":29.4,"az":221.4,"ss":26.0,"used":true,"gnssid":0,"svid":1},{"PRN":11,"el":24.7,"az":307.2,"ss":26.0,"used":true,"gnssid":0,"svid":11},{"PRN":3,"el":7.6,"az":225.3,"ss":28.0,"used":true,"gnssid":0,"svid":3}]}
$GPZDA,012909.52,07,01,2007,00,00*61
$GPGGA,012909.52,5332.3090,N,11329.9353,W,1,03,3.72,679.16,M,-18.860,M,,*53
$GPRMC,012909.52,A,5332.3090,N,11329.9353,W,0.0000,0.000,070107,13.9,E*4D
$GPGSA,A,2,19,18,1,11,3,22,9,,,,,,3.8,3.7,1.0*07
$GPGBS,012909.52,9.628,12.701,,,,,*5B
{"class":"TPV","mode":2,"time":"2007-01-07T01:29:09.520Z","leapseconds":14,"ept":0.005,"lat":53.538483769,"lon":-113.498920907,"altHAE":660.297,"altMSL":679.157,"epx":9.628,"epy":12.701,"track":0.0000,"magtrack":13.9355,"magvar":13.9,"speed":0.000,"eps":0.00,"eph":70.603,"sep":73.121}
$GPZDA,014549.52,07,01,2007,00,00*6F
$GPGGA,014549.52,5332.3090,N,11329.9352,W,1,03,3.72,679.16,M,-18.860,M,,*5C
$GPRMC,014549.52,A,5332.3090,N,11329.9352,W,0.0000,0.000,070107,13.9,E*42
$GPGSA,A,2,19,18,1,11,3,22,9,,,,,,3.8,3.7,1.0*07
$GPGBS,014549.52,9.628,12.701,,,,,*55
{"class":"TPV","mode":2,"time":"2007-01-07T01:45:49.520Z","leapseconds":14,"ept":0.005,"lat":53.538483434,"lon":-113.498920739,"altHAE":660.301,"altMSL":679.161,"epx":9.628,"epy":12.701,"track":0.0000,"magtrack":13.9355,"magvar":13.9,"speed":0.000,"eps":0.03,"eph":70.603,"sep":73.121}
$GPZDA,020229.52,07,01,2007,00,00*69
$GPGGA,020229.52,5332.3090,N,11329.9352,W,1,03,3.72,679.16,M,-18.860,M,,*5A
$GPRMC,020229.52,A,5332.3090,N,11329.9352,W,0.0000,0.000,070107,13.9,E*44
$GPGSA,A,2,19,18,1,11,3,22,9,,,,,,3.8,3.7,1.0*07
$GPGBS,020229.52,9.628,12.701,,,,,*53
{"class":"TPV","mode":2,"time":"2007-01-07T02:02:29.520Z","leapseconds":14,"ept":0.005,"lat":53.538483099,"lon":-113.498920488,"altHAE":660.305,"altMSL":679.165,"epx":9.628,"epy":12.701,"track":0.0000,"magtrack":13.9355,"magvar":13.9,"speed":0.000,"eps":0.03,"eph":70.603,"sep":73.121}
$GPZDA,021909.52,07,01,2007,00,00*61
$GPGGA,021909.52,5332.3090,N,11329.9352,W,1,03,3.72,679.17,M,-18.860,M,,*53
$GPRMC,021909.52,A,5332.3090,N,11329.9352,W,0.0000,0.000,070107,13.9,E*4C
$GPGSA,A,2,19,18,1,11,3,22,9,,,,,,3.8,3.7,1.0*07
$GPGBS,021909.52,9.628,12.701,,,,,*5B
{"class":"TPV","mode":2,"time":"2007-01-07T02:19:09.520Z","leapseconds":14,"ept":0.005,"lat":53.538482764,"lon":-113.498920320,"altHAE":660.309,"altMSL":679.169,"epx":9.628,"epy":12.701,"track":0.0000,"magtrack":13.9355,"magvar":13.9,"speed":0.000,"eps":0.03,"eph":70.603,"sep":73.121}
$GPGGA,021909.52,5332.3090,N,11329.9352,W,1,03,3.72,679.17,M,-18.860,M,,*53
$GPRMC,021909.52,A,5332.3090,N,11329.9352,W,0.0000,0.000,070107,13.9,E*4C
$GPGSA,A,2,19,18,1,11,3,22,9,,,,,,3.9,3.7,1.0*06
$GPGBS,021909.52,9.628,12.701,,,,,*5B
{"class":"TPV","mode":2,"time":"2007-01-07T02:19:09.520Z","leapseconds":14,"ept":0.005,"lat":53.538482764,"lon":-113.498920320,"altHAE":660.309,"altMSL":679.169,"epx":9.628,"epy":12.701,"track":0.0000,"magtrack":13.9355,"magvar":13.9,"speed":0.000,"eps":0.03,"eph":70.603,"sep":73.121}
$GPZDA,023549.52,07,01,2007,00,00*6B
$GPGGA,023549.52,5332.3090,N,11329.9352,W,1,03,3.72,679.17,M,-18.860,M,,*59
$GPRMC,023549.52,A,5332.3090,N,11329.9352,W,0.0000,0.000,070107,13.9,E*46
$GPGSA,A,2,19,18,1,11,3,22,9,,,,,,3.9,3.7,1.0*06
$GPGBS,023549.52,9.628,12.701,,,,,*51
{"class":"TPV","mode":2,"time":"2007-01-07T02:35:49.520Z","leapseconds":14,"ept":0.005,"lat":53.538482512,"lon":-113.498920153,"altHAE":660.312,"altMSL":679.172,"epx":9.628,"epy":12.701,"track":0.0000,"magtrack":13.9355,"magvar":13.9,"speed":0.000,"eps":0.03,"eph":70.637,"sep":73.154}
$GPGGA,065819.43,5332.3090,N,11329.9352,W,1,03,3.72,679.17,M,-18.860,M,,*53
$GPRMC,065819.43,A,5332.3090,N,11329.9352,W,0.0000,0.000,261106,13.9,E*4F
$GPGSA,A,2,19,18,1,11,3,22,9,,,,,,3.9,3.7,1.0*06
$GPGBS,065819.43,9.628,12.701,,,,,*5B
{"class":"TPV","mode":2,"time":"2006-11-26T06:58:19.432Z","leapseconds":14,"ept":0.005,"lat":53.538482512,"lon":-113.498920153,"altHAE":660.312,"altMSL":679.172,"epx":9.628,"epy":12.701,"track":0.0000,"magtrack":13.9355,"magvar":13.9,"speed":0.000,"eps":0.03,"eph":70.637,"sep":73.154}
$GPGSV,2,1,07,19,26,249,27,18,26,096,38,01,29,221,26,11,25,307,26*7A
$GPGSV,2,2,07,03,08,225,28,22,64,094,42,09,24,045,41*48
{"class":"SKY","xdop":0.64,"ydop":0.85,"vdop":1.00,"tdop":2.55,"hdop":3.72,"gdop":4.62,"pdop":3.85,"satellites":[{"PRN":19,"el":25.7,"az":249.4,"ss":27.0,"used":true,"gnssid":0,"svid":19},{"PRN":18,"el":26.0,"az":95.8,"ss":38.0,"used":true,"gnssid":0,"svid":18},{"PRN":1,"el":29.5,"az":221.4,"ss":26.0,"used":true,"gnssid":0,"svid":1},{"PRN":11,"el":24.7,"az":307.1,"ss":26.0,"used":true,"gnssid":0,"svid":11},{"PRN":3,"el":7.6,"az":225.3,"ss":28.0,"used":true,"gnssid":0,"svid":3}]}
$GPZDA,025229.52,07,01,2007,00,00*6C
$GPGGA,025229.52,5332.3089,N,11329.9352,W,1,03,3.72,679.18,M,-18.860,M,,*59
$GPRMC,025229.52,A,5332.3089,N,11329.9352,W,0.0000,0.000,070107,13.9,E*49
$GPGSA,A,2,19,18,1,11,3,22,9,,,,,,3.9,3.7,1.0*06
$GPGBS,025229.52,9.628,12.701,,,,,*56
{"class":"TPV","mode":2,"time":"2007-01-07T02:52:29.520Z","leapseconds":14,"ept":0.005,"lat":53.538482177,"lon":-113.498919901,"altHAE":660.316,"altMSL":679.176,"epx":9.628,"epy":12.701,"track":0.0000,"magtrack":13.9355,"magvar":13.9,"speed":0.000,"eps":0.00,"eph":70.637,"sep":73.154}
$GPGGA,025229.52,5332.3089,N,11329.9352,W,1,03,3.72,679.18,M,-18.860,M,,*59
$GPRMC,025229.52,A,5332.3089,N,11329.9352,W,0.0000,0.000,070107,13.9,E*49
$GPGSA,A,2,19,18,1,11,3,22,9,,,,,,3.9,3.7,1.0*06
$GPGBS,025229.52,9.628,12.701,,,,,*56
{"class":"TPV","mode":2,"time":"2007-01-07T02:52:29.520Z","leapseconds":14,"ept":0.005,"lat":53.538482177,"lon":-113.498919901,"altHAE":660.316,"altMSL":679.176,"epx":9.628,"epy":12.701,"track":0.0000,"magtrack":13.9355,"magvar":13.9,"speed":0.000,"eps":0.00,"eph":70.637,"sep":73.154}
$GPZDA,030909.52,07,01,2007,00,00*61
$GPGGA,030909.52,5332.3089,N,11329.9352,W,1,03,3.72,679.18,M,-18.860,M,,*54
$GPRMC,030909.52,A,5332.3089,N,11329.9352,W,0.0000,0.000,070107,13.9,E*44
$GPGSA,A,2,19,18,1,11,3,22,9,,,,,,3.9,3.7,1.0*06
$GPGBS,030909.52,9.628,12.701,,,,,*5B
{"class":"TPV","mode":2,"time":"2007-01-07T03:09:09.520Z","leapseconds":14,"ept":0.005,"lat":53.538481842,"lon":-113.498919734,"altHAE":660.320,"altMSL":679.180,"epx":9.628,"epy":12.701,"track":0.0000,"magtrack":13.9355,"magvar":13.9,"speed":0.000,"eps":0.03,"eph":70.653,"sep":73.170}
$GPGGA,030909.52,5332.3089,N,11329.9352,W,1,03,3.72,679.18,M,-18.860,M,,*54
$GPRMC,030909.52,A,5332.3089,N,11329.9352,W,0.0000,0.000,070107,13.9,E*44
$GPGSA,A,2,19,18,1,11,3,22,9,,,,,,3.9,3.7,1.0*06
$GPGBS,030909.52,9.628,12.701,,,,,*5B
{"class":"TPV","mode":2,"time":"2007-01-07T03:09:09.520Z","leapseconds":14,"ept":0.005,"lat":53.538481842,"lon":-113.498919734,"altHAE":660.320,"altMSL":679.180,"epx":9.628,"epy":12.701,"track":0.0000,"magtrack":13.9355,"magvar":13.9,"speed":0.000,"eps":0.03,"eph":70.653,"sep":73.170}
$GPZDA,034229.52,07,01,2007,00,00*6C
$GPGGA,034229.52,5332.3089,N,11329.9352,W,1,03,3.72,679.19,M,-18.860,M,,*58
$GPRMC,034229.52,A,5332.3089,N,11329.9352,W,0.0000,0.000,070107,13.9,E*49
$GPGSA,A,2,19,18,1,11,3,22,9,,,,,,3.9,3.7,1.0*06
$GPGBS,034229.52,9.628,12.701,,,,,*56
{"class":"TPV","mode":2,"time":"2007-01-07T03:42:29.520Z","leapseconds":14,"ept":0.005,"lat":53.538481339,"lon":-113.498919482,"altHAE":660.327,"altMSL":679.187,"epx":9.628,"epy":12.701,"track":0.0000,"magtrack":13.9355,"magvar":13.9,"speed":0.000,"eps":0.01,"eph":70.653,"sep":73.170}
$GPGGA,034229.52,5332.3089,N,11329.9352,W,1,03,3.72,679.19,M,-18.860,M,,*58
$GPRMC,034229.52,A,5332.3089,N,11329.9352,W,0.0000,0.000,070107,13.9,E*49
$GPGSA,A,2,19,18,1,11,3,22,9,,,,,,3.9,3.7,1.0*06
$GPGBS,034229.52,9.628,12.701,,,,,*56
{"class":"TPV","mode":2,"time":"2007-01-07T03:42:29.520Z","leapseconds":14,"ept":0.005,"lat":53.538481339,"lon":-113.498919482,"altHAE":660.327,"altMSL":679.187,"epx":9.628,"epy":12.701,"track":0.0000,"magtrack":13.9355,"magvar":13.9,"speed":0.000,"eps":0.01,"eph":70.653,"sep":73.170}
$GPZDA,035909.52,07,01,2007,00,00*64
$GPGGA,035909.52,5332.3089,N,11329.9352,W,1,03,3.72,679.19,M,-18.860,M,,*50
$GPRMC,035909.52,A,5332.3089,N,11329.9352,W,0.0000,0.000,070107,13.9,E*41
$GPGSA,A,2,19,18,1,11,3,22,9,,,,,,3.9,3.7,1.0*06
$GPGBS,035909.52,9.628,12.701,,,,,*5E
{"class":"TPV","mode":2,"time":"2007-01-07T03:59:09.520Z","leapseconds":14,"ept":0.005,"lat":53.538481003,"lon":-113.498919314,"altHAE":660.331,"altMSL":679.191,"epx":9.628,"epy":12.701,"track":0.0000,"magtrack":13.9355,"magvar":13.9,"speed":0.000,"eps":0.03,"eph":70.669,"sep":73.185}
$GPGSV,2,1,07,19,26,249,27,18,26,096,35,01,30,221,26,11,25,307,26*7F
$GPGSV,2,2,07,03,08,225,28,22,64,094,42,09,24,045,40*49
{"class":"SKY","xdop":0.64,"ydop":0.85,"vdop":1.00,"tdop":2.55,"hdop":3.72,"gdop":4.62,"pdop":3.85,"satellites":[{"PRN":19,"el":25.7,"az":249.4,"ss":27.0,"used":true,"gnssid":0,"svid":19},{"PRN":18,"el":25.9,"az":95.8,"ss":35.0,"used":true,"gnssid":0,"svid":18},{"PRN":1,"el":29.5,"az":221.4,"ss":26.0,"used":true,"gnssid":0,"svid":1},{"PRN":11,"el":24.7,"az":307.1,"ss":26.0,"used":true,"gnssid":0,"svid":11},{"PRN":3,"el":7.6,"az":225.2,"ss":28.0,"used":true,"gnssid":0,"svid":3}]}
$GPZDA,041549.52,07,01,2007,00,00*6F
$GPGGA,041549.52,5332.3088,N,11329.9351,W,1,03,3.72,679.19,M,-18.860,M,,*59
$GPRMC,041549.52,A,5332.3088,N,11329.9351,W,0.0000,0.000,070107,13.9,E*48
$GPGSA,A,2,19,18,1,11,3,22,9,,,,,,3.9,3.7,1.0*06
$GPGBS,041549.52,9.628,12.701,,,,,*55
{"class":"TPV","mode":2,"time":"2007-01-07T04:15:49.520Z","leapseconds":14,"ept":0.005,"lat":53.538480752,"lon":-113.498919147,"altHAE":660.334,"altMSL":679.194,"epx":9.628,"epy":12.701,"track":0.0000,"magtrack":13.9355,"magvar":13.9,"speed":0.000,"eps":0.03,"eph":70.669,"sep":73.185}
$GPGGA,041549.52,5332.3088,N,11329.9351,W,1,03,3.72,679.19,M,-18.860,M,,*59
$GPRMC,041549.52,A,5332.3088,N,11329.9351,W,0.0000,0.000,070107,13.9,E*48
$GPGSA,A,2,19,18,1,11,3,22,9,,,,,,3.9,3.7,1.0*06
$GPGBS,041549.52,9.628,12.701,,,,,*55
{"class":"TPV","mode":2,"time":"2007-01-07T04:15:49.520Z","leapseconds":14,"ept":0.005,"lat":53.538480752,"lon":-113.498919147,"altHAE":660.334,"altMSL":679.194,"epx":9.628,"epy":12.701,"track":0.0000,"magtrack":13.9355,"magvar":13.9,"speed":0.000,"eps":0.03,"eph":70.669,"sep":73.185}
$GPZDA,043229.52,07,01,2007,00,00*6C
$GPGGA,043229.52,5332.3088,N,11329.9351,W,1,03,3.72,679.20,M,-18.860,M,,*50
$GPRMC,043229.52,A,5332.3088,N,11329.9351,W,0.0000,0.000,070107,13.9,E*4B
$GPGSA,A,2,19,18,1,11,3,22,9,,,,,,3.9,3.7,1.0*06
$GPGBS,043229.52,9.628,12.701,,,,,*56
{"class":"TPV","mode":2,"time":"2007-01-07T04:32:29.520Z","leapseconds":14,"ept":0.005,"lat":53.538480500,"lon":-113.498919063,"altHAE":660.338,"altMSL":679.198,"epx":9.628,"epy":12.701,"track":0.0000,"magtrack":13.9355,"magvar":13.9,"speed":0.000,"eps":0.03,"eph":70.686,"sep":73.201}
$GPZDA,044909.52,07,01,2007,00,00*62
$GPGGA,044909.52,5332.3088,N,11329.9351,W,1,03,3.72,679.20,M,-18.860,M,,*5E
$GPRMC,044909.52,A,5332.3088,N,11329.9351,W,0.0000,0.000,070107,13.9,E*45
$GPGSA,A,2,19,18,1,11,3,22,9,,,,,,3.9,3.7,1.0*06
$GPGBS,044909.52,9.628,12.701,,,,,*58
{"class":"TPV","mode":2,"time":"2007-01-07T04:49:09.520Z","leapseconds":14,"ept":0.005,"lat":53.538480249,"lon":-113.498918895,"altHAE":660.341,"altMSL":679.201,"epx":9.628,"epy":12.701,"track":0.0000,"magtrack":13.9355,"magvar":13.9,"speed":0.000,"eps":0.03,"eph":70.686,"sep":73.201}
$GPGGA,044909.52,5332.3088,N,11329.9351,W,1,03,3.72,679.20,M,-18.860,M,,*5E
$GPRMC,044909.52,A,5332.3088,N,11329.9351,W,0.0000,0.000,070107,13.9,E*45
$GPGSA,A,2,19,18,1,11,3,22,9,,,,,,3.9,3.7,1.0*06
$GPGBS,044909.52,9.628,12.701,,,,,*58
{"class":"TPV","mode":2,"time":"2007-01-07T04:49:09.520Z","leapseconds":14,"ept":0.005,"lat":53.538480249,"lon":-113.498918895,"altHAE":660.341,"altMSL":679.201,"epx":9.628,"epy":12.701,"track":0.0000,"magtrack":13.9355,"magvar":13.9,"speed":0.000,"eps":0.03,"eph":70.686,"sep":73.201}
$GPZDA,050549.52,07,01,2007,00,00*6F
$GPGGA,050549.52,5332.3088,N,11329.9351,W,1,03,3.72,679.21,M,-18.860,M,,*52
$GPRMC,050549.52,A,5332.3088,N,11329.9351,W,0.0000,0.000,070107,13.9,E*48
$GPGSA,A,2,19,18,1,11,3,22,9,,,,,,3.9,3.7,1.0*06
$GPGBS,050549.52,9.628,12.701,,,,,*55
{"class":"TPV","mode":2,"time":"2007-01-07T05:05:49.520Z","leapseconds":14,"ept":0.005,"lat":53.538480081,"lon":-113.498918728,"altHAE":660.345,"altMSL":679.205,"epx":9.628,"epy":12.701,"track":0.0000,"magtrack":13.9355,"magvar":13.9,"speed":0.000,"eps":0.03,"eph":70.702,"sep":73.217}
$GPGGA,050549.52,5332.3088,N,11329.9351,W,1,03,3.72,679.21,M,-18.860,M,,*52
$GPRMC,050549.52,A,5332.3088,N,11329.9351,W,0.0000,0.000,070107,13.9,E*48
$GPGSA,A,2,19,18,1,11,3,22,9,,,,,,3.9,3.7,1.0*06
$GPGBS,050549.52,9.628,12.701,,,,,*55
{"class":"TPV","mode":2,"time":"2007-01-07T05:05:49.520Z","leapseconds":14,"ept":0.005,"lat":53.538480081,"lon":-113.498918728,"altHAE":660.345,"altMSL":679.205,"epx":9.628,"epy":12.701,"track":0.0000,"magtrack":13.9355,"magvar":13.9,"speed":0.000,"eps":0.03,"eph":70.702,"sep":73.217}
$GPZDA,052229.52,07,01,2007,00,00*6C
$GPGGA,052229.52,5332.3088,N,11329.9351,W,1,03,3.72,679.21,M,-18.860,M,,*51
$GPRMC,052229.52,A,5332.3088,N,11329.9351,W,0.0000,0.000,070107,13.9,E*4B
$GPGSA,A,2,19,18,1,11,3,22,9,,,,,,3.9,3.7,1.0*06
$GPGBS,052229.52,9.628,12.701,,,,,*56
{"class":"TPV","mode":2,"time":"2007-01-07T05:22:29.520Z","leapseconds":14,"ept":0.005,"lat":53.538479830,"lon":-113.498918644,"altHAE":660.348,"altMSL":679.208,"epx":9.628,"epy":12.701,"track":0.0000,"magtrack":13.9355,"magvar":13.9,"speed":0.000,"eps":0.03,"eph":70.719,"sep":73.233}
$GPGSV,2,1,07,19,26,249,27,18,26,096,32,01,30,221,26,11,25,307,26*78
$GPGSV,2,2,07,03,08,225,28,22,64,094,41,09,24,045,39*44
{"class":"SKY","xdop":0.64,"ydop":0.85,"vdop":1.00,"tdop":2.56,"hdop":3.72,"gdop":4.63,"pdop":3.85,"satellites":[{"PRN":19,"el":25.7,"az":249.4,"ss":27.0,"used":true,"gnssid":0,"svid":19},{"PRN":18,"el":25.9,"az":95.8,"ss":32.0,"used":true,"gnssid":0,"svid":18},{"PRN":1,"el":29.5,"az":221.4,"ss":26.0,"used":true,"gnssid":0,"svid":1},{"PRN":11,"el":24.8,"az":307.1,"ss":26.0,"used":true,"gnssid":0,"svid":11},{"PRN":3,"el":7.6,"az":225.2,"ss":28.0,"used":true,"gnssid":0,"svid":3}]}
$GPZDA,053909.52,07,01,2007,00,00*64
$GPGGA,053909.52,5332.3088,N,11329.9351,W,1,03,3.72,679.21,M,-18.860,M,,*59
$GPRMC,053909.52,A,5332.3088,N,11329.9351,W,0.0000,0.000,070107,13.9,E*43
$GPGSA,A,2,19,18,1,11,3,22,9,,,,,,3.9,3.7,1.0*06
$GPGBS,053909.52,9.628,12.701,,,,,*5E
{"class":"TPV","mode":2,"time":"2007-01-07T05:39:09.520Z","leapseconds":14,"ept":0.005,"lat":53.538479578,"lon":-113.498918476,"altHAE":660.352,"altMSL":679.212,"epx":9.628,"epy":12.701,"track":0.0000,"magtrack":13.9355,"magvar":13.9,"speed":0.000,"eps":0.03,"eph":70.719,"sep":73.233}
$GPZDA,055549.52,07,01,2007,00,00*6A
$GPGGA,055549.52,5332.3088,N,11329.9351,W,1,03,3.72,679.22,M,-18.860,M,,*54
$GPRMC,055549.52,A,5332.3088,N,11329.9351,W,0.0000,0.000,070107,13.9,E*4D
$GPGSA,A,2,19,18,1,11,3,22,9,,,,,,3.9,3.7,1.0*06
$GPGBS,055549.52,9.628,12.701,,,,,*50
{"class":"TPV","mode":2,"time":"2007-01-07T05:55:49.520Z","leapseconds":14,"ept":0.005,"lat":53.538479327,"lon":-113.498918309,"altHAE":660.355,"altMSL":679.215,"epx":9.628,"epy":12.701,"track":0.0000,"magtrack":13.9355,"magvar":13.9,"speed":0.000,"eps":0.03,"eph":70.719,"sep":73.233}
$GPGGA,055549.52,5332.3088,N,11329.9351,W,1,03,3.72,679.22,M,-18.860,M,,*54
$GPRMC,055549.52,A,5332.3088,N,11329.9351,W,0.0000,0.000,070107,13.9,E*4D
$GPGSA,A,2,19,18,1,11,3,22,9,,,,,,3.9,3.7,1.0*06
$GPGBS,055549.52,9.628,12.701,,,,,*50
{"class":"TPV","mode":2,"time":"2007-01-07T05:55:49.520Z","leapseconds":14,"ept":0.005,"lat":53.538479327,"lon":-113.498918309,"altHAE":660.355,"altMSL":679.215,"epx":9.628,"epy":12.701,"track":0.0000,"magtrack":13.9355,"magvar":13.9,"speed":0.000,"eps":0.03,"eph":70.719,"sep":73.233}
$GPZDA,061229.52,07,01,2007,00,00*6C
$GPGGA,061229.52,5332.3087,N,11329.9351,W,1,03,3.72,679.22,M,-18.860,M,,*5D
$GPRMC,061229.52,A,5332.3087,N,11329.9351,W,0.0000,0.000,070107,13.9,E*44
$GPGSA,A,2,19,18,1,11,3,22,9,,,,,,3.9,3.7,1.0*06
$GPGBS,061229.52,9.628,12.701,,,,,*56
{"class":"TPV","mode":2,"time":"2007-01-07T06:12:29.520Z","leapseconds":14,"ept":0.005,"lat":53.538479159,"lon":-113.498918141,"altHAE":660.358,"altMSL":679.218,"epx":9.628,"epy":12.701,"track":0.0000,"magtrack":13.9355,"magvar":13.9,"speed":0.000,"eps":0.03,"eph":70.735,"sep":73.249}
$GPGGA,061229.52,5332.3087,N,11329.9351,W,1,03,3.72,679.22,M,-18.860,M,,*5D
$GPRMC,061229.52,A,5332.3087,N,11329.9351,W,0.0000,0.000,070107,13.9,E*44
$GPGSA,A,2,19,18,1,11,3,22,9,,,,,,3.9,3.7,1.0*06
$GPGBS,061229.52,9.628,12.701,,,,,*56
{"class":"TPV","mode":2,"time":"2007-01-07T06:12:29.520Z","leapseconds":14,"ept":0.005,"lat":53.538479159,"lon":-113.498918141,"altHAE":660.358,"altMSL":679.218,"epx":9.628,"epy":12.701,"track":0.0000,"magtrack":13.9355,"magvar":13.9,"speed":0.000,"eps":0.03,"eph":70.735,"sep":73.249}
$GPZDA,062909.52,07,01,2007,00,00*66
$GPGGA,062909.52,5332.3087,N,11329.9351,W,1,03,3.72,679.22,M,-18.860,M,,*57
$GPRMC,062909.52,A,5332.3087,N,11329.9351,W,0.0000,0.000,070107,13.9,E*4E
$GPGSA,A,2,19,18,1,11,3,22,9,,,,,,3.9,3.7,1.0*06
$GPGBS,062909.52,9.628,12.701,,,,,*5C
{"class":"TPV","mode":2,"time":"2007-01-07T06:29:09.520Z","leapseconds":14,"ept":0.005,"lat":53.538478908,"lon":-113.498918057,"altHAE":660.362,"altMSL":679.222,"epx":9.628,"epy":12.701,"track":0.0000,"magtrack":13.9355,"magvar":13.9,"speed":0.000,"eps":0.03,"eph":70.735,"sep":73.249}
$GPGGA,062909.52,5332.3087,N,11329.9351,W,1,03,3.72,679.22,M,-18.860,M,,*57
$GPRMC,062909.52,A,5332.3087,N,11329.9351,W,0.0000,0.000,070107,13.9,E*4E
$GPGSA,A,2,19,18,1,11,3,22,9,,,,,,3.9,3.7,1.0*06
$GPGBS,062909.52,9.628,12.701,,,,,*5C
{"class":"TPV","mode":2,"time":"2007-01-07T06:29:09.520Z","leapseconds":14,"ept":0.005,"lat":53.538478908,"lon":-113.498918057,"altHAE":660.362,"altMSL":679.222,"epx":9.628,"epy":12.701,"track":0.0000,"magtrack":13.9355,"magvar":13.9,"speed":0.000,"eps":0.03,"eph":70.735,"sep":73.249}
$GPZDA,064549.52,07,01,2007,00,00*68
$GPGGA,064549.52,5332.3087,N,11329.9351,W,1,03,3.72,679.23,M,-18.860,M,,*58
$GPRMC,064549.52,A,5332.3087,N,11329.9351,W,0.0000,0.000,070107,13.9,E*40
$GPGSA,A,2,19,18,1,11,3,22,9,,,,,,3.9,3.7,1.0*06
$GPGBS,064549.52,9.628,12.701,,,,,*52
{"class":"TPV","mode":2,"time":"2007-01-07T06:45:49.520Z","leapseconds":14,"ept":0.005,"lat":53.538478740,"lon":-113.498917890,"altHAE":660.365,"altMSL":679.225,"epx":9.628,"epy":12.701,"track":0.0000,"magtrack":13.9355,"magvar":13.9,"speed":0.000,"eps":0.03,"eph":70.753,"sep":73.266}
$GPGSV,2,1,07,19,26,249,27,18,26,096,32,01,30,221,26,11,25,307,26*78
$GPGSV,2,2,07,03,08,225,28,22,64,094,40,09,24,045,38*44
{"class":"SKY","xdop":0.64,"ydop":0.85,"vdop":1.00,"tdop":2.56,"hdop":3.72,"gdop":4.63,"pdop":3.86,"satellites":[{"PRN":19,"el":25.6,"az":249.3,"ss":27.0,"used":true,"gnssid":0,"svid":19},{"PRN":18,"el":25.8,"az":95.9,"ss":32.0,"used":true,"gnssid":0,"svid":18},{"PRN":1,"el":29.6,"az":221.4,"ss":26.0,"used":true,"gnssid":0,"svid":1},{"PRN":11,"el":24.8,"az":307.1,"ss":26.0,"used":true,"gnssid":0,"svid":11},{"PRN":3,"el":7.5,"az":225.2,"ss":28.0,"used":true,"gnssid":0,"svid":3}]}
$GPZDA,070229.52,07,01,2007,00,00*6C
$GPGGA,070229.52,5332.3087,N,11329.9351,W,1,03,3.72,679.23,M,-18.860,M,,*5C
$GPRMC,070229.52,A,5332.3087,N,11329.9351,W,0.0000,0.000,070107,13.9,E*44
$GPGSA,A,2,19,18,1,11,3,22,9,,,,,,3.9,3.7,1.0*06
$GPGBS,070229.52,9.628,12.701,,,,,*56
{"class":"TPV","mode":2,"time":"2007-01-07T07:02:29.520Z","leapseconds":14,"ept":0.005,"lat":53.538478489,"lon":-113.498917806,"altHAE":660.368,"altMSL":679.228,"epx":9.628,"epy":12.701,"track":0.0000,"magtrack":13.9355,"magvar":13.9,"speed":0.000,"eps":0.03,"eph":70.753,"sep":73.266}
$GPGGA,070229.52,5332.3087,N,11329.9351,W,1,03,3.72,679.23,M,-18.860,M,,*5C
$GPRMC,070229.52,A,5332.3087,N,11329.9351,W,0.0000,0.000,070107,13.9,E*44
$GPGSA,A,2,19,18,1,11,3,22,9,,,,,,3.9,3.7,1.0*06
$GPGBS,070229.52,9.628,12.701,,,,,*56
{"class":"TPV","mode":2,"time":"2007-01-07T07:02:29.520Z","leapseconds":14,"ept":0.005,"lat":53.538478489,"lon":-113.498917806,"altHAE":660.368,"altMSL":679.228,"epx":9.628,"epy":12.701,"track":0.0000,"magtrack":13.9355,"magvar":13.9,"speed":0.000,"eps":0.03,"eph":70.753,"sep":73.266}
$GPZDA,073549.52,07,01,2007,00,00*6E
$GPGGA,073549.52,5332.3087,N,11329.9351,W,1,03,3.72,679.24,M,-18.860,M,,*59
$GPRMC,073549.52,A,5332.3087,N,11329.9351,W,0.0000,0.000,070107,13.9,E*46
$GPGSA,A,2,19,18,1,11,3,22,9,,,,,,3.9,3.7,1.0*06
$GPGBS,073549.52,9.628,12.701,,,,,*54
{"class":"TPV","mode":2,"time":"2007-01-07T07:35:49.520Z","leapseconds":14,"ept":0.005,"lat":53.538478154,"lon":-113.498917722,"altHAE":660.375,"altMSL":679.235,"epx":9.628,"epy":12.701,"track":0.0000,"magtrack":13.9355,"magvar":13.9,"speed":0.000,"eps":0.01,"eph":70.770,"sep":73.282}
$GPGGA,073549.52,5332.3087,N,11329.9351,W,1,03,3.73,679.24,M,-18.860,M,,*58
$GPRMC,073549.52,A,5332.3087,N,11329.9351,W,0.0000,0.000,070107,13.9,E*46
$GPGSA,A,2,19,18,1,11,3,22,9,,,,,,3.9,3.7,1.0*06
$GPGBS,073549.52,9.628,12.701,,,,,*54
{"class":"TPV","mode":2,"time":"2007-01-07T07:35:49.520Z","leapseconds":14,"ept":0.005,"lat":53.538478154,"lon":-113.498917722,"altHAE":660.375,"altMSL":679.235,"epx":9.628,"epy":12.701,"track":0.0000,"magtrack":13.9355,"magvar":13.9,"speed":0.000,"eps":0.01,"eph":70.770,"sep":73.282}
$GPZDA,075229.52,07,01,2007,00,00*69
$GPGGA,075229.52,5332.3087,N,11329.9351,W,1,03,3.73,679.24,M,-18.860,M,,*5F
$GPRMC,075229.52,A,5332.3087,N,11329.9351,W,0.0000,0.000,070107,13.9,E*41
$GPGSA,A,2,19,18,1,11,3,22,9,,,,,,3.9,3.7,1.0*06
$GPGBS,075229.52,9.628,12.701,,,,,*53
{"class":"TPV","mode":2,"time":"2007-01-07T07:52:29.520Z","leapseconds":14,"ept":0.005,"lat":53.538477986,"lon":-113.498917722,"altHAE":660.378,"altMSL":679.238,"epx":9.628,"epy":12.701,"track":0.0000,"magtrack":13.9355,"magvar":13.9,"speed":0.000,"eps":0.03,"eph":70.787,"sep":73.299}
$GPZDA,080909.52,07,01,2007,00,00*6A
$GPGGA,080909.52,5332.3087,N,11329.9351,W,1,03,3.73,679.24,M,-18.860,M,,*5C
$GPRMC,080909.52,A,5332.3087,N,11329.9351,W,0.0000,0.000,070107,13.9,E*42
$GPGSA,A,2,19,18,1,11,3,22,9,,,,,,3.9,3.7,1.0*06
$GPGBS,080909.52,9.628,12.701,,,,,*50
{"class":"TPV","mode":2,"time":"2007-01-07T08:09:09.520Z","leapseconds":14,"ept":0.005,"lat":53.538477818,"lon":-113.498917638,"altHAE":660.381,"altMSL":679.241,"epx":9.628,"epy":12.701,"track":0.0000,"magtrack":13.9355,"magvar":13.9,"speed":0.000,"eps":0.03,"eph":70.787,"sep":73.299}
$GPGSV,2,1,07,19,26,249,27,18,26,096,30,01,30,221,26,11,25,307,26*7A
$GPGSV,2,2,07,03,07,225,28,22,64,094,40,09,24,045,39*4A
{"class":"SKY","xdop":0.64,"ydop":0.85,"vdop":1.00,"tdop":2.56,"hdop":3.73,"gdop":4.63,"pdop":3.86,"satellites":[{"PRN":19,"el":25.6,"az":249.3,"ss":27.0,"used":true,"gnssid":0,"svid":19},{"PRN":18,"el":25.8,"az":95.9,"ss":30.0,"used":true,"gnssid":0,"svid":18},{"PRN":1,"el":29.6,"az":221.5,"ss":26.0,"used":true,"gnssid":0,"svid":1},{"PRN":11,"el":24.9,"az":307.1,"ss":26.0,"used":true,"gnssid":0,"svid":11},{"PRN":3,"el":7.5,"az":225.2,"ss":28.0,"used":true,"gnssid":0,"svid":3}]}
$GPGGA,080909.52,5332.3087,N,11329.9351,W,1,03,3.73,679.24,M,-18.860,M,,*5C
$GPRMC,080909.52,A,5332.3087,N,11329.9351,W,0.0000,0.000,070107,13.9,E*42
$GPGSA,A,2,19,18,1,11,3,22,9,,,,,,3.9,3.7,1.0*06
$GPGBS,080909.52,9.628,12.701,,,,,*50
{"class":"TPV","mode":2,"time":"2007-01-07T08:09:09.520Z","leapseconds":14,"ept":0.005,"lat":53.538477818,"lon":-113.498917638,"altHAE":660.381,"altMSL":679.241,"epx":9.628,"epy":12.701,"track":0.0000,"magtrack":13.9355,"magvar":13.9,"speed":0.000,"eps":0.03,"eph":70.787,"sep":73.299}
$GPZDA,084229.52,07,01,2007,00,00*67
$GPGGA,084229.52,5332.3086,N,11329.9350,W,1,03,3.73,679.25,M,-18.860,M,,*50
$GPRMC,084229.52,A,5332.3086,N,11329.9350,W,0.0000,0.000,070107,13.9,E*4F
$GPGSA,A,2,19,18,1,11,3,22,9,,,,,,3.9,3.7,1.0*06
$GPGBS,084229.52,9.628,12.701,,,,,*5D
{"class":"TPV","mode":2,"time":"2007-01-07T08:42:29.520Z","leapseconds":14,"ept":0.005,"lat":53.538477399,"lon":-113.498917470,"altHAE":660.387,"altMSL":679.247,"epx":9.628,"epy":12.701,"track":0.0000,"magtrack":13.9355,"magvar":13.9,"speed":0.000,"eps":0.01,"eph":70.803,"sep":73.315}
$GPGGA,084229.52,5332.3086,N,11329.9350,W,1,03,3.73,679.25,M,-18.860,M,,*50
$GPRMC,084229.52,A,5332.3086,N,11329.9350,W,0.0000,0.000,070107,13.9,E*4F
$GPGSA,A,2,19,18,1,11,3,22,9,,,,,,3.9,3.7,1.0*06
$GPGBS,084229.52,9.628,12.701,,,,,*5D
{"class":"TPV","mode":2,"time":"2007-01-07T08:42:29.520Z","leapseconds":14,"ept":0.005,"lat":53.538477399,"lon":-113.498917470,"altHAE":660.387,"altMSL":679.247,"epx":9.628,"epy":12.701,"track":0.0000,"magtrack":13.9355,"magvar":13.9,"speed":0.000,"eps":0.01,"eph":70.803,"sep":73.315}
$GPZDA,085909.52,07,01,2007,00,00*6F
$GPGGA,085909.52,5332.3086,N,11329.9350,W,1,03,3.73,679.25,M,-18.860,M,,*58
$GPRMC,085909.52,A,5332.3086,N,11329.9350,W,0.0000,0.000,070107,13.9,E*47
$GPGSA,A,2,19,18,1,11,3,22,9,,,,,,3.9,3.7,1.0*06
$GPGBS,085909.52,9.628,12.701,,,,,*55
{"class":"TPV","mode":2,"time":"2007-01-07T08:59:09.520Z","leapseconds":14,"ept":0.005,"lat":53.538477148,"lon":-113.498917387,"altHAE":660.390,"altMSL":679.250,"epx":9.628,"epy":12.701,"track":0.0000,"magtrack":13.9355,"magvar":13.9,"speed":0.000,"eps":0.03,"eph":70.820,"sep":73.331}
$GPZDA,091549.52,07,01,2007,00,00*62
$GPGGA,091549.52,5332.3086,N,11329.9350,W,1,03,3.73,679.25,M,-18.860,M,,*55
$GPRMC,091549.52,A,5332.3086,N,11329.9350,W,0.0000,0.000,070107,13.9,E*4A
$GPGSA,A,2,19,18,1,11,3,22,9,,,,,,3.9,3.7,1.0*06
$GPGBS,091549.52,9.628,12.701,,,,,*58
{"class":"TPV","mode":2,"time":"2007-01-07T09:15:49.520Z","leapseconds":14,"ept":0.005,"lat":53.538476980,"lon":-113.498917303,"altHAE":660.393,"altMSL":679.253,"epx":9.628,"epy":12.701,"track":0.0000,"magtrack":13.9355,"magvar":13.9,"speed":0.000,"eps":0.03,"eph":70.820,"sep":73.331}
$GPZDA,093229.52,07,01,2007,00,00*61
$GPGGA,093229.52,5332.3086,N,11329.9350,W,1,03,3.73,679.26,M,-18.860,M,,*55
$GPRMC,093229.52,A,5332.3086,N,11329.9350,W,0.0000,0.000,070107,13.9,E*49
$GPGSA,A,2,19,18,1,11,3,22,9,,,,,,3.9,3.7,1.0*06
$GPGBS,093229.52,9.628,12.701,,,,,*5B
{"class":"TPV","mode":2,"time":"2007-01-07T09:32:29.520Z","leapseconds":14,"ept":0.005,"lat":53.538476812,"lon":-113.498917219,"altHAE":660.396,"altMSL":679.256,"epx":9.628,"epy":12.701,"track":0.0000,"magtrack":13.9355,"magvar":13.9,"speed":0.000,"eps":0.03,"eph":70.820,"sep":73.331}
$GPZDA,094909.52,07,01,2007,00,00*6F
$GPGGA,094909.52,5332.3086,N,11329.9350,W,1,03,3.73,679.26,M,-18.860,M,,*5B
$GPRMC,094909.52,A,5332.3086,N,11329.9350,W,0.0000,0.000,070107,13.9,E*47
$GPGSA,A,2,19,18,1,11,3,22,9,,,,,,3.9,3.7,1.0*06
$GPGBS,094909.52,9.628,12.701,,,,,*55
{"class":"TPV","mode":2,"time":"2007-01-07T09:49:09.520Z","leapseconds":14,"ept":0.005,"lat":53.538476561,"lon":-113.498917135,"altHAE":660.399,"altMSL":679.259,"epx":9.628,"epy":12.701,"track":0.0000,"magtrack":13.9355,"magvar":13.9,"speed":0.000,"eps":0.00,"eph":70.820,"sep":73.331}
$GPGGA,094909.52,5332.3086,N,11329.9350,W,1,03,3.73,679.26,M,-18.860,M,,*5B
$GPRMC,094909.52,A,5332.3086,N,11329.9350,W,0.0000,0.000,070107,13.9,E*47
$GPGSA,A,2,19,18,1,11,3,22,9,,,,,,3.9,3.7,1.0*06
$GPGBS,094909.52,9.628,12.701,,,,,*55
{"class":"TPV","mode":2,"time":"2007-01-07T09:49:09.520Z","leapseconds":14,"ept":0.005,"lat":53.538476561,"lon":-113.498917135,"altHAE":660.399,"altMSL":679.259,"epx":9.628,"epy":12.701,"track":0.0000,"magtrack":13.9355,"magvar":13.9,"speed":0.000,"eps":0.00,"eph":70.820,"sep":73.331}
$GPZDA,100549.52,07,01,2007,00,00*6B
$GPGGA,100549.52,5332.3086,N,11329.9350,W,1,03,3.73,679.26,M,-18.860,M,,*5F
$GPRMC,100549.52,A,5332.3086,N,11329.9350,W,0.0000,0.000,070107,13.9,E*43
$GPGSA,A,2,19,18,1,11,3,22,9,,,,,,3.9,3.7,1.0*06
$GPGBS,100549.52,9.628,12.701,,,,,*51
{"class":"TPV","mode":2,"time":"2007-01-07T10:05:49.520Z","leapseconds":14,"ept":0.005,"lat":53.538476393,"lon":-113.498917135,"altHAE":660.402,"altMSL":679.262,"epx":9.628,"epy":12.701,"track":0.0000,"magtrack":13.9355,"magvar":13.9,"speed":0.000,"eps":0.03,"eph":70.854,"sep":73.363}
$GPGGA,100549.52,5332.3086,N,11329.9350,W,1,03,3.73,679.26,M,-18.860,M,,*5F
$GPRMC,100549.52,A,5332.3086,N,11329.9350,W,0.0000,0.000,070107,13.9,E*43
$GPGSA,A,2,19,18,1,11,3,22,9,,,,,,3.9,3.7,1.0*06
$GPGBS,100549.52,9.628,12.701,,,,,*51
{"class":"TPV","mode":2,"time":"2007-01-07T10:05:49.520Z","leapseconds":14,"ept":0.005,"lat":53.538476393,"lon":-113.498917135,"altHAE":660.402,"altMSL":679.262,"epx":9.628,"epy":12.701,"track":0.0000,"magtrack":13.9355,"magvar":13.9,"speed":0.000,"eps":0.03,"eph":70.854,"sep":73.363}
$GPZDA,102229.52,07,01,2007,00,00*68
$GPGGA,102229.52,5332.3086,N,11329.9350,W,1,03,3.73,679.26,M,-18.860,M,,*5C
$GPRMC,102229.52,A,5332.3086,N,11329.9350,W,0.0000,0.000,070107,13.9,E*40
$GPGSA,A,2,19,18,1,11,3,22,9,,,,,,3.9,3.7,1.0*06
$GPGBS,102229.52,9.628,12.701,,,,,*52
{"class":"TPV","mode":2,"time":"2007-01-07T10:22:29.520Z","leapseconds":14,"ept":0.005,"lat":53.538476142,"lon":-113.498917051,"altHAE":660.405,"altMSL":679.265,"epx":9.628,"epy":12.701,"track":0.0000,"magtrack":13.9355,"magvar":13.9,"speed":0.000,"eps":0.03,"eph":70.854,"sep":73.363}
$GPZDA,103909.52,07,01,2007,00,00*60
$GPGGA,103909.52,5332.3086,N,11329.9350,W,1,03,3.73,679.27,M,-18.860,M,,*55
$GPRMC,103909.52,A,5332.3086,N,11329.9350,W,0.0000,0.000,070107,13.9,E*48
$GPGSA,A,2,19,18,1,11,3,22,9,,,,,,3.9,3.7,1.0*06
$GPGBS,103909.52,9.628,12.701,,,,,*5A
{"class":"TPV","mode":2,"time":"2007-01-07T10:39:09.520Z","leapseconds":14,"ept":0.005,"lat":53.538475974,"lon":-113.498916968,"altHAE":660.407,"altMSL":679.267,"epx":9.628,"epy":12.701,"track":0.0000,"magtrack":13.9355,"magvar":13.9,"speed":0.000,"eps":0.03,"eph":70.854,"sep":73.363}
$GPZDA,105549.52,07,01,2007,00,00*6E
$GPGGA,105549.52,5332.3085,N,11329.9350,W,1,03,3.73,679.27,M,-18.860,M,,*58
$GPRMC,105549.52,A,5332.3085,N,11329.9350,W,0.0000,0.000,070107,13.9,E*45
$GPGSA,A,2,19,18,1,11,3,22,9,,,,,,3.9,3.7,1.0*06
$GPGBS,105549.52,9.628,12.701,,,,,*54
{"class":"TPV","mode":2,"time":"2007-01-07T10:55:49.520Z","leapseconds":14,"ept":0.005,"lat":53.538475723,"lon":-113.498916884,"altHAE":660.410,"altMSL":679.270,"epx":9.628,"epy":12.701,"track":0.0000,"magtrack":13.9355,"magvar":13.9,"speed":0.000,"eps":0.03,"eph":70.854,"sep":73.363}
$GPGGA,065849.43,5332.3085,N,11329.9350,W,1,03,3.73,679.27,M,-18.860,M,,*52
$GPRMC,065849.43,A,5332.3085,N,11329.9350,W,0.0000,0.000,261106,13.9,E*4C
$GPGSA,A,2,19,18,1,11,3,22,9,,,,,,3.9,3.7,1.0*06
$GPGBS,065849.43,9.628,12.701,,,,,*5E
{"class":"TPV","mode":2,"time":"2006-11-26T06:58:49.430Z","leapseconds":14,"ept":0.005,"lat":53.538475723,"lon":-113.498916884,"altHAE":660.410,"altMSL":679.270,"epx":9.628,"epy":12.701,"track":0.0000,"magtrack":13.9355,"magvar":13.9,"speed":0.000,"eps":0.03,"eph":70.854,"sep":73.363}
$GPGSV,2,1,07,19,26,249,27,18,26,096,28,01,30,221,26,11,25,307,26*73
$GPGSV,2,2,07,03,07,225,28,22,64,094,39,09,24,045,37*4A
{"class":"SKY","xdop":0.64,"ydop":0.85,"vdop":1.00,"tdop":2.57,"hdop":3.73,"gdop":4.64,"pdop":3.86,"satellites":[{"PRN":19,"el":25.6,"az":249.2,"ss":27.0,"used":true,"gnssid":0,"svid":19},{"PRN":18,"el":25.7,"az":95.9,"ss":28.0,"used":true,"gnssid":0,"svid":18},{"PRN":1,"el":29.7,"az":221.5,"ss":26.0,"used":true,"gnssid":0,"svid":1},{"PRN":11,"el":24.9,"az":307.0,"ss":26.0,"used":true,"gnssid":0,"svid":11},{"PRN":3,"el":7.4,"az":225.1,"ss":28.0,"used":true,"gnssid":0,"svid":3}]}
$GPZDA,111229.52,07,01,2007,00,00*6A
$GPGGA,111229.52,5332.3085,N,11329.9350,W,1,03,3.73,679.27,M,-18.860,M,,*5C
$GPRMC,111229.52,A,5332.3085,N,11329.9350,W,0.0000,0.000,070107,13.9,E*41
$GPGSA,A,2,19,18,1,11,3,22,9,,,,,,3.9,3.7,1.0*06
$GPGBS,111229.52,9.628,12.701,,,,,*50
{"class":"TPV","mode":2,"time":"2007-01-07T11:12:29.520Z","leapseconds":14,"ept":0.005,"lat":53.538475555,"lon":-113.498916800,"altHAE":660.413,"altMSL":679.273,"epx":9.628,"epy":12.701,"track":0.0000,"magtrack":13.9355,"magvar":13.9,"speed":0.000,"eps":0.00,"eph":70.870,"sep":73.379}
$GPGGA,111229.52,5332.3085,N,11329.9350,W,1,03,3.73,679.27,M,-18.860,M,,*5C
$GPRMC,111229.52,A,5332.3085,N,11329.9350,W,0.0000,0.000,070107,13.9,E*41
$GPGSA,A,2,19,18,1,11,3,22,9,,,,,,3.9,3.7,1.0*06
$GPGBS,111229.52,9.628,12.701,,,,,*50
{"class":"TPV","mode":2,"time":"2007-01-07T11:12:29.520Z","leapseconds":14,"ept":0.005,"lat":53.538475555,"lon":-113.498916800,"altHAE":660.413,"altMSL":679.273,"epx":9.628,"epy":12.701,"track":0.0000,"magtrack":13.9355,"magvar":13.9,"speed":0.000,"eps":0.00,"eph":70.870,"sep":73.379}
$GPZDA,112909.52,07,01,2007,00,00*60
$GPGGA,112909.52,5332.3085,N,11329.9350,W,1,03,3.73,679.28,M,-18.860,M,,*59
$GPRMC,112909.52,A,5332.3085,N,11329.9350,W,0.0000,0.000,070107,13.9,E*4B
$GPGSA,A,2,19,18,1,11,3,22,9,,,,,,3.9,3.7,1.0*06
$GPGBS,112909.52,9.628,12.701,,,,,*5A
{"class":"TPV","mode":2,"time":"2007-01-07T11:29:09.520Z","leapseconds":14,"ept":0.005,"lat":53.538475388,"lon":-113.498916800,"altHAE":660.416,"altMSL":679.276,"epx":9.628,"epy":12.701,"track":0.0000,"magtrack":13.9355,"magvar":13.9,"speed":0.000,"eps":0.03,"eph":70.889,"sep":73.397}
$GPGGA,112909.52,5332.3085,N,11329.9350,W,1,03,3.73,679.28,M,-18.860,M,,*59
$GPRMC,112909.52,A,5332.3085,N,11329.9350,W,0.0000,0.000,070107,13.9,E*4B
$GPGSA,A,2,19,18,1,11,3,22,9,,,,,,3.9,3.7,1.0*06
$GPGBS,112909.52,9.628,12.701,,,,,*5A
{"class":"TPV","mode":2,"time":"2007-01-07T11:29:09.520Z","leapseconds":14,"ept":0.005,"lat":53.538475388,"lon":-113.498916800,"altHAE":660.416,"altMSL":679.276,"epx":9.628,"epy":12.701,"track":0.0000,"magtrack":13.9355,"magvar":13.9,"speed":0.000,"eps":0.03,"eph":70.889,"sep":73.397}
$GPZDA,114549.52,07,01,2007,00,00*6E
$GPGGA,114549.52,5332.3085,N,11329.9350,W,1,03,3.73,679.28,M,-18.860,M,,*57
$GPRMC,114549.52,A,5332.3085,N,11329.9350,W,0.0000,0.000,070107,13.9,E*45
$GPGSA,A,2,19,18,1,11,3,22,9,,,,,,3.9,3.7,1.0*06
$GPGBS,114549.52,9.628,12.701,,,,,*54
{"class":"TPV","mode":2,"time":"2007-01-07T11:45:49.520Z","leapseconds":14,"ept":0.005,"lat":53.538475136,"lon":-113.498916716,"altHAE":660.418,"altMSL":679.278,"epx":9.628,"epy":12.701,"track":0.0000,"magtrack":13.9355,"magvar":13.9,"speed":0.000,"eps":0.03,"eph":70.889,"sep":73.397}
$GPGGA,114549.52,5332.3085,N,11329.9350,W,1,03,3.73,679.28,M,-18.860,M,,*57
$GPRMC,114549.52,A,5332.3085,N,11329.9350,W,0.0000,0.000,070107,13.9,E*45
$GPGSA,A,2,19,18,1,11,3,22,9,,,,,,3.9,3.7,1.0*06
$GPGBS,114549.52,9.628,12.701,,,,,*54
{"class":"TPV","mode":2,"time":"2007-01-07T11:45:49.520Z","leapseconds":14,"ept":0.005,"lat":53.538475136,"lon":-113.498916716,"altHAE":660.418,"altMSL":679.278,"epx":9.628,"epy":12.701,"track":0.0000,"magtrack":13.9355,"magvar":13.9,"speed":0.000,"eps":0.03,"eph":70.889,"sep":73.397}
$GPZDA,120229.52,07,01,2007,00,00*68
$GPGGA,120229.52,5332.3085,N,11329.9350,W,1,03,3.73,679.28,M,-18.860,M,,*51
$GPRMC,120229.52,A,5332.3085,N,11329.9350,W,0.0000,0.000,070107,13.9,E*43
$GPGSA,A,2,19,18,1,11,3,22,9,,,,,,3.9,3.7,1.0*06
$GPGBS,120229.52,9.628,12.701,,,,,*52
{"class":"TPV","mode":2,"time":"2007-01-07T12:02:29.520Z","leapseconds":14,"ept":0.005,"lat":53.538474968,"lon":-113.498916632,"altHAE":660.421,"altMSL":679.281,"epx":9.628,"epy":12.701,"track":0.0000,"magtrack":13.9355,"magvar":13.9,"speed":0.000,"eps":0.03,"eph":70.905,"sep":73.413}
$GPGGA,120229.52,5332.3085,N,11329.9350,W,1,03,3.73,679.28,M,-18.860,M,,*51
$GPRMC,120229.52,A,5332.3085,N,11329.9350,W,0.0000,0.000,070107,13.9,E*43
$GPGSA,A,2,19,18,1,11,3,22,9,,,,,,3.9,3.7,1.0*06
$GPGBS,120229.52,9.628,12.701,,,,,*52
{"class":"TPV","mode":2,"time":"2007-01-07T12:02:29.520Z","leapseconds":14,"ept":0.005,"lat":53.538474968,"lon":-113.498916632,"altHAE":660.421,"altMSL":679.281,"epx":9.628,"epy":12.701,"track":0.0000,"magtrack":13.9355,"magvar":13.9,"speed":0.000,"eps":0.03,"eph":70.905,"sep":73.413}
$GPZDA,121909.52,07,01,2007,00,00*60
$GPGGA,121909.52,5332.3085,N,11329.9350,W,1,03,3.73,679.28,M,-18.860,M,,*59
$GPRMC,121909.52,A,5332.3085,N,11329.9350,W,0.0000,0.000,070107,13.9,E*4B
$GPGSA,A,2,19,18,1,11,3,22,9,,,,,,3.9,3.7,1.0*06
$GPGBS,121909.52,9.628,12.701,,,,,*5A
{"class":"TPV","mode":2,"time":"2007-01-07T12:19:09.520Z","leapseconds":14,"ept":0.005,"lat":53.538474717,"lon":-113.498916548,"altHAE":660.424,"altMSL":679.284,"epx":9.628,"epy":12.701,"track":0.0000,"magtrack":13.9355,"magvar":13.9,"speed":0.000,"eps":0.03,"eph":70.905,"sep":73.413}
$GPGGA,121909.52,5332.3085,N,11329.9350,W,1,02,0.00,679.28,M,-18.860,M,,*5F
$GPRMC,121909.52,A,5332.3085,N,11329.9350,W,0.0000,0.000,070107,13.9,E*4B
$GPGSA,A,2,19,18,1,11,3,22,9,,,,,,0.0,0.0,0.0*09
$GPGBS,121909.52,9.628,12.701,,,,,*5A
{"class":"TPV","mode":2,"time":"2007-01-07T12:19:09.520Z","leapseconds":14,"ept":0.005,"lat":53.538474717,"lon":-113.498916548,"altHAE":660.424,"altMSL":679.284,"epx":9.628,"epy":12.701,"track":0.0000,"magtrack":13.9355,"magvar":13.9,"speed":0.000,"eps":0.03,"eph":70.905,"sep":73.413}
