$GPRMC,,V,2037.7075,N,08704.0535,W,,,,,*13
{"class":"TPV","mode":0}
$GPRMC,,V,2037.7075,N,08704.0535,W,,,,,*13
{"class":"TPV","mode":0}
$GPRMC,,V,2037.7075,N,08704.0535,W,,,,,*13
{"class":"TPV","mode":0}
$GPRMC,,V,2037.7075,N,08704.0535,W,,,,,*13
{"class":"TPV","mode":0}
$GPRMC,040938.00,A,2037.7075,N,08704.0535,W,,,221206,,*29
{"class":"TPV","mode":0,"time":"2006-12-22T04:09:38.000Z","leapseconds":14,"ept":0.005}
$GPRMC,040939.00,A,2037.7075,N,08704.0535,W,,,221206,,*28
{"class":"TPV","mode":0,"time":"2006-12-22T04:09:39.000Z","leapseconds":14,"ept":0.005}
$GPRMC,040940.00,A,2037.7075,N,08704.0535,W,,,221206,,*26
{"class":"TPV","mode":0,"time":"2006-12-22T04:09:40.000Z","leapseconds":14,"ept":0.005}
$GPRMC,040941.00,A,2037.7075,N,08704.0535,W,,,221206,,*27
{"class":"TPV","mode":0,"time":"2006-12-22T04:09:41.000Z","leapseconds":14,"ept":0.005}
$GPRMC,040942.00,A,2037.7075,N,08704.0535,W,,,221206,,*24
{"class":"TPV","mode":0,"time":"2006-12-22T04:09:42.000Z","leapseconds":14,"ept":0.005}
$GPRMC,040943.00,A,2037.7075,N,08704.0535,W,,,221206,,*25
{"class":"TPV","mode":0,"time":"2006-12-22T04:09:43.000Z","leapseconds":14,"ept":0.005}
$GPRMC,040944.00,A,2037.7075,N,08704.0535,W,,,221206,,*22
{"class":"TPV","mode":0,"time":"2006-12-22T04:09:44.000Z","leapseconds":14,"ept":0.005}
$GPRMC,040945.00,A,2037.7075,N,08704.0535,W,,,221206,,*23
{"class":"TPV","mode":0,"time":"2006-12-22T04:09:45.000Z","leapseconds":14,"ept":0.005}
$GPRMC,040946.00,A,2037.7075,N,08704.0535,W,,,221206,,*20
{"class":"TPV","mode":0,"time":"2006-12-22T04:09:46.000Z","leapseconds":14,"ept":0.005}
$GPRMC,040947.00,A,2037.7076,N,08704.0535,W,,,221206,,*22
{"class":"TPV","mode":0,"time":"2006-12-22T04:09:47.000Z","leapseconds":14,"ept":0.005}
$GPRMC,040948.00,A,2037.7076,N,08704.0535,W,,,221206,,*2D
{"class":"TPV","mode":0,"time":"2006-12-22T04:09:48.000Z","leapseconds":14,"ept":0.005}
$GPRMC,040949.00,A,2037.7076,N,08704.0535,W,,,221206,,*2C
{"class":"TPV","mode":0,"time":"2006-12-22T04:09:49.000Z","leapseconds":14,"ept":0.005}
$GPRMC,040950.00,A,2037.7077,N,08704.0534,W,,,221206,,*24
{"class":"TPV","mode":0,"time":"2006-12-22T04:09:50.000Z","leapseconds":14,"ept":0.005}
$GPRMC,040951.00,A,2037.7077,N,08704.0534,W,,,221206,,*25
{"class":"TPV","mode":0,"time":"2006-12-22T04:09:51.000Z","leapseconds":14,"ept":0.005}
$GPRMC,040952.00,A,2037.7076,N,08704.0535,W,,,221206,,*26
{"class":"TPV","mode":0,"time":"2006-12-22T04:09:52.000Z","leapseconds":14,"ept":0.005}
$GPRMC,040953.00,A,2037.7059,N,08704.0550,W,,,221206,,*29
{"class":"TPV","mode":0,"time":"2006-12-22T04:09:53.000Z","leapseconds":14,"ept":0.005}
$GPRMC,040954.00,A,2037.7053,N,08704.0556,W,,,221206,,*22
{"class":"TPV","mode":0,"time":"2006-12-22T04:09:54.000Z","leapseconds":14,"ept":0.005}
$GPRMC,040955.00,A,2037.7051,N,08704.0558,W,,,221206,,*2F
{"class":"TPV","mode":0,"time":"2006-12-22T04:09:55.000Z","leapseconds":14,"ept":0.005}
$GPRMC,040956.00,A,2037.7049,N,08704.0559,W,,,221206,,*24
{"class":"TPV","mode":0,"time":"2006-12-22T04:09:56.000Z","leapseconds":14,"ept":0.005}
$GPRMC,040957.00,A,2037.7048,N,08704.0560,W,,,221206,,*2E
{"class":"TPV","mode":0,"time":"2006-12-22T04:09:57.000Z","leapseconds":14,"ept":0.005}
$GPRMC,040958.00,A,2037.7047,N,08704.0561,W,,,221206,,*2F
{"class":"TPV","mode":0,"time":"2006-12-22T04:09:58.000Z","leapseconds":14,"ept":0.005}
$GPRMC,040959.00,A,2037.7047,N,08704.0561,W,,,221206,,*2E
{"class":"TPV","mode":0,"time":"2006-12-22T04:09:59.000Z","leapseconds":14,"ept":0.005}
$GPRMC,041000.00,A,2037.7046,N,08704.0562,W,,,221206,,*28
{"class":"TPV","mode":0,"time":"2006-12-22T04:10:00.000Z","leapseconds":14,"ept":0.005}
$GPRMC,041001.00,A,2037.7046,N,08704.0562,W,,,221206,,*29
{"class":"TPV","mode":0,"time":"2006-12-22T04:10:01.000Z","leapseconds":14,"ept":0.005}
$GPRMC,041002.00,A,2037.7046,N,08704.0562,W,,,221206,,*2A
{"class":"TPV","mode":0,"time":"2006-12-22T04:10:02.000Z","leapseconds":14,"ept":0.005}
$GPRMC,041003.00,A,2037.7046,N,08704.0563,W,,,221206,,*2A
{"class":"TPV","mode":0,"time":"2006-12-22T04:10:03.000Z","leapseconds":14,"ept":0.005}
$GPRMC,041004.00,A,2037.7046,N,08704.0563,W,,,221206,,*2D
{"class":"TPV","mode":0,"time":"2006-12-22T04:10:04.000Z","leapseconds":14,"ept":0.005}
$GPRMC,041005.00,A,2037.7046,N,08704.0563,W,,,221206,,*2C
{"class":"TPV","mode":0,"time":"2006-12-22T04:10:05.000Z","leapseconds":14,"ept":0.005}
$GPRMC,041006.00,A,2037.7046,N,08704.0563,W,,,221206,,*2F
{"class":"TPV","mode":0,"time":"2006-12-22T04:10:06.000Z","leapseconds":14,"ept":0.005}
$GPRMC,041007.00,A,2037.7046,N,08704.0562,W,,,221206,,*2F
{"class":"TPV","mode":0,"time":"2006-12-22T04:10:07.000Z","leapseconds":14,"ept":0.005}
$GPRMC,041008.00,A,2037.7054,N,08704.0557,W,,,221206,,*25
{"class":"TPV","mode":0,"time":"2006-12-22T04:10:08.000Z","leapseconds":14,"ept":0.005}
$GPRMC,041009.00,A,2037.7055,N,08704.0557,W,,,221206,,*25
{"class":"TPV","mode":0,"time":"2006-12-22T04:10:09.000Z","leapseconds":14,"ept":0.005}
$GPRMC,041010.00,A,2037.7055,N,08704.0556,W,,,221206,,*2C
{"class":"TPV","mode":0,"time":"2006-12-22T04:10:10.000Z","leapseconds":14,"ept":0.005}
$GPRMC,041011.00,A,2037.7056,N,08704.0556,W,,,221206,,*2E
{"class":"TPV","mode":0,"time":"2006-12-22T04:10:11.000Z","leapseconds":14,"ept":0.005}
$GPRMC,041012.00,A,2037.7057,N,08704.0555,W,,,221206,,*2F
{"class":"TPV","mode":0,"time":"2006-12-22T04:10:12.000Z","leapseconds":14,"ept":0.005}
$GPRMC,041013.00,A,2037.7058,N,08704.0555,W,,,221206,,*21
{"class":"TPV","mode":0,"time":"2006-12-22T04:10:13.000Z","leapseconds":14,"ept":0.005}
