$GPRMC,,V,,S,,W,,,,,*35
$GPGSA,A,1,,,,,,,,,,,,,,,,*32
{"class":"TPV","mode":1}
$GPRMC,012419.63,V,,S,,W,,,261106,,*13
$GPGSA,A,1,,,,,,,,,,,,,,,,*32
{"class":"TPV","mode":1,"time":"2006-11-26T01:24:19.630Z","leapseconds":14,"ept":0.005}
$GPRMC,012419.63,V,,S,,W,,,261106,,*13
$GPGSA,A,1,6,29,2,21,30,10,7,,,,,,,,,*0B
{"class":"TPV","mode":1,"time":"2006-11-26T01:24:19.630Z","leapseconds":14,"ept":0.005}
$GPRMC,012419.63,V,,S,,W,,,261106,,*13
$GPGSA,A,1,6,29,2,21,30,10,7,,,,,,,,,*0B
{"class":"TPV","mode":1,"time":"2006-11-26T01:24:19.630Z","leapseconds":14,"ept":0.005}
$GPRMC,012424.46,V,,S,,W,,,261106,,*1A
$GPGSA,A,1,6,29,2,21,30,10,7,,,,,,,,,*0B
{"class":"TPV","mode":1,"time":"2006-11-26T01:24:24.463Z","leapseconds":14,"ept":0.005}
$GPRMC,012424.46,V,,S,,W,,,261106,,*1A
$GPGSA,A,1,6,29,2,21,30,10,7,,,,,,,,,*0B
{"class":"TPV","mode":1,"time":"2006-11-26T01:24:24.463Z","leapseconds":14,"ept":0.005}
$GPGSV,3,1,09,26,06,138,00,24,14,077,34,06,77,232,26,29,14,126,29*7F
$GPGSV,3,2,09,02,16,079,38,21,35,257,26,30,22,204,32,10,54,073,41*75
$GPGSV,3,3,09,07,40,297,29*44
{"class":"SKY","time":"2006-11-26T01:24:25.621Z","xdop":0.62,"ydop":0.98,"vdop":2.72,"tdop":2.15,"hdop":2.55,"gdop":4.30,"pdop":3.73,"satellites":[{"PRN":26,"el":5.8,"az":138.0,"ss":0.0,"used":false,"gnssid":0,"svid":26},{"PRN":24,"el":13.9,"az":76.7,"ss":34.0,"used":true,"gnssid":0,"svid":24},{"PRN":6,"el":77.3,"az":232.2,"ss":26.0,"used":true,"gnssid":0,"svid":6},{"PRN":29,"el":14.4,"az":126.4,"ss":29.0,"used":true,"gnssid":0,"svid":29},{"PRN":2,"el":16.3,"az":79.4,"ss":38.0,"used":true,"gnssid":0,"svid":2},{"PRN":21,"el":34.8,"az":257.3,"ss":26.0,"used":true,"gnssid":0,"svid":21}]}
$GPRMC,012424.46,V,,S,,W,,,261106,,*1A
$GPGSA,A,1,24,6,29,2,21,30,10,7,,,,,,,,*0D
{"class":"TPV","mode":1,"time":"2006-11-26T01:24:24.463Z","leapseconds":14,"ept":0.005}
$GPRMC,012424.46,V,,S,,W,,,261106,,*1A
$GPGSA,A,1,24,6,29,2,21,30,10,7,,,,,,,,*0D
{"class":"TPV","mode":1,"time":"2006-11-26T01:24:24.463Z","leapseconds":14,"ept":0.005}
$GPRMC,012424.46,V,,S,,W,,,261106,,*1A
$GPGSA,A,1,24,6,29,2,21,30,10,7,,,,,,,,*0D
{"class":"TPV","mode":1,"time":"2006-11-26T01:24:24.463Z","leapseconds":14,"ept":0.005}
$GPGSV,3,1,09,26,06,138,00,24,14,077,32,06,77,232,26,29,14,126,28*78
$GPGSV,3,2,09,02,16,079,38,21,35,257,26,30,22,204,32,10,54,072,42*77
$GPGSV,3,3,09,07,40,297,29*44
{"class":"SKY","time":"2006-11-26T01:24:33.572Z","xdop":0.62,"ydop":0.98,"vdop":2.72,"tdop":2.14,"hdop":2.55,"gdop":4.30,"pdop":3.73,"satellites":[{"PRN":26,"el":5.8,"az":138.0,"ss":0.0,"used":false,"gnssid":0,"svid":26},{"PRN":24,"el":13.9,"az":76.7,"ss":32.0,"used":true,"gnssid":0,"svid":24},{"PRN":6,"el":77.3,"az":231.9,"ss":26.0,"used":true,"gnssid":0,"svid":6},{"PRN":29,"el":14.5,"az":126.4,"ss":28.0,"used":true,"gnssid":0,"svid":29},{"PRN":2,"el":16.2,"az":79.4,"ss":38.0,"used":true,"gnssid":0,"svid":2},{"PRN":21,"el":34.9,"az":257.3,"ss":26.0,"used":true,"gnssid":0,"svid":21}]}
$GPRMC,012434.49,V,,S,,W,,,261106,,*14
$GPGSA,A,1,24,6,29,2,21,30,10,7,,,,,,,,*0D
{"class":"TPV","mode":1,"time":"2006-11-26T01:24:34.491Z","leapseconds":14,"ept":0.005}
$GPRMC,012434.49,V,,S,,W,,,261106,,*14
$GPGSA,A,1,24,6,29,2,21,30,10,7,,,,,,,,*0D
{"class":"TPV","mode":1,"time":"2006-11-26T01:24:34.491Z","leapseconds":14,"ept":0.005}
$GPRMC,012434.49,V,,S,,W,,,261106,,*14
$GPGSA,A,1,24,6,29,2,21,30,10,7,,,,,,,,*0D
{"class":"TPV","mode":1,"time":"2006-11-26T01:24:34.491Z","leapseconds":14,"ept":0.005}
$GPGSV,3,1,09,26,06,138,00,24,14,077,33,06,77,232,26,29,15,126,27*77
$GPGSV,3,2,09,02,16,079,37,21,35,257,26,30,22,204,30,10,54,072,42*7A
$GPGSV,3,3,09,07,40,297,29*44
{"class":"SKY","time":"2006-11-26T01:24:38.589Z","xdop":0.62,"ydop":0.98,"vdop":2.72,"tdop":2.14,"hdop":2.55,"gdop":4.30,"pdop":3.73,"satellites":[{"PRN":26,"el":5.8,"az":138.0,"ss":0.0,"used":false,"gnssid":0,"svid":26},{"PRN":24,"el":13.8,"az":76.7,"ss":33.0,"used":true,"gnssid":0,"svid":24},{"PRN":6,"el":77.3,"az":231.8,"ss":26.0,"used":true,"gnssid":0,"svid":6},{"PRN":29,"el":14.5,"az":126.4,"ss":27.0,"used":true,"gnssid":0,"svid":29},{"PRN":2,"el":16.2,"az":79.4,"ss":37.0,"used":true,"gnssid":0,"svid":2},{"PRN":21,"el":34.9,"az":257.3,"ss":26.0,"used":true,"gnssid":0,"svid":21}]}
$GPRMC,012444.46,V,,S,,W,,,261106,,*1C
$GPGSA,A,1,24,6,29,2,21,30,10,7,,,,,,,,*0D
{"class":"TPV","mode":1,"time":"2006-11-26T01:24:44.461Z","leapseconds":14,"ept":0.005}
$GPRMC,012444.46,V,,S,,W,,,261106,,*1C
$GPGSA,A,1,24,6,29,2,21,30,10,7,,,,,,,,*0D
{"class":"TPV","mode":1,"time":"2006-11-26T01:24:44.461Z","leapseconds":14,"ept":0.005}
$GPGSV,3,1,09,26,06,138,00,24,14,077,33,06,77,232,26,29,15,126,28*78
$GPGSV,3,2,09,02,16,079,37,21,35,257,26,30,22,204,32,10,54,072,42*78
$GPGSV,3,3,09,07,40,297,29*44
{"class":"SKY","time":"2006-11-26T01:24:44.560Z","xdop":0.62,"ydop":0.98,"vdop":2.72,"tdop":2.14,"hdop":2.55,"gdop":4.29,"pdop":3.72,"satellites":[{"PRN":26,"el":5.8,"az":138.0,"ss":0.0,"used":false,"gnssid":0,"svid":26},{"PRN":24,"el":13.8,"az":76.7,"ss":33.0,"used":true,"gnssid":0,"svid":24},{"PRN":6,"el":77.3,"az":231.6,"ss":26.0,"used":true,"gnssid":0,"svid":6},{"PRN":29,"el":14.6,"az":126.3,"ss":28.0,"used":true,"gnssid":0,"svid":29},{"PRN":2,"el":16.1,"az":79.4,"ss":37.0,"used":true,"gnssid":0,"svid":2},{"PRN":21,"el":35.0,"az":257.3,"ss":26.0,"used":true,"gnssid":0,"svid":21}]}
$GPZDA,012446.00,26,11,2006,00,00*63
$GPGGA,012446.00,5332.2649,N,11329.5955,W,1,04,2.55,957.60,M,-18.865,M,,*55
$GPRMC,012446.00,A,5332.2649,N,11329.5955,W,0.0000,0.000,261106,13.9,E*4C
$GPGSA,A,2,24,6,29,2,21,30,10,7,,,,,3.7,2.5,2.7*0A
$GPGBS,012446.00,9.338,14.739,,,,,*53
{"class":"TPV","mode":2,"time":"2006-11-26T01:24:46.000Z","leapseconds":14,"ept":0.005,"lat":53.537748090,"lon":-113.493257926,"altHAE":938.735,"altMSL":957.600,"epx":9.338,"epy":14.739,"track":0.0000,"magtrack":13.9327,"magvar":13.9,"speed":0.000,"eph":48.385,"sep":70.763}
$GPZDA,012447.00,26,11,2006,00,00*62
$GPGGA,012447.00,5332.2652,N,11329.5949,W,1,04,2.55,958.50,M,-18.865,M,,*5F
$GPRMC,012447.00,A,5332.2652,N,11329.5949,W,0.0000,0.000,261106,13.9,E*4A
$GPGSA,A,2,24,6,29,2,21,30,10,7,,,,,3.7,2.5,2.7*0A
$GPGBS,012447.00,9.338,14.739,,,,,*52
{"class":"TPV","mode":2,"time":"2006-11-26T01:24:47.000Z","leapseconds":14,"ept":0.005,"lat":53.537752616,"lon":-113.493247951,"altHAE":939.632,"altMSL":958.497,"epx":9.338,"epy":14.739,"track":0.0000,"magtrack":13.9327,"magvar":13.9,"speed":0.000,"eps":29.48,"eph":48.385,"sep":70.763}
$GPGGA,012447.00,5332.2652,N,11329.5949,W,1,04,5.26,958.50,M,-18.865,M,,*5C
$GPRMC,012447.00,A,5332.2652,N,11329.5949,W,0.0000,0.000,261106,13.9,E*4A
$GPGSA,A,2,24,6,29,2,21,30,10,7,,,,,5.3,5.3,0.0*0C
$GPGBS,012447.00,9.338,14.739,,,,,*52
{"class":"TPV","mode":2,"time":"2006-11-26T01:24:47.000Z","leapseconds":14,"ept":0.005,"lat":53.537752616,"lon":-113.493247951,"altHAE":939.632,"altMSL":958.497,"epx":9.338,"epy":14.739,"track":0.0000,"magtrack":13.9327,"magvar":13.9,"speed":0.000,"eps":29.48,"eph":48.385,"sep":70.763}
$GPZDA,012448.00,26,11,2006,00,00*6D
$GPGGA,012448.00,5332.2654,N,11329.5943,W,1,04,5.26,959.39,M,-18.865,M,,*51
$GPRMC,012448.00,A,5332.2654,N,11329.5943,W,0.0000,0.000,261106,13.9,E*49
$GPGSA,A,2,24,6,29,2,21,30,10,7,,,,,5.3,5.3,0.0*0C
$GPGBS,012448.00,9.338,14.739,,,,,*5D
{"class":"TPV","mode":2,"time":"2006-11-26T01:24:48.000Z","leapseconds":14,"ept":0.005,"lat":53.537757142,"lon":-113.493238060,"altHAE":940.529,"altMSL":959.394,"epx":9.338,"epy":14.739,"track":0.0000,"magtrack":13.9327,"magvar":13.9,"speed":0.000,"eps":29.48,"eph":99.987,"sep":99.989}
$GPGGA,012448.00,5332.2654,N,11329.5943,W,1,04,5.26,959.39,M,-18.865,M,,*51
$GPRMC,012448.00,A,5332.2654,N,11329.5943,W,0.0000,0.000,261106,13.9,E*49
$GPGSA,A,2,24,6,29,2,21,30,10,7,,,,,5.3,5.3,0.0*0C
$GPGBS,012448.00,9.338,14.739,,,,,*5D
{"class":"TPV","mode":2,"time":"2006-11-26T01:24:48.000Z","leapseconds":14,"ept":0.005,"lat":53.537757142,"lon":-113.493238060,"altHAE":940.529,"altMSL":959.394,"epx":9.338,"epy":14.739,"track":0.0000,"magtrack":13.9327,"magvar":13.9,"speed":0.000,"eps":29.48,"eph":99.987,"sep":99.989}
$GPZDA,012449.00,26,11,2006,00,00*6C
$GPGGA,012449.00,5332.2657,N,11329.5937,W,1,04,5.26,960.23,M,-18.865,M,,*51
$GPRMC,012449.00,A,5332.2657,N,11329.5937,W,0.0000,0.000,261106,13.9,E*48
$GPGSA,A,2,24,6,29,2,21,30,10,7,,,,,5.3,5.3,0.0*0C
$GPGBS,012449.00,9.338,14.739,,,,,*5C
{"class":"TPV","mode":2,"time":"2006-11-26T01:24:49.000Z","leapseconds":14,"ept":0.005,"lat":53.537761333,"lon":-113.493228840,"altHAE":941.370,"altMSL":960.235,"epx":9.338,"epy":14.739,"track":0.0000,"magtrack":13.9326,"magvar":13.9,"speed":0.000,"eps":29.48,"eph":99.907,"sep":99.909}
$GPGGA,012449.00,5332.2657,N,11329.5937,W,1,04,5.26,960.23,M,-18.865,M,,*51
$GPRMC,012449.00,A,5332.2657,N,11329.5937,W,0.0000,0.000,261106,13.9,E*48
$GPGSA,A,2,24,6,29,2,21,30,10,7,,,,,5.3,5.3,0.0*0C
$GPGBS,012449.00,9.338,14.739,,,,,*5C
{"class":"TPV","mode":2,"time":"2006-11-26T01:24:49.000Z","leapseconds":14,"ept":0.005,"lat":53.537761333,"lon":-113.493228840,"altHAE":941.370,"altMSL":960.235,"epx":9.338,"epy":14.739,"track":0.0000,"magtrack":13.9326,"magvar":13.9,"speed":0.000,"eps":29.48,"eph":99.907,"sep":99.909}
$GPGSV,3,1,09,26,06,138,00,24,14,077,30,06,77,231,26,29,15,126,27*77
$GPGSV,3,2,09,02,16,079,37,21,35,257,26,30,22,204,33,10,54,072,42*79
$GPGSV,3,3,09,07,40,297,29*44
{"class":"SKY","time":"2006-11-26T01:24:49.531Z","xdop":0.62,"ydop":0.98,"vdop":0.04,"tdop":2.07,"hdop":5.26,"gdop":5.65,"pdop":5.26,"satellites":[{"PRN":26,"el":5.8,"az":138.0,"ss":0.0,"used":false,"gnssid":0,"svid":26},{"PRN":24,"el":13.8,"az":76.7,"ss":30.0,"used":true,"gnssid":0,"svid":24},{"PRN":6,"el":77.3,"az":231.4,"ss":26.0,"used":true,"gnssid":0,"svid":6},{"PRN":29,"el":14.6,"az":126.3,"ss":27.0,"used":true,"gnssid":0,"svid":29},{"PRN":2,"el":16.1,"az":79.5,"ss":37.0,"used":true,"gnssid":0,"svid":2},{"PRN":21,"el":35.0,"az":257.4,"ss":26.0,"used":true,"gnssid":0,"svid":21}]}
$GPZDA,012450.00,26,11,2006,00,00*64
$GPGGA,012450.00,5332.2659,N,11329.5932,W,1,04,5.26,961.02,M,-18.865,M,,*50
$GPRMC,012450.00,A,5332.2659,N,11329.5932,W,0.0000,0.000,261106,13.9,E*4B
$GPGSA,A,2,24,6,29,2,21,30,10,7,,,,,5.3,5.3,0.0*0C
$GPGBS,012450.00,9.338,14.739,,,,,*54
{"class":"TPV","mode":2,"time":"2006-11-26T01:24:50.000Z","leapseconds":14,"ept":0.005,"lat":53.537765356,"lon":-113.493220207,"altHAE":942.159,"altMSL":961.024,"epx":9.338,"epy":14.739,"track":0.0000,"magtrack":13.9326,"magvar":13.9,"speed":0.000,"eps":29.48,"eph":99.907,"sep":99.909}
$GPGGA,012450.00,5332.2659,N,11329.5932,W,1,04,5.25,961.02,M,-18.865,M,,*53
$GPRMC,012450.00,A,5332.2659,N,11329.5932,W,0.0000,0.000,261106,13.9,E*4B
$GPGSA,A,2,24,6,29,2,21,30,10,7,,,,,5.3,5.3,0.0*0C
$GPGBS,012450.00,9.338,14.739,,,,,*54
{"class":"TPV","mode":2,"time":"2006-11-26T01:24:50.000Z","leapseconds":14,"ept":0.005,"lat":53.537765356,"lon":-113.493220207,"altHAE":942.159,"altMSL":961.024,"epx":9.338,"epy":14.739,"track":0.0000,"magtrack":13.9326,"magvar":13.9,"speed":0.000,"eps":29.48,"eph":99.907,"sep":99.909}
$GPZDA,012451.00,26,11,2006,00,00*65
$GPGGA,012451.00,5332.2662,N,11329.5927,W,1,04,5.25,961.76,M,-18.865,M,,*5D
$GPRMC,012451.00,A,5332.2662,N,11329.5927,W,0.0000,0.000,261106,13.9,E*46
$GPGSA,A,2,24,6,29,2,21,30,10,7,,,,,5.3,5.3,0.0*0C
$GPGBS,012451.00,9.338,14.739,,,,,*55
{"class":"TPV","mode":2,"time":"2006-11-26T01:24:51.000Z","leapseconds":14,"ept":0.005,"lat":53.537769212,"lon":-113.493212244,"altHAE":942.898,"altMSL":961.763,"epx":9.338,"epy":14.739,"track":0.0000,"magtrack":13.9326,"magvar":13.9,"speed":0.000,"eps":29.48,"eph":99.753,"sep":99.755}
$GPGGA,012451.00,5332.2662,N,11329.5927,W,1,04,5.25,961.76,M,-18.865,M,,*5D
$GPRMC,012451.00,A,5332.2662,N,11329.5927,W,0.0000,0.000,261106,13.9,E*46
$GPGSA,A,2,24,6,29,2,21,30,10,7,,,,,5.3,5.3,0.0*0C
$GPGBS,012451.00,9.338,14.739,,,,,*55
{"class":"TPV","mode":2,"time":"2006-11-26T01:24:51.000Z","leapseconds":14,"ept":0.005,"lat":53.537769212,"lon":-113.493212244,"altHAE":942.898,"altMSL":961.763,"epx":9.338,"epy":14.739,"track":0.0000,"magtrack":13.9326,"magvar":13.9,"speed":0.000,"eps":29.48,"eph":99.753,"sep":99.755}
$GPZDA,012452.00,26,11,2006,00,00*66
$GPGGA,012452.00,5332.2664,N,11329.5923,W,1,04,5.25,962.42,M,-18.865,M,,*58
$GPRMC,012452.00,A,5332.2664,N,11329.5923,W,0.0000,0.000,261106,13.9,E*47
$GPGSA,A,2,24,6,29,2,21,30,10,7,,,,,5.3,5.3,0.0*0C
$GPGBS,012452.00,9.338,14.739,,,,,*56
{"class":"TPV","mode":2,"time":"2006-11-26T01:24:52.000Z","leapseconds":14,"ept":0.005,"lat":53.537772733,"lon":-113.493205287,"altHAE":943.551,"altMSL":962.416,"epx":9.338,"epy":14.739,"track":0.0000,"magtrack":13.9326,"magvar":13.9,"speed":0.000,"eps":29.48,"eph":99.753,"sep":99.755}
$GPZDA,012453.00,26,11,2006,00,00*67
$GPGGA,012453.00,5332.2666,N,11329.5919,W,1,04,5.25,963.07,M,-18.865,M,,*52
$GPRMC,012453.00,A,5332.2666,N,11329.5919,W,0.0000,0.000,261106,13.9,E*4D
$GPGSA,A,2,24,6,29,2,21,30,10,7,,,,,5.3,5.3,0.0*0C
$GPGBS,012453.00,9.338,14.739,,,,,*57
{"class":"TPV","mode":2,"time":"2006-11-26T01:24:53.000Z","leapseconds":14,"ept":0.005,"lat":53.537776337,"lon":-113.493198330,"altHAE":944.203,"altMSL":963.068,"epx":9.338,"epy":14.739,"track":0.0000,"magtrack":13.9326,"magvar":13.9,"speed":0.000,"eps":29.48,"eph":99.753,"sep":99.755}
$GPZDA,012454.00,26,11,2006,00,00*60
$GPGGA,012454.00,5332.2668,N,11329.5915,W,1,04,5.25,963.64,M,-18.865,M,,*52
$GPRMC,012454.00,A,5332.2668,N,11329.5915,W,0.0000,0.000,261106,13.9,E*48
$GPGSA,A,2,24,6,29,2,21,30,10,7,,,,,5.3,5.3,0.0*0C
$GPGBS,012454.00,9.338,14.739,,,,,*50
{"class":"TPV","mode":2,"time":"2006-11-26T01:24:54.000Z","leapseconds":14,"ept":0.005,"lat":53.537779522,"lon":-113.493192295,"altHAE":944.779,"altMSL":963.644,"epx":9.338,"epy":14.739,"track":0.0000,"magtrack":13.9326,"magvar":13.9,"speed":0.000,"eps":29.48,"eph":99.753,"sep":99.755}
$GPGGA,012454.00,5332.2668,N,11329.5915,W,1,04,5.24,963.64,M,-18.865,M,,*53
$GPRMC,012454.00,A,5332.2668,N,11329.5915,W,0.0000,0.000,261106,13.9,E*48
$GPGSA,A,2,24,6,29,2,21,30,10,7,,,,,5.2,5.2,0.0*0C
$GPGBS,012454.00,9.338,14.739,,,,,*50
{"class":"TPV","mode":2,"time":"2006-11-26T01:24:54.000Z","leapseconds":14,"ept":0.005,"lat":53.537779522,"lon":-113.493192295,"altHAE":944.779,"altMSL":963.644,"epx":9.338,"epy":14.739,"track":0.0000,"magtrack":13.9326,"magvar":13.9,"speed":0.000,"eps":29.48,"eph":99.753,"sep":99.755}
$GPGSV,3,1,09,26,06,138,00,24,14,077,30,06,77,231,26,29,15,126,26*76
$GPGSV,3,2,09,02,16,079,37,21,35,257,26,30,22,204,33,10,54,072,42*79
$GPGSV,3,3,09,07,40,297,29*44
{"class":"SKY","time":"2006-11-26T01:24:54.585Z","xdop":0.62,"ydop":0.98,"vdop":0.04,"tdop":2.06,"hdop":5.24,"gdop":5.63,"pdop":5.24,"satellites":[{"PRN":26,"el":6.0,"az":137.9,"ss":0.0,"used":false,"gnssid":0,"svid":26},{"PRN":24,"el":13.7,"az":76.8,"ss":30.0,"used":true,"gnssid":0,"svid":24},{"PRN":6,"el":77.3,"az":231.2,"ss":26.0,"used":true,"gnssid":0,"svid":6},{"PRN":29,"el":14.6,"az":126.3,"ss":26.0,"used":true,"gnssid":0,"svid":29},{"PRN":2,"el":16.1,"az":79.5,"ss":37.0,"used":true,"gnssid":0,"svid":2},{"PRN":21,"el":35.0,"az":257.4,"ss":26.0,"used":true,"gnssid":0,"svid":21}]}
$GPZDA,012455.00,26,11,2006,00,00*61
$GPGGA,012455.00,5332.2669,N,11329.5912,W,1,04,5.24,964.16,M,-18.865,M,,*56
$GPRMC,012455.00,A,5332.2669,N,11329.5912,W,0.0000,0.000,261106,13.9,E*4F
$GPGSA,A,2,24,6,29,2,21,30,10,7,,,,,5.2,5.2,0.0*0C
$GPGBS,012455.00,9.338,14.739,,,,,*51
{"class":"TPV","mode":2,"time":"2006-11-26T01:24:55.000Z","leapseconds":14,"ept":0.005,"lat":53.537782372,"lon":-113.493187015,"altHAE":945.291,"altMSL":964.156,"epx":9.338,"epy":14.739,"track":0.0000,"magtrack":13.9326,"magvar":13.9,"speed":0.000,"eps":29.48,"eph":99.533,"sep":99.536}
$GPZDA,012456.00,26,11,2006,00,00*62
$GPGGA,012456.00,5332.2671,N,11329.5909,W,1,04,5.24,964.61,M,-18.865,M,,*56
$GPRMC,012456.00,A,5332.2671,N,11329.5909,W,0.0000,0.000,261106,13.9,E*4F
$GPGSA,A,2,24,6,29,2,21,30,10,7,,,,,5.2,5.2,0.0*0C
$GPGBS,012456.00,9.338,14.739,,,,,*52
{"class":"TPV","mode":2,"time":"2006-11-26T01:24:56.000Z","leapseconds":14,"ept":0.005,"lat":53.537784803,"lon":-113.493182237,"altHAE":945.748,"altMSL":964.613,"epx":9.338,"epy":14.739,"track":0.0000,"magtrack":13.9326,"magvar":13.9,"speed":0.000,"eps":29.48,"eph":99.533,"sep":99.536}
$GPZDA,012457.00,26,11,2006,00,00*63
$GPGGA,012457.00,5332.2672,N,11329.5907,W,1,04,5.24,965.03,M,-18.865,M,,*5F
$GPRMC,012457.00,A,5332.2672,N,11329.5907,W,0.0000,0.000,261106,13.9,E*43
$GPGSA,A,2,24,6,29,2,21,30,10,7,,,,,5.2,5.2,0.0*0C
$GPGBS,012457.00,9.338,14.739,,,,,*53
{"class":"TPV","mode":2,"time":"2006-11-26T01:24:57.000Z","leapseconds":14,"ept":0.005,"lat":53.537786898,"lon":-113.493178046,"altHAE":946.160,"altMSL":965.025,"epx":9.338,"epy":14.739,"track":0.0000,"magtrack":13.9326,"magvar":13.9,"speed":0.000,"eps":29.48,"eph":99.533,"sep":99.536}
$GPGGA,012457.00,5332.2672,N,11329.5907,W,1,04,5.23,965.03,M,-18.865,M,,*58
$GPRMC,012457.00,A,5332.2672,N,11329.5907,W,0.0000,0.000,261106,13.9,E*43
$GPGSA,A,2,24,6,29,2,21,30,10,7,,,,,5.2,5.2,0.0*0C
$GPGBS,012457.00,9.338,14.739,,,,,*53
{"class":"TPV","mode":2,"time":"2006-11-26T01:24:57.000Z","leapseconds":14,"ept":0.005,"lat":53.537786898,"lon":-113.493178046,"altHAE":946.160,"altMSL":965.025,"epx":9.338,"epy":14.739,"track":0.0000,"magtrack":13.9326,"magvar":13.9,"speed":0.000,"eps":29.48,"eph":99.533,"sep":99.536}
$GPZDA,012458.00,26,11,2006,00,00*6C
$GPGGA,012458.00,5332.2673,N,11329.5905,W,1,04,5.23,965.40,M,-18.865,M,,*53
$GPRMC,012458.00,A,5332.2673,N,11329.5905,W,0.0000,0.000,261106,13.9,E*4F
$GPGSA,A,2,24,6,29,2,21,30,10,7,,,,,5.2,5.2,0.0*0C
$GPGBS,012458.00,9.338,14.739,,,,,*5C
{"class":"TPV","mode":2,"time":"2006-11-26T01:24:58.000Z","leapseconds":14,"ept":0.005,"lat":53.537788742,"lon":-113.493174190,"altHAE":946.533,"altMSL":965.398,"epx":9.338,"epy":14.739,"track":0.0000,"magtrack":13.9326,"magvar":13.9,"speed":0.000,"eps":29.48,"eph":99.420,"sep":99.422}
$GPGGA,012458.00,5332.2673,N,11329.5905,W,1,04,5.23,965.40,M,-18.865,M,,*53
$GPRMC,012458.00,A,5332.2673,N,11329.5905,W,0.0000,0.000,261106,13.9,E*4F
$GPGSA,A,2,24,6,29,2,21,30,10,7,,,,,5.2,5.2,0.0*0C
$GPGBS,012458.00,9.338,14.739,,,,,*5C
{"class":"TPV","mode":2,"time":"2006-11-26T01:24:58.000Z","leapseconds":14,"ept":0.005,"lat":53.537788742,"lon":-113.493174190,"altHAE":946.533,"altMSL":965.398,"epx":9.338,"epy":14.739,"track":0.0000,"magtrack":13.9326,"magvar":13.9,"speed":0.000,"eps":29.48,"eph":99.420,"sep":99.422}
$GPZDA,012459.00,26,11,2006,00,00*6D
$GPGGA,012459.00,5332.2674,N,11329.5902,W,1,04,5.23,965.74,M,-18.865,M,,*55
$GPRMC,012459.00,A,5332.2674,N,11329.5902,W,0.0000,0.000,261106,13.9,E*4E
$GPGSA,A,2,24,6,29,2,21,30,10,7,,,,,5.2,5.2,0.0*0C
$GPGBS,012459.00,9.338,14.739,,,,,*5D
{"class":"TPV","mode":2,"time":"2006-11-26T01:24:59.000Z","leapseconds":14,"ept":0.005,"lat":53.537790335,"lon":-113.493170754,"altHAE":946.872,"altMSL":965.737,"epx":9.338,"epy":14.739,"track":0.0000,"magtrack":13.9326,"magvar":13.9,"speed":0.000,"eps":29.48,"eph":99.420,"sep":99.422}
$GPGSV,3,1,09,26,06,138,00,24,14,077,29,06,77,231,26,29,15,126,26*7E
$GPGSV,3,2,09,02,16,079,35,21,35,257,26,30,22,204,32,10,54,072,43*7B
$GPGSV,3,3,09,07,40,297,29*44
{"class":"SKY","time":"2006-11-26T01:24:59.531Z","xdop":0.62,"ydop":0.98,"vdop":0.04,"tdop":2.06,"hdop":5.23,"gdop":5.62,"pdop":5.23,"satellites":[{"PRN":26,"el":6.0,"az":137.9,"ss":0.0,"used":false,"gnssid":0,"svid":26},{"PRN":24,"el":13.7,"az":76.8,"ss":29.0,"used":true,"gnssid":0,"svid":24},{"PRN":6,"el":77.3,"az":231.0,"ss":26.0,"used":true,"gnssid":0,"svid":6},{"PRN":29,"el":14.7,"az":126.3,"ss":26.0,"used":true,"gnssid":0,"svid":29},{"PRN":2,"el":16.0,"az":79.5,"ss":35.0,"used":true,"gnssid":0,"svid":2},{"PRN":21,"el":35.1,"az":257.4,"ss":26.0,"used":true,"gnssid":0,"svid":21}]}
$GPZDA,012500.00,26,11,2006,00,00*60
$GPGGA,012500.00,5332.2675,N,11329.5900,W,1,04,5.23,966.05,M,-18.865,M,,*5E
$GPRMC,012500.00,A,5332.2675,N,11329.5900,W,0.0000,0.000,261106,13.9,E*40
$GPGSA,A,2,24,6,29,2,21,30,10,7,,,,,5.2,5.2,0.0*0C
$GPGBS,012500.00,9.338,14.739,,,,,*50
{"class":"TPV","mode":2,"time":"2006-11-26T01:25:00.000Z","leapseconds":14,"ept":0.005,"lat":53.537791843,"lon":-113.493167485,"altHAE":947.181,"altMSL":966.046,"epx":9.338,"epy":14.739,"track":0.0000,"magtrack":13.9326,"magvar":13.9,"speed":0.000,"eps":53.57,"eph":99.420,"sep":99.422}
$GPZDA,012501.00,26,11,2006,00,00*61
$GPGGA,012501.00,5332.2676,N,11329.5899,W,1,04,5.23,966.33,M,-18.865,M,,*58
$GPRMC,012501.00,A,5332.2676,N,11329.5899,W,0.0000,0.000,261106,13.9,E*43
$GPGSA,A,2,24,6,29,2,21,30,10,7,,,,,5.2,5.2,0.0*0C
$GPGBS,012501.00,9.338,14.739,,,,,*51
{"class":"TPV","mode":2,"time":"2006-11-26T01:25:01.000Z","leapseconds":14,"ept":0.005,"lat":53.537793184,"lon":-113.493164551,"altHAE":947.465,"altMSL":966.330,"epx":9.338,"epy":14.739,"track":0.0000,"magtrack":13.9326,"magvar":13.9,"speed":0.000,"eps":29.48,"eph":99.420,"sep":99.422}
$GPGGA,012501.00,5332.2676,N,11329.5899,W,1,04,5.22,966.33,M,-18.865,M,,*59
$GPRMC,012501.00,A,5332.2676,N,11329.5899,W,0.0000,0.000,261106,13.9,E*43
$GPGSA,A,2,24,6,29,2,21,30,10,7,,,,,5.2,5.2,0.0*0C
$GPGBS,012501.00,9.338,14.739,,,,,*51
{"class":"TPV","mode":2,"time":"2006-11-26T01:25:01.000Z","leapseconds":14,"ept":0.005,"lat":53.537793184,"lon":-113.493164551,"altHAE":947.465,"altMSL":966.330,"epx":9.338,"epy":14.739,"track":0.0000,"magtrack":13.9326,"magvar":13.9,"speed":0.000,"eps":29.48,"eph":99.420,"sep":99.422}
$GPZDA,012503.00,26,11,2006,00,00*63
$GPGGA,012503.00,5332.2677,N,11329.5896,W,1,04,5.22,966.83,M,-18.865,M,,*5E
$GPRMC,012503.00,A,5332.2677,N,11329.5896,W,0.0000,0.000,261106,13.9,E*4F
$GPGSA,A,2,24,6,29,2,21,30,10,7,,,,,5.2,5.2,0.0*0C
$GPGBS,012503.00,9.338,14.739,,,,,*53
{"class":"TPV","mode":2,"time":"2006-11-26T01:25:03.000Z","leapseconds":14,"ept":0.005,"lat":53.537795448,"lon":-113.493159187,"altHAE":947.967,"altMSL":966.832,"epx":9.338,"epy":14.739,"track":0.0000,"magtrack":13.9326,"magvar":13.9,"speed":0.000,"eps":14.74,"eph":99.133,"sep":99.135}
$GPZDA,012504.00,26,11,2006,00,00*64
$GPGGA,012504.00,5332.2678,N,11329.5894,W,1,04,5.22,967.06,M,-18.865,M,,*58
$GPRMC,012504.00,A,5332.2678,N,11329.5894,W,0.0000,0.000,261106,13.9,E*45
$GPGSA,A,2,24,6,29,2,21,30,10,7,,,,,5.2,5.2,0.0*0C
$GPGBS,012504.00,9.338,14.739,,,,,*54
{"class":"TPV","mode":2,"time":"2006-11-26T01:25:04.000Z","leapseconds":14,"ept":0.005,"lat":53.537796370,"lon":-113.493156756,"altHAE":948.190,"altMSL":967.055,"epx":9.338,"epy":14.739,"track":0.0000,"magtrack":13.9326,"magvar":13.9,"speed":0.000,"eps":29.48,"eph":99.133,"sep":99.135}
$GPGGA,012504.00,5332.2678,N,11329.5894,W,1,04,5.21,967.06,M,-18.865,M,,*5B
$GPRMC,012504.00,A,5332.2678,N,11329.5894,W,0.0000,0.000,261106,13.9,E*45
$GPGSA,A,2,24,6,29,2,21,30,10,7,,,,,5.2,5.2,0.0*0C
$GPGBS,012504.00,9.338,14.739,,,,,*54
{"class":"TPV","mode":2,"time":"2006-11-26T01:25:04.000Z","leapseconds":14,"ept":0.005,"lat":53.537796370,"lon":-113.493156756,"altHAE":948.190,"altMSL":967.055,"epx":9.338,"epy":14.739,"track":0.0000,"magtrack":13.9326,"magvar":13.9,"speed":0.000,"eps":29.48,"eph":99.133,"sep":99.135}
$GPGSV,3,1,09,26,06,138,00,24,14,077,29,06,77,231,26,29,15,126,26*7E
$GPGSV,3,2,09,02,16,080,35,21,35,257,26,30,22,204,33,10,54,072,43*7C
$GPGSV,3,3,09,07,40,297,29*44
{"class":"SKY","time":"2006-11-26T01:25:04.527Z","xdop":0.62,"ydop":0.98,"vdop":0.04,"tdop":2.05,"hdop":5.21,"gdop":5.60,"pdop":5.21,"satellites":[{"PRN":26,"el":6.1,"az":137.9,"ss":0.0,"used":false,"gnssid":0,"svid":26},{"PRN":24,"el":13.7,"az":76.8,"ss":29.0,"used":true,"gnssid":0,"svid":24},{"PRN":6,"el":77.3,"az":230.9,"ss":26.0,"used":true,"gnssid":0,"svid":6},{"PRN":29,"el":14.7,"az":126.2,"ss":26.0,"used":true,"gnssid":0,"svid":29},{"PRN":2,"el":16.0,"az":79.5,"ss":35.0,"used":true,"gnssid":0,"svid":2},{"PRN":21,"el":35.1,"az":257.4,"ss":26.0,"used":true,"gnssid":0,"svid":21}]}
$GPZDA,012505.00,26,11,2006,00,00*65
$GPGGA,012505.00,5332.2678,N,11329.5893,W,1,04,5.21,967.26,M,-18.865,M,,*5F
$GPRMC,012505.00,A,5332.2678,N,11329.5893,W,0.0000,0.000,261106,13.9,E*43
$GPGSA,A,2,24,6,29,2,21,30,10,7,,,,,5.2,5.2,0.0*0C
$GPGBS,012505.00,9.338,14.739,,,,,*55
{"class":"TPV","mode":2,"time":"2006-11-26T01:25:05.000Z","leapseconds":14,"ept":0.005,"lat":53.537797208,"lon":-113.493154493,"altHAE":948.397,"altMSL":967.262,"epx":9.338,"epy":14.739,"track":0.0000,"magtrack":13.9326,"magvar":13.9,"speed":0.000,"eps":29.48,"eph":99.005,"sep":99.007}
$GPZDA,012506.00,26,11,2006,00,00*66
$GPGGA,012506.00,5332.2679,N,11329.5891,W,1,04,5.21,967.46,M,-18.865,M,,*59
$GPRMC,012506.00,A,5332.2679,N,11329.5891,W,0.0000,0.000,261106,13.9,E*43
$GPGSA,A,2,24,6,29,2,21,30,10,7,,,,,5.2,5.2,0.0*0C
$GPGBS,012506.00,9.338,14.739,,,,,*56
{"class":"TPV","mode":2,"time":"2006-11-26T01:25:06.000Z","leapseconds":14,"ept":0.005,"lat":53.537797878,"lon":-113.493152397,"altHAE":948.590,"altMSL":967.455,"epx":9.338,"epy":14.739,"track":0.0000,"magtrack":13.9326,"magvar":13.9,"speed":0.000,"eps":61.35,"eph":99.005,"sep":99.007}
$GPGGA,012506.00,5332.2679,N,11329.5891,W,1,04,5.20,967.46,M,-18.865,M,,*58
$GPRMC,012506.00,A,5332.2679,N,11329.5891,W,0.0000,0.000,261106,13.9,E*43
$GPGSA,A,2,24,6,29,2,21,30,10,7,,,,,5.2,5.2,0.0*0C
$GPGBS,012506.00,9.338,14.739,,,,,*56
{"class":"TPV","mode":2,"time":"2006-11-26T01:25:06.000Z","leapseconds":14,"ept":0.005,"lat":53.537797878,"lon":-113.493152397,"altHAE":948.590,"altMSL":967.455,"epx":9.338,"epy":14.739,"track":0.0000,"magtrack":13.9326,"magvar":13.9,"speed":0.000,"eps":61.35,"eph":99.005,"sep":99.007}
$GPZDA,012507.00,26,11,2006,00,00*67
$GPGGA,012507.00,5332.2679,N,11329.5890,W,1,04,5.20,967.64,M,-18.865,M,,*58
$GPRMC,012507.00,A,5332.2679,N,11329.5890,W,0.0000,0.000,261106,13.9,E*43
$GPGSA,A,2,24,6,29,2,21,30,10,7,,,,,5.2,5.2,0.0*0C
$GPGBS,012507.00,9.338,14.739,,,,,*57
{"class":"TPV","mode":2,"time":"2006-11-26T01:25:07.000Z","leapseconds":14,"ept":0.005,"lat":53.537798549,"lon":-113.493150386,"altHAE":948.770,"altMSL":967.635,"epx":9.338,"epy":14.739,"track":0.0000,"magtrack":13.9326,"magvar":13.9,"speed":0.000,"eps":29.48,"eph":98.867,"sep":98.869}
$GPGGA,012507.00,5332.2679,N,11329.5890,W,1,04,5.20,967.64,M,-18.865,M,,*58
$GPRMC,012507.00,A,5332.2679,N,11329.5890,W,0.0000,0.000,261106,13.9,E*43
$GPGSA,A,2,24,6,29,2,21,30,10,7,,,,,5.2,5.2,0.0*0C
$GPGBS,012507.00,9.338,14.739,,,,,*57
{"class":"TPV","mode":2,"time":"2006-11-26T01:25:07.000Z","leapseconds":14,"ept":0.005,"lat":53.537798549,"lon":-113.493150386,"altHAE":948.770,"altMSL":967.635,"epx":9.338,"epy":14.739,"track":0.0000,"magtrack":13.9326,"magvar":13.9,"speed":0.000,"eps":29.48,"eph":98.867,"sep":98.869}
$GPZDA,012508.00,26,11,2006,00,00*68
$GPGGA,012508.00,5332.2680,N,11329.5889,W,1,04,5.20,967.80,M,-18.865,M,,*53
$GPRMC,012508.00,A,5332.2680,N,11329.5889,W,0.0000,0.000,261106,13.9,E*42
$GPGSA,A,2,24,6,29,2,21,30,10,7,,,,,5.2,5.2,0.0*0C
$GPGBS,012508.00,9.338,14.739,,,,,*58
{"class":"TPV","mode":2,"time":"2006-11-26T01:25:08.000Z","leapseconds":14,"ept":0.005,"lat":53.537799219,"lon":-113.493148458,"altHAE":948.938,"altMSL":967.803,"epx":9.338,"epy":14.739,"track":0.0000,"magtrack":13.9326,"magvar":13.9,"speed":0.000,"eps":29.48,"eph":98.758,"sep":98.760}
$GPZDA,012509.00,26,11,2006,00,00*69
$GPGGA,012509.00,5332.2680,N,11329.5888,W,1,04,5.20,967.96,M,-18.865,M,,*54
$GPRMC,012509.00,A,5332.2680,N,11329.5888,W,0.0000,0.000,261106,13.9,E*42
$GPGSA,A,2,24,6,29,2,21,30,10,7,,,,,5.2,5.2,0.0*0C
$GPGBS,012509.00,9.338,14.739,,,,,*59
{"class":"TPV","mode":2,"time":"2006-11-26T01:25:09.000Z","leapseconds":14,"ept":0.005,"lat":53.537799806,"lon":-113.493146530,"altHAE":949.096,"altMSL":967.961,"epx":9.338,"epy":14.739,"track":0.0000,"magtrack":13.9326,"magvar":13.9,"speed":0.000,"eps":29.48,"eph":98.758,"sep":98.760}
$GPGGA,012509.00,5332.2680,N,11329.5888,W,1,04,5.20,967.96,M,-18.865,M,,*54
$GPRMC,012509.00,A,5332.2680,N,11329.5888,W,0.0000,0.000,261106,13.9,E*42
$GPGSA,A,2,24,6,29,2,21,30,10,7,,,,,5.2,5.2,0.0*0C
$GPGBS,012509.00,9.338,14.739,,,,,*59
{"class":"TPV","mode":2,"time":"2006-11-26T01:25:09.000Z","leapseconds":14,"ept":0.005,"lat":53.537799806,"lon":-113.493146530,"altHAE":949.096,"altMSL":967.961,"epx":9.338,"epy":14.739,"track":0.0000,"magtrack":13.9326,"magvar":13.9,"speed":0.000,"eps":29.48,"eph":98.758,"sep":98.760}
$GPGSV,3,1,09,26,06,138,00,24,14,077,28,06,77,231,26,29,15,126,26*7F
$GPGSV,3,2,09,02,16,080,35,21,35,257,26,30,22,204,30,10,54,072,44*78
$GPGSV,3,3,09,07,40,297,29*44
{"class":"SKY","time":"2006-11-26T01:25:09.579Z","xdop":0.62,"ydop":0.98,"vdop":0.04,"tdop":2.05,"hdop":5.20,"gdop":5.59,"pdop":5.20,"satellites":[{"PRN":26,"el":6.1,"az":137.9,"ss":0.0,"used":false,"gnssid":0,"svid":26},{"PRN":24,"el":13.6,"az":76.8,"ss":28.0,"used":true,"gnssid":0,"svid":24},{"PRN":6,"el":77.3,"az":230.6,"ss":26.0,"used":true,"gnssid":0,"svid":6},{"PRN":29,"el":14.7,"az":126.2,"ss":26.0,"used":true,"gnssid":0,"svid":29},{"PRN":2,"el":16.0,"az":79.5,"ss":35.0,"used":true,"gnssid":0,"svid":2},{"PRN":21,"el":35.1,"az":257.4,"ss":26.0,"used":true,"gnssid":0,"svid":21}]}
$GPZDA,012510.00,26,11,2006,00,00*61
$GPGGA,012510.00,5332.2680,N,11329.5887,W,1,04,5.20,968.11,M,-18.865,M,,*53
$GPRMC,012510.00,A,5332.2680,N,11329.5887,W,0.0000,0.000,261106,13.9,E*45
$GPGSA,A,2,24,6,29,2,21,30,10,7,,,,,5.2,5.2,0.0*0C
$GPGBS,012510.00,9.338,14.739,,,,,*51
{"class":"TPV","mode":2,"time":"2006-11-26T01:25:10.000Z","leapseconds":14,"ept":0.005,"lat":53.537800393,"lon":-113.493144770,"altHAE":949.244,"altMSL":968.109,"epx":9.338,"epy":14.739,"track":0.0000,"magtrack":13.9326,"magvar":13.9,"speed":0.000,"eps":29.48,"eph":98.791,"sep":98.793}
$GPGGA,012510.00,5332.2680,N,11329.5887,W,1,04,5.19,968.11,M,-18.865,M,,*59
$GPRMC,012510.00,A,5332.2680,N,11329.5887,W,0.0000,0.000,261106,13.9,E*45
$GPGSA,A,2,24,6,29,2,21,30,10,7,,,,,5.2,5.2,0.0*0C
$GPGBS,012510.00,9.338,14.739,,,,,*51
{"class":"TPV","mode":2,"time":"2006-11-26T01:25:10.000Z","leapseconds":14,"ept":0.005,"lat":53.537800393,"lon":-113.493144770,"altHAE":949.244,"altMSL":968.109,"epx":9.338,"epy":14.739,"track":0.0000,"magtrack":13.9326,"magvar":13.9,"speed":0.000,"eps":29.48,"eph":98.791,"sep":98.793}
$GPZDA,012511.00,26,11,2006,00,00*60
$GPGGA,012511.00,5332.2681,N,11329.5886,W,1,04,5.19,968.25,M,-18.865,M,,*5F
$GPRMC,012511.00,A,5332.2681,N,11329.5886,W,0.0000,0.000,261106,13.9,E*44
$GPGSA,A,2,24,6,29,2,21,30,10,7,,,,,5.2,5.2,0.0*0C
$GPGBS,012511.00,9.338,14.739,,,,,*50
{"class":"TPV","mode":2,"time":"2006-11-26T01:25:11.000Z","leapseconds":14,"ept":0.005,"lat":53.537800896,"lon":-113.493143010,"altHAE":949.384,"altMSL":968.249,"epx":9.338,"epy":14.739,"track":0.0000,"magtrack":13.9326,"magvar":13.9,"speed":0.000,"eps":29.48,"eph":98.631,"sep":98.633}
$GPGGA,012511.00,5332.2681,N,11329.5886,W,1,04,5.19,968.25,M,-18.865,M,,*5F
$GPRMC,012511.00,A,5332.2681,N,11329.5886,W,0.0000,0.000,261106,13.9,E*44
$GPGSA,A,2,24,6,29,2,21,30,10,7,,,,,5.2,5.2,0.0*0C
$GPGBS,012511.00,9.338,14.739,,,,,*50
{"class":"TPV","mode":2,"time":"2006-11-26T01:25:11.000Z","leapseconds":14,"ept":0.005,"lat":53.537800896,"lon":-113.493143010,"altHAE":949.384,"altMSL":968.249,"epx":9.338,"epy":14.739,"track":0.0000,"magtrack":13.9326,"magvar":13.9,"speed":0.000,"eps":29.48,"eph":98.631,"sep":98.633}
$GPZDA,012512.00,26,11,2006,00,00*63
$GPGGA,012512.00,5332.2681,N,11329.5885,W,1,04,5.19,968.38,M,-18.865,M,,*53
$GPRMC,012512.00,A,5332.2681,N,11329.5885,W,0.0000,0.000,261106,13.9,E*44
$GPGSA,A,2,24,6,29,2,21,30,10,7,,,,,5.2,5.2,0.0*0C
$GPGBS,012512.00,9.338,14.739,,,,,*53
{"class":"TPV","mode":2,"time":"2006-11-26T01:25:12.000Z","leapseconds":14,"ept":0.005,"lat":53.537801315,"lon":-113.493141333,"altHAE":949.515,"altMSL":968.380,"epx":9.338,"epy":14.739,"track":0.0000,"magtrack":13.9326,"magvar":13.9,"speed":0.000,"eps":29.48,"eph":98.631,"sep":98.633}
$GPGGA,012512.00,5332.2681,N,11329.5885,W,1,04,5.18,968.38,M,-18.865,M,,*52
$GPRMC,012512.00,A,5332.2681,N,11329.5885,W,0.0000,0.000,261106,13.9,E*44
$GPGSA,A,2,24,6,29,2,21,30,10,7,,,,,5.2,5.2,0.0*0C
$GPGBS,012512.00,9.338,14.739,,,,,*53
{"class":"TPV","mode":2,"time":"2006-11-26T01:25:12.000Z","leapseconds":14,"ept":0.005,"lat":53.537801315,"lon":-113.493141333,"altHAE":949.515,"altMSL":968.380,"epx":9.338,"epy":14.739,"track":0.0000,"magtrack":13.9326,"magvar":13.9,"speed":0.000,"eps":29.48,"eph":98.631,"sep":98.633}
$GPZDA,012513.00,26,11,2006,00,00*62
$GPGGA,012513.00,5332.2681,N,11329.5884,W,1,04,5.18,968.51,M,-18.865,M,,*5D
$GPRMC,012513.00,A,5332.2681,N,11329.5884,W,0.0000,0.000,261106,13.9,E*44
$GPGSA,A,2,24,6,29,2,21,30,10,7,,,,,5.2,5.2,0.0*0C
$GPGBS,012513.00,9.338,14.739,,,,,*52
{"class":"TPV","mode":2,"time":"2006-11-26T01:25:13.000Z","leapseconds":14,"ept":0.005,"lat":53.537801650,"lon":-113.493139657,"altHAE":949.640,"altMSL":968.505,"epx":9.338,"epy":14.739,"track":0.0000,"magtrack":13.9326,"magvar":13.9,"speed":0.000,"eps":29.48,"eph":98.490,"sep":98.493}
$GPZDA,012514.00,26,11,2006,00,00*65
$GPGGA,012514.00,5332.2681,N,11329.5883,W,1,04,5.18,968.62,M,-18.865,M,,*5D
$GPRMC,012514.00,A,5332.2681,N,11329.5883,W,0.0000,0.000,261106,13.9,E*44
$GPGSA,A,2,24,6,29,2,21,30,10,7,,,,,5.2,5.2,0.0*0C
$GPGBS,012514.00,9.338,14.739,,,,,*55
{"class":"TPV","mode":2,"time":"2006-11-26T01:25:14.000Z","leapseconds":14,"ept":0.005,"lat":53.537802069,"lon":-113.493138064,"altHAE":949.757,"altMSL":968.622,"epx":9.338,"epy":14.739,"track":0.0000,"magtrack":13.9326,"magvar":13.9,"speed":0.000,"eps":29.48,"eph":98.490,"sep":98.493}
$GPGSV,3,1,09,26,06,138,00,24,14,077,30,06,77,231,26,29,15,126,26*76
$GPGSV,3,2,09,02,16,080,35,21,35,257,26,30,22,204,30,10,54,072,45*79
$GPGSV,3,3,09,07,40,297,29*44
{"class":"SKY","time":"2006-11-26T01:25:14.518Z","xdop":0.62,"ydop":0.98,"vdop":0.04,"tdop":2.04,"hdop":5.18,"gdop":5.57,"pdop":5.18,"satellites":[{"PRN":26,"el":6.1,"az":137.8,"ss":0.0,"used":false,"gnssid":0,"svid":26},{"PRN":24,"el":13.6,"az":76.8,"ss":30.0,"used":true,"gnssid":0,"svid":24},{"PRN":6,"el":77.3,"az":230.6,"ss":26.0,"used":true,"gnssid":0,"svid":6},{"PRN":29,"el":14.8,"az":126.2,"ss":26.0,"used":true,"gnssid":0,"svid":29},{"PRN":2,"el":15.9,"az":79.5,"ss":35.0,"used":true,"gnssid":0,"svid":2},{"PRN":21,"el":35.2,"az":257.5,"ss":26.0,"used":true,"gnssid":0,"svid":21}]}
$GPZDA,012515.00,26,11,2006,00,00*64
$GPGGA,012515.00,5332.2681,N,11329.5882,W,1,04,5.18,968.73,M,-18.865,M,,*5D
$GPRMC,012515.00,A,5332.2681,N,11329.5882,W,0.0000,0.000,261106,13.9,E*44
$GPGSA,A,2,24,6,29,2,21,30,10,7,,,,,5.2,5.2,0.0*0C
$GPGBS,012515.00,9.338,14.739,,,,,*54
{"class":"TPV","mode":2,"time":"2006-11-26T01:25:15.000Z","leapseconds":14,"ept":0.005,"lat":53.537802405,"lon":-113.493136556,"altHAE":949.868,"altMSL":968.733,"epx":9.338,"epy":14.739,"track":0.0000,"magtrack":13.9326,"magvar":13.9,"speed":0.000,"eps":29.48,"eph":98.490,"sep":98.493}
$GPZDA,012517.00,26,11,2006,00,00*66
$GPGGA,012517.00,5332.2682,N,11329.5880,W,1,04,5.18,968.94,M,-18.865,M,,*57
$GPRMC,012517.00,A,5332.2682,N,11329.5880,W,0.0000,0.000,261106,13.9,E*47
$GPGSA,A,2,24,6,29,2,21,30,10,7,,,,,5.2,5.2,0.0*0C
$GPGBS,012517.00,9.338,14.739,,,,,*56
{"class":"TPV","mode":2,"time":"2006-11-26T01:25:17.000Z","leapseconds":14,"ept":0.005,"lat":53.537803243,"lon":-113.493133622,"altHAE":950.074,"altMSL":968.939,"epx":9.338,"epy":14.739,"track":0.0000,"magtrack":13.9326,"magvar":13.9,"speed":0.000,"eps":14.74,"eph":98.490,"sep":98.493}
