$GPGGA,201430.00,4120.3657,N,07542.3644,W,1,00,,252.14,M,-33.430,M,,*4F
$GPRMC,201430.00,A,4120.3657,N,07542.3644,W,,,221219,-12.1,W*49
$GPGSA,A,3,,,,,,,,,,,,,,,*1C
{"class":"TPV","mode":3,"time":"2019-12-22T20:14:30.000Z","leapseconds":18,"ept":0.005,"lat":41.339427963,"lon":-75.706073822,"altHAE":218.708,"altMSL":252.139,"alt":252.139,"magvar":-12.1,"geoidSep":-33.430}
$GPGGA,201431.00,4120.3657,N,07542.3644,W,1,00,,252.14,M,-33.430,M,,*4E
$GPRMC,201431.00,A,4120.3657,N,07542.3644,W,0.0000,,221219,-12.1,W*56
$GPGSA,A,3,,,,,,,,,,,,,,,*1C
{"class":"TPV","mode":3,"time":"2019-12-22T20:14:31.000Z","leapseconds":18,"ept":0.005,"lat":41.339427963,"lon":-75.706073822,"altHAE":218.708,"altMSL":252.139,"alt":252.139,"magvar":-12.1,"speed":0.000,"climb":0.000,"geoidSep":-33.430}
$GPGGA,201432.00,4120.3657,N,07542.3644,W,1,00,,252.14,M,-33.430,M,,*4D
$GPRMC,201432.00,A,4120.3657,N,07542.3644,W,0.0000,,221219,-12.1,W*55
$GPGSA,A,3,,,,,,,,,,,,,,,*1C
{"class":"TPV","mode":3,"time":"2019-12-22T20:14:32.000Z","leapseconds":18,"ept":0.005,"lat":41.339427963,"lon":-75.706073822,"altHAE":218.708,"altMSL":252.139,"alt":252.139,"magvar":-12.1,"speed":0.000,"climb":0.000,"geoidSep":-33.430}
$GPGGA,201433.00,4120.3657,N,07542.3644,W,1,00,,252.14,M,-33.430,M,,*4C
$GPRMC,201433.00,A,4120.3657,N,07542.3644,W,0.0000,,221219,-12.1,W*54
$GPGSA,A,3,,,,,,,,,,,,,,,*1C
{"class":"TPV","mode":3,"time":"2019-12-22T20:14:33.000Z","leapseconds":18,"ept":0.005,"lat":41.339427963,"lon":-75.706073822,"altHAE":218.708,"altMSL":252.139,"alt":252.139,"magvar":-12.1,"speed":0.000,"climb":0.000,"geoidSep":-33.430}
$GPGGA,201433.00,4120.3657,N,07542.3644,W,7,10,0.00,252.14,M,-33.430,M,,*55
$GPRMC,201433.00,A,4120.3657,N,07542.3644,W,0.0000,,221219,-12.1,W*54
$GPGSA,A,3,,,,,,,,,,,,,0.0,0.0,0.0*32
{"class":"TPV","status":7,"mode":3,"time":"2019-12-22T20:14:33.000Z","leapseconds":18,"ept":0.005,"lat":41.339427963,"lon":-75.706073822,"altHAE":218.708,"altMSL":252.139,"alt":252.139,"epv":0.000,"magvar":-12.1,"speed":0.000,"climb":0.000,"geoidSep":-33.430,"eph":0.000,"sep":0.000}
$GPGSV,1,1,01,31,68,031,25*41
{"class":"SKY","time":"2019-12-22T20:14:33.000Z","vdop":0.00,"tdop":1.00,"hdop":0.00,"gdop":1.00,"pdop":0.00,"satellites":[{"PRN":31,"el":68.0,"az":31.0,"ss":25.0,"used":true,"gnssid":0,"svid":31}]}
$GPGSV,1,1,02,31,68,031,25,14,63,108,25*7C
{"class":"SKY","time":"2019-12-22T20:14:33.000Z","vdop":0.00,"tdop":1.00,"hdop":0.00,"gdop":1.00,"pdop":0.00,"satellites":[{"PRN":31,"el":68.0,"az":31.0,"ss":25.0,"used":true,"gnssid":0,"svid":31},{"PRN":14,"el":63.0,"az":108.0,"ss":25.0,"used":true,"gnssid":0,"svid":14}]}
$GPGSV,1,1,03,31,68,031,25,14,63,108,25,26,60,187,41*44
{"class":"SKY","time":"2019-12-22T20:14:33.000Z","vdop":0.00,"tdop":1.00,"hdop":0.00,"gdop":1.00,"pdop":0.00,"satellites":[{"PRN":31,"el":68.0,"az":31.0,"ss":25.0,"used":true,"gnssid":0,"svid":31},{"PRN":14,"el":63.0,"az":108.0,"ss":25.0,"used":true,"gnssid":0,"svid":14},{"PRN":26,"el":60.0,"az":187.0,"ss":41.0,"used":true,"gnssid":0,"svid":26}]}
$GPGSV,1,1,04,31,68,031,25,14,63,108,25,26,60,187,41,22,42,266,47*74
{"class":"SKY","time":"2019-12-22T20:14:33.000Z","xdop":3.16,"ydop":1.74,"vdop":0.00,"tdop":1.00,"hdop":0.00,"gdop":1.00,"pdop":0.00,"satellites":[{"PRN":31,"el":68.0,"az":31.0,"ss":25.0,"used":true,"gnssid":0,"svid":31},{"PRN":14,"el":63.0,"az":108.0,"ss":25.0,"used":true,"gnssid":0,"svid":14},{"PRN":26,"el":60.0,"az":187.0,"ss":41.0,"used":true,"gnssid":0,"svid":26},{"PRN":22,"el":42.0,"az":266.0,"ss":47.0,"used":true,"gnssid":0,"svid":22}]}
$GPGSV,2,1,05,31,68,031,25,14,63,108,25,26,60,187,41,22,42,266,47*76
$GPGSV,2,2,05,03,37,295,44*45
{"class":"SKY","time":"2019-12-22T20:14:33.000Z","xdop":3.16,"ydop":1.74,"vdop":0.00,"tdop":1.00,"hdop":0.00,"gdop":1.00,"pdop":0.00,"satellites":[{"PRN":31,"el":68.0,"az":31.0,"ss":25.0,"used":true,"gnssid":0,"svid":31},{"PRN":14,"el":63.0,"az":108.0,"ss":25.0,"used":true,"gnssid":0,"svid":14},{"PRN":26,"el":60.0,"az":187.0,"ss":41.0,"used":true,"gnssid":0,"svid":26},{"PRN":22,"el":42.0,"az":266.0,"ss":47.0,"used":true,"gnssid":0,"svid":22},{"PRN":3,"el":37.0,"az":295.0,"ss":44.0,"used":true,"gnssid":0,"svid":3}]}
$GPGSV,2,1,06,31,68,031,25,14,63,108,25,26,60,187,41,22,42,266,47*75
$GPGSV,2,2,06,03,37,295,44,32,34,123,30*73
{"class":"SKY","time":"2019-12-22T20:14:33.000Z","xdop":3.16,"ydop":1.74,"vdop":0.00,"tdop":1.00,"hdop":0.00,"gdop":1.00,"pdop":0.00,"satellites":[{"PRN":31,"el":68.0,"az":31.0,"ss":25.0,"used":true,"gnssid":0,"svid":31},{"PRN":14,"el":63.0,"az":108.0,"ss":25.0,"used":true,"gnssid":0,"svid":14},{"PRN":26,"el":60.0,"az":187.0,"ss":41.0,"used":true,"gnssid":0,"svid":26},{"PRN":22,"el":42.0,"az":266.0,"ss":47.0,"used":true,"gnssid":0,"svid":22},{"PRN":3,"el":37.0,"az":295.0,"ss":44.0,"used":true,"gnssid":0,"svid":3},{"PRN":32,"el":34.0,"az":123.0,"ss":30.0,"used":true,"gnssid":0,"svid":32}]}
$GPGSV,2,1,07,31,68,031,25,14,63,108,25,26,60,187,41,22,42,266,47*74
$GPGSV,2,2,07,03,37,295,44,32,34,123,30,16,31,198,49*4A
{"class":"SKY","time":"2019-12-22T20:14:33.000Z","xdop":3.16,"ydop":1.74,"vdop":0.00,"tdop":1.00,"hdop":0.00,"gdop":1.00,"pdop":0.00,"satellites":[{"PRN":31,"el":68.0,"az":31.0,"ss":25.0,"used":true,"gnssid":0,"svid":31},{"PRN":14,"el":63.0,"az":108.0,"ss":25.0,"used":true,"gnssid":0,"svid":14},{"PRN":26,"el":60.0,"az":187.0,"ss":41.0,"used":true,"gnssid":0,"svid":26},{"PRN":22,"el":42.0,"az":266.0,"ss":47.0,"used":true,"gnssid":0,"svid":22},{"PRN":3,"el":37.0,"az":295.0,"ss":44.0,"used":true,"gnssid":0,"svid":3},{"PRN":32,"el":34.0,"az":123.0,"ss":30.0,"used":true,"gnssid":0,"svid":32},{"PRN":16,"el":31.0,"az":198.0,"ss":49.0,"used":true,"gnssid":0,"svid":16}]}
$GPGSV,2,1,08,31,68,031,25,14,63,108,25,26,60,187,41,22,42,266,47*7B
$GPGSV,2,2,08,03,37,295,44,32,34,123,30,16,31,198,49,29,20,079,27*77
{"class":"SKY","time":"2019-12-22T20:14:33.000Z","xdop":3.16,"ydop":1.74,"vdop":0.00,"tdop":1.00,"hdop":0.00,"gdop":1.00,"pdop":0.00,"satellites":[{"PRN":31,"el":68.0,"az":31.0,"ss":25.0,"used":true,"gnssid":0,"svid":31},{"PRN":14,"el":63.0,"az":108.0,"ss":25.0,"used":true,"gnssid":0,"svid":14},{"PRN":26,"el":60.0,"az":187.0,"ss":41.0,"used":true,"gnssid":0,"svid":26},{"PRN":22,"el":42.0,"az":266.0,"ss":47.0,"used":true,"gnssid":0,"svid":22},{"PRN":3,"el":37.0,"az":295.0,"ss":44.0,"used":true,"gnssid":0,"svid":3},{"PRN":32,"el":34.0,"az":123.0,"ss":30.0,"used":true,"gnssid":0,"svid":32},{"PRN":16,"el":31.0,"az":198.0,"ss":49.0,"used":true,"gnssid":0,"svid":16},{"PRN":29,"el":20.0,"az":79.0,"ss":27.0,"used":true,"gnssid":0,"svid":29}]}
$GPGSV,3,1,09,31,68,031,25,14,63,108,25,26,60,187,41,22,42,266,47*7B
$GPGSV,3,2,09,03,37,295,44,32,34,123,30,16,31,198,49,29,20,079,27*77
$GPGSV,3,3,09,25,19,043,33*48
{"class":"SKY","time":"2019-12-22T20:14:33.000Z","xdop":3.16,"ydop":1.74,"vdop":0.00,"tdop":1.00,"hdop":0.00,"gdop":1.00,"pdop":0.00,"satellites":[{"PRN":31,"el":68.0,"az":31.0,"ss":25.0,"used":true,"gnssid":0,"svid":31},{"PRN":14,"el":63.0,"az":108.0,"ss":25.0,"used":true,"gnssid":0,"svid":14},{"PRN":26,"el":60.0,"az":187.0,"ss":41.0,"used":true,"gnssid":0,"svid":26},{"PRN":22,"el":42.0,"az":266.0,"ss":47.0,"used":true,"gnssid":0,"svid":22},{"PRN":3,"el":37.0,"az":295.0,"ss":44.0,"used":true,"gnssid":0,"svid":3},{"PRN":32,"el":34.0,"az":123.0,"ss":30.0,"used":true,"gnssid":0,"svid":32},{"PRN":16,"el":31.0,"az":198.0,"ss":49.0,"used":true,"gnssid":0,"svid":16},{"PRN":29,"el":20.0,"az":79.0,"ss":27.0,"used":true,"gnssid":0,"svid":29},{"PRN":25,"el":19.0,"az":43.0,"ss":33.0,"used":true,"gnssid":0,"svid":25}]}
$GPGSV,3,1,10,31,68,031,25,14,63,108,25,26,60,187,41,22,42,266,47*73
$GPGSV,3,2,10,03,37,295,44,32,34,123,30,16,31,198,49,29,20,079,27*7F
$GPGSV,3,3,10,25,19,043,33,23,12,307,18*7F
{"class":"SKY","time":"2019-12-22T20:14:33.000Z","xdop":3.16,"ydop":1.74,"vdop":0.00,"tdop":1.00,"hdop":0.00,"gdop":1.00,"pdop":0.00,"satellites":[{"PRN":31,"el":68.0,"az":31.0,"ss":25.0,"used":true,"gnssid":0,"svid":31},{"PRN":14,"el":63.0,"az":108.0,"ss":25.0,"used":true,"gnssid":0,"svid":14},{"PRN":26,"el":60.0,"az":187.0,"ss":41.0,"used":true,"gnssid":0,"svid":26},{"PRN":22,"el":42.0,"az":266.0,"ss":47.0,"used":true,"gnssid":0,"svid":22},{"PRN":3,"el":37.0,"az":295.0,"ss":44.0,"used":true,"gnssid":0,"svid":3},{"PRN":32,"el":34.0,"az":123.0,"ss":30.0,"used":true,"gnssid":0,"svid":32},{"PRN":16,"el":31.0,"az":198.0,"ss":49.0,"used":true,"gnssid":0,"svid":16},{"PRN":29,"el":20.0,"az":79.0,"ss":27.0,"used":true,"gnssid":0,"svid":29},{"PRN":25,"el":19.0,"az":43.0,"ss":33.0,"used":true,"gnssid":0,"svid":25},{"PRN":23,"el":12.0,"az":307.0,"ss":18.0,"used":true,"gnssid":0,"svid":23}]}
$GPGGA,201434.00,4120.3657,N,07542.3644,W,1,10,0.00,252.14,M,-33.430,M,,*54
$GPRMC,201434.00,A,4120.3657,N,07542.3644,W,0.0000,,221219,-12.1,W*53
$GPGSA,A,3,31,14,26,22,3,32,16,29,25,23,,,0.0,0.0,0.0*09
$GPGBS,201434.00,47.366,26.111,0.000,,,,*44
{"class":"TPV","mode":3,"time":"2019-12-22T20:14:34.000Z","leapseconds":18,"ept":0.005,"lat":41.339427963,"lon":-75.706073822,"altHAE":218.708,"altMSL":252.139,"alt":252.139,"epx":47.366,"epy":26.111,"epv":0.000,"magvar":-12.1,"speed":0.000,"climb":0.000,"eps":94.73,"epc":0.00,"geoidSep":-33.430,"eph":0.000,"sep":0.000}
$GPGGA,201435.00,4120.3657,N,07542.3644,W,1,10,0.00,252.14,M,-33.430,M,,*55
$GPRMC,201435.00,A,4120.3657,N,07542.3644,W,0.0000,,221219,-12.1,W*52
$GPGSA,A,3,31,14,26,22,3,32,16,29,25,23,,,0.0,0.0,0.0*09
$GPGBS,201435.00,47.366,26.111,0.000,,,,*45
{"class":"TPV","mode":3,"time":"2019-12-22T20:14:35.000Z","leapseconds":18,"ept":0.005,"lat":41.339427963,"lon":-75.706073822,"altHAE":218.708,"altMSL":252.139,"alt":252.139,"epx":47.366,"epy":26.111,"epv":0.000,"magvar":-12.1,"speed":0.000,"climb":0.000,"eps":94.73,"epc":0.00,"geoidSep":-33.430,"eph":0.000,"sep":0.000}
$GPGGA,201436.00,4120.3657,N,07542.3644,W,1,10,0.00,252.14,M,-33.430,M,,*56
$GPRMC,201436.00,A,4120.3657,N,07542.3644,W,0.0000,,221219,-12.1,W*51
$GPGSA,A,3,31,14,26,22,3,32,16,29,25,23,,,0.0,0.0,0.0*09
$GPGBS,201436.00,47.366,26.111,0.000,,,,*46
{"class":"TPV","mode":3,"time":"2019-12-22T20:14:36.000Z","leapseconds":18,"ept":0.005,"lat":41.339427963,"lon":-75.706073822,"altHAE":218.708,"altMSL":252.139,"alt":252.139,"epx":47.366,"epy":26.111,"epv":0.000,"magvar":-12.1,"speed":0.000,"climb":0.000,"eps":94.73,"epc":0.00,"geoidSep":-33.430,"eph":0.000,"sep":0.000}
$GPGGA,201437.00,4120.3657,N,07542.3644,W,1,10,0.00,252.14,M,-33.430,M,,*57
$GPRMC,201437.00,A,4120.3657,N,07542.3644,W,0.0000,,221219,-12.1,W*50
$GPGSA,A,3,31,14,26,22,3,32,16,29,25,23,,,0.0,0.0,0.0*09
$GPGBS,201437.00,47.366,26.111,0.000,,,,*47
{"class":"TPV","mode":3,"time":"2019-12-22T20:14:37.000Z","leapseconds":18,"ept":0.005,"lat":41.339427963,"lon":-75.706073822,"altHAE":218.708,"altMSL":252.139,"alt":252.139,"epx":47.366,"epy":26.111,"epv":0.000,"magvar":-12.1,"speed":0.000,"climb":0.000,"eps":94.73,"epc":0.00,"geoidSep":-33.430,"eph":0.000,"sep":0.000}
$GPGGA,201438.00,4120.3657,N,07542.3644,W,1,10,0.00,252.14,M,-33.430,M,,*58
$GPRMC,201438.00,A,4120.3657,N,07542.3644,W,0.0000,,221219,-12.1,W*5F
$GPGSA,A,3,31,14,26,22,3,32,16,29,25,23,,,0.0,0.0,0.0*09
$GPGBS,201438.00,47.366,26.111,0.000,,,,*48
{"class":"TPV","mode":3,"time":"2019-12-22T20:14:38.000Z","leapseconds":18,"ept":0.005,"lat":41.339427963,"lon":-75.706073822,"altHAE":218.708,"altMSL":252.139,"alt":252.139,"epx":47.366,"epy":26.111,"epv":0.000,"magvar":-12.1,"speed":0.000,"climb":0.000,"eps":94.73,"epc":0.00,"geoidSep":-33.430,"eph":0.000,"sep":0.000}
$GPGGA,201439.00,4120.3657,N,07542.3644,W,1,10,0.00,252.14,M,-33.430,M,,*59
$GPRMC,201439.00,A,4120.3657,N,07542.3644,W,0.0000,,221219,-12.1,W*5E
$GPGSA,A,3,31,14,26,22,3,32,16,29,25,23,,,0.0,0.0,0.0*09
$GPGBS,201439.00,47.366,26.111,0.000,,,,*49
{"class":"TPV","mode":3,"time":"2019-12-22T20:14:39.000Z","leapseconds":18,"ept":0.005,"lat":41.339427963,"lon":-75.706073822,"altHAE":218.708,"altMSL":252.139,"alt":252.139,"epx":47.366,"epy":26.111,"epv":0.000,"magvar":-12.1,"speed":0.000,"climb":0.000,"eps":94.73,"epc":0.00,"geoidSep":-33.430,"eph":0.000,"sep":0.000}
$GPGGA,201439.00,4120.3657,N,07542.3644,W,7,09,0.00,252.14,M,-33.430,M,,*57
$GPRMC,201439.00,A,4120.3657,N,07542.3644,W,0.0000,,221219,-12.1,W*5E
$GPGSA,A,3,31,14,26,22,3,32,16,29,25,23,,,0.0,0.0,0.0*09
$GPGBS,201439.00,47.366,26.111,0.000,,,,*49
{"class":"TPV","status":7,"mode":3,"time":"2019-12-22T20:14:39.000Z","leapseconds":18,"ept":0.005,"lat":41.339427963,"lon":-75.706073822,"altHAE":218.708,"altMSL":252.139,"alt":252.139,"epx":47.366,"epy":26.111,"epv":0.000,"magvar":-12.1,"speed":0.000,"climb":0.000,"eps":94.73,"epc":0.00,"geoidSep":-33.430,"eph":0.000,"sep":0.000}
$GPGSV,3,1,09,31,68,031,26,26,60,187,45,22,42,266,48,03,37,295,45*75
$GPGSV,3,2,09,32,34,123,30,16,31,198,49,29,20,079,22,25,19,043,33*73
$GPGSV,3,3,09,23,12,307,18*4F
{"class":"SKY","time":"2019-12-22T20:14:39.000Z","xdop":3.16,"ydop":1.74,"vdop":0.00,"tdop":1.00,"hdop":0.00,"gdop":1.00,"pdop":0.00,"satellites":[{"PRN":31,"el":68.0,"az":31.0,"ss":26.0,"used":true,"gnssid":0,"svid":31},{"PRN":26,"el":60.0,"az":187.0,"ss":45.0,"used":true,"gnssid":0,"svid":26},{"PRN":22,"el":42.0,"az":266.0,"ss":48.0,"used":true,"gnssid":0,"svid":22},{"PRN":3,"el":37.0,"az":295.0,"ss":45.0,"used":true,"gnssid":0,"svid":3},{"PRN":32,"el":34.0,"az":123.0,"ss":30.0,"used":true,"gnssid":0,"svid":32},{"PRN":16,"el":31.0,"az":198.0,"ss":49.0,"used":true,"gnssid":0,"svid":16},{"PRN":29,"el":20.0,"az":79.0,"ss":22.0,"used":true,"gnssid":0,"svid":29},{"PRN":25,"el":19.0,"az":43.0,"ss":33.0,"used":true,"gnssid":0,"svid":25},{"PRN":23,"el":12.0,"az":307.0,"ss":18.0,"used":true,"gnssid":0,"svid":23}]}
$GPGSV,3,1,10,31,68,031,26,26,60,187,45,22,42,266,48,03,37,295,45*7D
$GPGSV,3,2,10,32,34,123,30,16,31,198,49,29,20,079,22,25,19,043,33*7B
$GPGSV,3,3,10,23,12,307,18,14,63,108,00*7E
{"class":"SKY","time":"2019-12-22T20:14:39.000Z","xdop":3.16,"ydop":1.74,"vdop":0.00,"tdop":1.00,"hdop":0.00,"gdop":1.00,"pdop":0.00,"satellites":[{"PRN":31,"el":68.0,"az":31.0,"ss":26.0,"used":true,"gnssid":0,"svid":31},{"PRN":26,"el":60.0,"az":187.0,"ss":45.0,"used":true,"gnssid":0,"svid":26},{"PRN":22,"el":42.0,"az":266.0,"ss":48.0,"used":true,"gnssid":0,"svid":22},{"PRN":3,"el":37.0,"az":295.0,"ss":45.0,"used":true,"gnssid":0,"svid":3},{"PRN":32,"el":34.0,"az":123.0,"ss":30.0,"used":true,"gnssid":0,"svid":32},{"PRN":16,"el":31.0,"az":198.0,"ss":49.0,"used":true,"gnssid":0,"svid":16},{"PRN":29,"el":20.0,"az":79.0,"ss":22.0,"used":true,"gnssid":0,"svid":29},{"PRN":25,"el":19.0,"az":43.0,"ss":33.0,"used":true,"gnssid":0,"svid":25},{"PRN":23,"el":12.0,"az":307.0,"ss":18.0,"used":true,"gnssid":0,"svid":23},{"PRN":14,"el":63.0,"az":108.0,"ss":0.0,"used":false,"gnssid":0,"svid":14}]}
$GPGGA,201440.00,4120.3657,N,07542.3644,W,1,09,0.00,252.14,M,-33.430,M,,*5F
$GPRMC,201440.00,A,4120.3657,N,07542.3644,W,0.0000,,221219,-12.1,W*50
$GPGSA,A,3,31,26,22,3,32,16,29,25,23,,,,0.0,0.0,0.0*0C
$GPGBS,201440.00,47.366,26.111,0.000,,,,*47
{"class":"TPV","mode":3,"time":"2019-12-22T20:14:40.000Z","leapseconds":18,"ept":0.005,"lat":41.339427963,"lon":-75.706073822,"altHAE":218.708,"altMSL":252.139,"alt":252.139,"epx":47.366,"epy":26.111,"epv":0.000,"magvar":-12.1,"speed":0.000,"climb":0.000,"eps":94.73,"epc":0.00,"geoidSep":-33.430,"eph":0.000,"sep":0.000}
$GPGGA,201441.00,4120.3657,N,07542.3644,W,1,09,0.00,252.14,M,-33.430,M,,*5E
$GPRMC,201441.00,A,4120.3657,N,07542.3644,W,0.0000,,221219,-12.1,W*51
$GPGSA,A,3,31,26,22,3,32,16,29,25,23,,,,0.0,0.0,0.0*0C
$GPGBS,201441.00,47.366,26.111,0.000,,,,*46
{"class":"TPV","mode":3,"time":"2019-12-22T20:14:41.000Z","leapseconds":18,"ept":0.005,"lat":41.339427963,"lon":-75.706073822,"altHAE":218.708,"altMSL":252.139,"alt":252.139,"epx":47.366,"epy":26.111,"epv":0.000,"magvar":-12.1,"speed":0.000,"climb":0.000,"eps":94.73,"epc":0.00,"geoidSep":-33.430,"eph":0.000,"sep":0.000}
$GPGGA,201442.00,4120.3657,N,07542.3644,W,1,09,0.00,252.14,M,-33.430,M,,*5D
$GPRMC,201442.00,A,4120.3657,N,07542.3644,W,0.0000,,221219,-12.1,W*52
$GPGSA,A,3,31,26,22,3,32,16,29,25,23,,,,0.0,0.0,0.0*0C
$GPGBS,201442.00,47.366,26.111,0.000,,,,*45
{"class":"TPV","mode":3,"time":"2019-12-22T20:14:42.000Z","leapseconds":18,"ept":0.005,"lat":41.339427963,"lon":-75.706073822,"altHAE":218.708,"altMSL":252.139,"alt":252.139,"epx":47.366,"epy":26.111,"epv":0.000,"magvar":-12.1,"speed":0.000,"climb":0.000,"eps":94.73,"epc":0.00,"geoidSep":-33.430,"eph":0.000,"sep":0.000}
$GPGGA,201443.00,4120.3657,N,07542.3644,W,1,09,0.00,252.14,M,-33.430,M,,*5C
$GPRMC,201443.00,A,4120.3657,N,07542.3644,W,0.0000,,221219,-12.1,W*53
$GPGSA,A,3,31,26,22,3,32,16,29,25,23,,,,0.0,0.0,0.0*0C
$GPGBS,201443.00,47.366,26.111,0.000,,,,*44
{"class":"TPV","mode":3,"time":"2019-12-22T20:14:43.000Z","leapseconds":18,"ept":0.005,"lat":41.339427963,"lon":-75.706073822,"altHAE":218.708,"altMSL":252.139,"alt":252.139,"epx":47.366,"epy":26.111,"epv":0.000,"magvar":-12.1,"speed":0.000,"climb":0.000,"eps":94.73,"epc":0.00,"geoidSep":-33.430,"eph":0.000,"sep":0.000}
$GPGGA,201444.00,4120.3657,N,07542.3644,W,1,09,0.00,252.14,M,-33.430,M,,*5B
$GPRMC,201444.00,A,4120.3657,N,07542.3644,W,0.0000,,221219,-12.1,W*54
$GPGSA,A,3,31,26,22,3,32,16,29,25,23,,,,0.0,0.0,0.0*0C
$GPGBS,201444.00,47.366,26.111,0.000,,,,*43
{"class":"TPV","mode":3,"time":"2019-12-22T20:14:44.000Z","leapseconds":18,"ept":0.005,"lat":41.339427963,"lon":-75.706073822,"altHAE":218.708,"altMSL":252.139,"alt":252.139,"epx":47.366,"epy":26.111,"epv":0.000,"magvar":-12.1,"speed":0.000,"climb":0.000,"eps":94.73,"epc":0.00,"geoidSep":-33.430,"eph":0.000,"sep":0.000}
$GPGGA,201445.00,4120.3657,N,07542.3644,W,1,09,0.00,252.14,M,-33.430,M,,*5A
$GPRMC,201445.00,A,4120.3657,N,07542.3644,W,0.0000,,221219,-12.1,W*55
$GPGSA,A,3,31,26,22,3,32,16,29,25,23,,,,0.0,0.0,0.0*0C
$GPGBS,201445.00,47.366,26.111,0.000,,,,*42
{"class":"TPV","mode":3,"time":"2019-12-22T20:14:45.000Z","leapseconds":18,"ept":0.005,"lat":41.339427963,"lon":-75.706073822,"altHAE":218.708,"altMSL":252.139,"alt":252.139,"epx":47.366,"epy":26.111,"epv":0.000,"magvar":-12.1,"speed":0.000,"climb":0.000,"eps":94.73,"epc":0.00,"geoidSep":-33.430,"eph":0.000,"sep":0.000}
$GPGGA,201445.00,4120.3657,N,07542.3644,W,7,10,0.00,252.14,M,-33.430,M,,*54
$GPRMC,201445.00,A,4120.3657,N,07542.3644,W,0.0000,,221219,-12.1,W*55
$GPGSA,A,3,31,26,22,3,32,16,29,25,23,,,,0.0,0.0,0.0*0C
$GPGBS,201445.00,47.366,26.111,0.000,,,,*42
{"class":"TPV","status":7,"mode":3,"time":"2019-12-22T20:14:45.000Z","leapseconds":18,"ept":0.005,"lat":41.339427963,"lon":-75.706073822,"altHAE":218.708,"altMSL":252.139,"alt":252.139,"epx":47.366,"epy":26.111,"epv":0.000,"magvar":-12.1,"speed":0.000,"climb":0.000,"eps":94.73,"epc":0.00,"geoidSep":-33.430,"eph":0.000,"sep":0.000}
$GPGSV,3,1,09,31,68,032,34,14,63,108,26,26,60,187,46,22,42,266,48*73
$GPGSV,3,2,09,03,37,295,43,32,34,123,32,16,31,198,48,29,20,079,24*70
$GPGSV,3,3,09,25,19,043,31*4A
{"class":"SKY","time":"2019-12-22T20:14:45.000Z","xdop":3.16,"ydop":1.74,"vdop":0.00,"tdop":1.00,"hdop":0.00,"gdop":1.00,"pdop":0.00,"satellites":[{"PRN":31,"el":68.0,"az":32.0,"ss":34.0,"used":true,"gnssid":0,"svid":31},{"PRN":14,"el":63.0,"az":108.0,"ss":26.0,"used":true,"gnssid":0,"svid":14},{"PRN":26,"el":60.0,"az":187.0,"ss":46.0,"used":true,"gnssid":0,"svid":26},{"PRN":22,"el":42.0,"az":266.0,"ss":48.0,"used":true,"gnssid":0,"svid":22},{"PRN":3,"el":37.0,"az":295.0,"ss":43.0,"used":true,"gnssid":0,"svid":3},{"PRN":32,"el":34.0,"az":123.0,"ss":32.0,"used":true,"gnssid":0,"svid":32},{"PRN":16,"el":31.0,"az":198.0,"ss":48.0,"used":true,"gnssid":0,"svid":16},{"PRN":29,"el":20.0,"az":79.0,"ss":24.0,"used":true,"gnssid":0,"svid":29},{"PRN":25,"el":19.0,"az":43.0,"ss":31.0,"used":true,"gnssid":0,"svid":25}]}
$GPGSV,3,1,10,31,68,032,34,14,63,108,26,26,60,187,46,22,42,266,48*7B
$GPGSV,3,2,10,03,37,295,43,32,34,123,32,16,31,198,48,29,20,079,24*78
$GPGSV,3,3,10,25,19,043,31,23,12,307,21*77
{"class":"SKY","time":"2019-12-22T20:14:45.000Z","xdop":3.16,"ydop":1.74,"vdop":0.00,"tdop":1.00,"hdop":0.00,"gdop":1.00,"pdop":0.00,"satellites":[{"PRN":31,"el":68.0,"az":32.0,"ss":34.0,"used":true,"gnssid":0,"svid":31},{"PRN":14,"el":63.0,"az":108.0,"ss":26.0,"used":true,"gnssid":0,"svid":14},{"PRN":26,"el":60.0,"az":187.0,"ss":46.0,"used":true,"gnssid":0,"svid":26},{"PRN":22,"el":42.0,"az":266.0,"ss":48.0,"used":true,"gnssid":0,"svid":22},{"PRN":3,"el":37.0,"az":295.0,"ss":43.0,"used":true,"gnssid":0,"svid":3},{"PRN":32,"el":34.0,"az":123.0,"ss":32.0,"used":true,"gnssid":0,"svid":32},{"PRN":16,"el":31.0,"az":198.0,"ss":48.0,"used":true,"gnssid":0,"svid":16},{"PRN":29,"el":20.0,"az":79.0,"ss":24.0,"used":true,"gnssid":0,"svid":29},{"PRN":25,"el":19.0,"az":43.0,"ss":31.0,"used":true,"gnssid":0,"svid":25},{"PRN":23,"el":12.0,"az":307.0,"ss":21.0,"used":true,"gnssid":0,"svid":23}]}
$GPGGA,201446.00,4120.3657,N,07542.3644,W,1,10,0.00,252.14,M,-33.430,M,,*51
$GPRMC,201446.00,A,4120.3657,N,07542.3644,W,0.0000,,221219,-12.1,W*56
$GPGSA,A,3,31,14,26,22,3,32,16,29,25,23,,,0.0,0.0,0.0*09
$GPGBS,201446.00,47.366,26.111,0.000,,,,*41
{"class":"TPV","mode":3,"time":"2019-12-22T20:14:46.000Z","leapseconds":18,"ept":0.005,"lat":41.339427963,"lon":-75.706073822,"altHAE":218.708,"altMSL":252.139,"alt":252.139,"epx":47.366,"epy":26.111,"epv":0.000,"magvar":-12.1,"speed":0.000,"climb":0.000,"eps":94.73,"epc":0.00,"geoidSep":-33.430,"eph":0.000,"sep":0.000}
$GPGGA,201447.00,4120.3657,N,07542.3644,W,1,10,0.00,252.14,M,-33.430,M,,*50
$GPRMC,201447.00,A,4120.3657,N,07542.3644,W,0.0000,,221219,-12.1,W*57
$GPGSA,A,3,31,14,26,22,3,32,16,29,25,23,,,0.0,0.0,0.0*09
$GPGBS,201447.00,47.366,26.111,0.000,,,,*40
{"class":"TPV","mode":3,"time":"2019-12-22T20:14:47.000Z","leapseconds":18,"ept":0.005,"lat":41.339427963,"lon":-75.706073822,"altHAE":218.708,"altMSL":252.139,"alt":252.139,"epx":47.366,"epy":26.111,"epv":0.000,"magvar":-12.1,"speed":0.000,"climb":0.000,"eps":94.73,"epc":0.00,"geoidSep":-33.430,"eph":0.000,"sep":0.000}
$GPGGA,201448.00,4120.3657,N,07542.3644,W,1,10,0.00,252.14,M,-33.430,M,,*5F
$GPRMC,201448.00,A,4120.3657,N,07542.3644,W,0.0000,,221219,-12.1,W*58
$GPGSA,A,3,31,14,26,22,3,32,16,29,25,23,,,0.0,0.0,0.0*09
$GPGBS,201448.00,47.366,26.111,0.000,,,,*4F
{"class":"TPV","mode":3,"time":"2019-12-22T20:14:48.000Z","leapseconds":18,"ept":0.005,"lat":41.339427963,"lon":-75.706073822,"altHAE":218.708,"altMSL":252.139,"alt":252.139,"epx":47.366,"epy":26.111,"epv":0.000,"magvar":-12.1,"speed":0.000,"climb":0.000,"eps":94.73,"epc":0.00,"geoidSep":-33.430,"eph":0.000,"sep":0.000}
$GPGGA,201449.00,4120.3657,N,07542.3644,W,1,10,0.00,252.14,M,-33.430,M,,*5E
$GPRMC,201449.00,A,4120.3657,N,07542.3644,W,0.0000,,221219,-12.1,W*59
$GPGSA,A,3,31,14,26,22,3,32,16,29,25,23,,,0.0,0.0,0.0*09
$GPGBS,201449.00,47.366,26.111,0.000,,,,*4E
{"class":"TPV","mode":3,"time":"2019-12-22T20:14:49.000Z","leapseconds":18,"ept":0.005,"lat":41.339427963,"lon":-75.706073822,"altHAE":218.708,"altMSL":252.139,"alt":252.139,"epx":47.366,"epy":26.111,"epv":0.000,"magvar":-12.1,"speed":0.000,"climb":0.000,"eps":94.73,"epc":0.00,"geoidSep":-33.430,"eph":0.000,"sep":0.000}
$GPGGA,201450.00,4120.3657,N,07542.3644,W,1,10,0.00,252.14,M,-33.430,M,,*56
$GPRMC,201450.00,A,4120.3657,N,07542.3644,W,0.0000,,221219,-12.1,W*51
$GPGSA,A,3,31,14,26,22,3,32,16,29,25,23,,,0.0,0.0,0.0*09
$GPGBS,201450.00,47.366,26.111,0.000,,,,*46
{"class":"TPV","mode":3,"time":"2019-12-22T20:14:50.000Z","leapseconds":18,"ept":0.005,"lat":41.339427963,"lon":-75.706073822,"altHAE":218.708,"altMSL":252.139,"alt":252.139,"epx":47.366,"epy":26.111,"epv":0.000,"magvar":-12.1,"speed":0.000,"climb":0.000,"eps":94.73,"epc":0.00,"geoidSep":-33.430,"eph":0.000,"sep":0.000}
$GPGGA,201451.00,4120.3657,N,07542.3644,W,1,10,0.00,252.14,M,-33.430,M,,*57
$GPRMC,201451.00,A,4120.3657,N,07542.3644,W,0.0000,,221219,-12.1,W*50
$GPGSA,A,3,31,14,26,22,3,32,16,29,25,23,,,0.0,0.0,0.0*09
$GPGBS,201451.00,47.366,26.111,0.000,,,,*47
{"class":"TPV","mode":3,"time":"2019-12-22T20:14:51.000Z","leapseconds":18,"ept":0.005,"lat":41.339427963,"lon":-75.706073822,"altHAE":218.708,"altMSL":252.139,"alt":252.139,"epx":47.366,"epy":26.111,"epv":0.000,"magvar":-12.1,"speed":0.000,"climb":0.000,"eps":94.73,"epc":0.00,"geoidSep":-33.430,"eph":0.000,"sep":0.000}
$GPGGA,201451.00,4120.3657,N,07542.3644,W,7,10,0.00,252.14,M,-33.430,M,,*51
$GPRMC,201451.00,A,4120.3657,N,07542.3644,W,0.0000,,221219,-12.1,W*50
$GPGSA,A,3,31,14,26,22,3,32,16,29,25,23,,,0.0,0.0,0.0*09
$GPGBS,201451.00,47.366,26.111,0.000,,,,*47
{"class":"TPV","status":7,"mode":3,"time":"2019-12-22T20:14:51.000Z","leapseconds":18,"ept":0.005,"lat":41.339427963,"lon":-75.706073822,"altHAE":218.708,"altMSL":252.139,"alt":252.139,"epx":47.366,"epy":26.111,"epv":0.000,"magvar":-12.1,"speed":0.000,"climb":0.000,"eps":94.73,"epc":0.00,"geoidSep":-33.430,"eph":0.000,"sep":0.000}
$GPGSV,3,1,09,31,68,032,37,14,63,108,25,26,60,187,45,22,42,266,47*7F
$GPGSV,3,2,09,03,37,295,41,32,34,123,21,16,31,198,48,29,20,079,31*74
$GPGSV,3,3,09,25,19,043,28*42
{"class":"SKY","time":"2019-12-22T20:14:51.000Z","xdop":3.16,"ydop":1.74,"vdop":0.00,"tdop":1.00,"hdop":0.00,"gdop":1.00,"pdop":0.00,"satellites":[{"PRN":31,"el":68.0,"az":32.0,"ss":37.0,"used":true,"gnssid":0,"svid":31},{"PRN":14,"el":63.0,"az":108.0,"ss":25.0,"used":true,"gnssid":0,"svid":14},{"PRN":26,"el":60.0,"az":187.0,"ss":45.0,"used":true,"gnssid":0,"svid":26},{"PRN":22,"el":42.0,"az":266.0,"ss":47.0,"used":true,"gnssid":0,"svid":22},{"PRN":3,"el":37.0,"az":295.0,"ss":41.0,"used":true,"gnssid":0,"svid":3},{"PRN":32,"el":34.0,"az":123.0,"ss":21.0,"used":true,"gnssid":0,"svid":32},{"PRN":16,"el":31.0,"az":198.0,"ss":48.0,"used":true,"gnssid":0,"svid":16},{"PRN":29,"el":20.0,"az":79.0,"ss":31.0,"used":true,"gnssid":0,"svid":29},{"PRN":25,"el":19.0,"az":43.0,"ss":28.0,"used":true,"gnssid":0,"svid":25}]}
$GPGSV,3,1,10,31,68,032,37,14,63,108,25,26,60,187,45,22,42,266,47*77
$GPGSV,3,2,10,03,37,295,41,32,34,123,21,16,31,198,48,29,20,079,31*7C
$GPGSV,3,3,10,25,19,043,28,23,12,307,21*7F
{"class":"SKY","time":"2019-12-22T20:14:51.000Z","xdop":3.16,"ydop":1.74,"vdop":0.00,"tdop":1.00,"hdop":0.00,"gdop":1.00,"pdop":0.00,"satellites":[{"PRN":31,"el":68.0,"az":32.0,"ss":37.0,"used":true,"gnssid":0,"svid":31},{"PRN":14,"el":63.0,"az":108.0,"ss":25.0,"used":true,"gnssid":0,"svid":14},{"PRN":26,"el":60.0,"az":187.0,"ss":45.0,"used":true,"gnssid":0,"svid":26},{"PRN":22,"el":42.0,"az":266.0,"ss":47.0,"used":true,"gnssid":0,"svid":22},{"PRN":3,"el":37.0,"az":295.0,"ss":41.0,"used":true,"gnssid":0,"svid":3},{"PRN":32,"el":34.0,"az":123.0,"ss":21.0,"used":true,"gnssid":0,"svid":32},{"PRN":16,"el":31.0,"az":198.0,"ss":48.0,"used":true,"gnssid":0,"svid":16},{"PRN":29,"el":20.0,"az":79.0,"ss":31.0,"used":true,"gnssid":0,"svid":29},{"PRN":25,"el":19.0,"az":43.0,"ss":28.0,"used":true,"gnssid":0,"svid":25},{"PRN":23,"el":12.0,"az":307.0,"ss":21.0,"used":true,"gnssid":0,"svid":23}]}
$GPGGA,201452.00,4120.3657,N,07542.3644,W,1,10,0.00,252.14,M,-33.430,M,,*54
$GPRMC,201452.00,A,4120.3657,N,07542.3644,W,0.0000,,221219,-12.1,W*53
$GPGSA,A,3,31,14,26,22,3,32,16,29,25,23,,,0.0,0.0,0.0*09
$GPGBS,201452.00,47.366,26.111,0.000,,,,*44
{"class":"TPV","mode":3,"time":"2019-12-22T20:14:52.000Z","leapseconds":18,"ept":0.005,"lat":41.339427963,"lon":-75.706073822,"altHAE":218.708,"altMSL":252.139,"alt":252.139,"epx":47.366,"epy":26.111,"epv":0.000,"magvar":-12.1,"speed":0.000,"climb":0.000,"eps":94.73,"epc":0.00,"geoidSep":-33.430,"eph":0.000,"sep":0.000}
$GPGGA,201453.00,4120.3657,N,07542.3644,W,1,10,0.00,252.14,M,-33.430,M,,*55
$GPRMC,201453.00,A,4120.3657,N,07542.3644,W,0.0000,,221219,-12.1,W*52
$GPGSA,A,3,31,14,26,22,3,32,16,29,25,23,,,0.0,0.0,0.0*09
$GPGBS,201453.00,47.366,26.111,0.000,,,,*45
{"class":"TPV","mode":3,"time":"2019-12-22T20:14:53.000Z","leapseconds":18,"ept":0.005,"lat":41.339427963,"lon":-75.706073822,"altHAE":218.708,"altMSL":252.139,"alt":252.139,"epx":47.366,"epy":26.111,"epv":0.000,"magvar":-12.1,"speed":0.000,"climb":0.000,"eps":94.73,"epc":0.00,"geoidSep":-33.430,"eph":0.000,"sep":0.000}
$GPGGA,201454.00,4120.3657,N,07542.3644,W,1,10,0.00,252.14,M,-33.430,M,,*52
$GPRMC,201454.00,A,4120.3657,N,07542.3644,W,0.0000,,221219,-12.1,W*55
$GPGSA,A,3,31,14,26,22,3,32,16,29,25,23,,,0.0,0.0,0.0*09
$GPGBS,201454.00,47.366,26.111,0.000,,,,*42
{"class":"TPV","mode":3,"time":"2019-12-22T20:14:54.000Z","leapseconds":18,"ept":0.005,"lat":41.339427963,"lon":-75.706073822,"altHAE":218.708,"altMSL":252.139,"alt":252.139,"epx":47.366,"epy":26.111,"epv":0.000,"magvar":-12.1,"speed":0.000,"climb":0.000,"eps":94.73,"epc":0.00,"geoidSep":-33.430,"eph":0.000,"sep":0.000}
$GPGGA,201455.00,4120.3657,N,07542.3644,W,1,10,0.00,252.14,M,-33.430,M,,*53
$GPRMC,201455.00,A,4120.3657,N,07542.3644,W,0.0000,,221219,-12.1,W*54
$GPGSA,A,3,31,14,26,22,3,32,16,29,25,23,,,0.0,0.0,0.0*09
$GPGBS,201455.00,47.366,26.111,0.000,,,,*43
{"class":"TPV","mode":3,"time":"2019-12-22T20:14:55.000Z","leapseconds":18,"ept":0.005,"lat":41.339427963,"lon":-75.706073822,"altHAE":218.708,"altMSL":252.139,"alt":252.139,"epx":47.366,"epy":26.111,"epv":0.000,"magvar":-12.1,"speed":0.000,"climb":0.000,"eps":94.73,"epc":0.00,"geoidSep":-33.430,"eph":0.000,"sep":0.000}
$GPGGA,201456.00,4120.3657,N,07542.3644,W,1,10,0.00,252.14,M,-33.430,M,,*50
$GPRMC,201456.00,A,4120.3657,N,07542.3644,W,0.0000,,221219,-12.1,W*57
$GPGSA,A,3,31,14,26,22,3,32,16,29,25,23,,,0.0,0.0,0.0*09
$GPGBS,201456.00,47.366,26.111,0.000,,,,*40
{"class":"TPV","mode":3,"time":"2019-12-22T20:14:56.000Z","leapseconds":18,"ept":0.005,"lat":41.339427963,"lon":-75.706073822,"altHAE":218.708,"altMSL":252.139,"alt":252.139,"epx":47.366,"epy":26.111,"epv":0.000,"magvar":-12.1,"speed":0.000,"climb":0.000,"eps":94.73,"epc":0.00,"geoidSep":-33.430,"eph":0.000,"sep":0.000}
$GPGGA,201457.00,4120.3657,N,07542.3644,W,1,10,0.00,252.14,M,-33.430,M,,*51
$GPRMC,201457.00,A,4120.3657,N,07542.3644,W,0.0000,,221219,-12.1,W*56
$GPGSA,A,3,31,14,26,22,3,32,16,29,25,23,,,0.0,0.0,0.0*09
$GPGBS,201457.00,47.366,26.111,0.000,,,,*41
{"class":"TPV","mode":3,"time":"2019-12-22T20:14:57.000Z","leapseconds":18,"ept":0.005,"lat":41.339427963,"lon":-75.706073822,"altHAE":218.708,"altMSL":252.139,"alt":252.139,"epx":47.366,"epy":26.111,"epv":0.000,"magvar":-12.1,"speed":0.000,"climb":0.000,"eps":94.73,"epc":0.00,"geoidSep":-33.430,"eph":0.000,"sep":0.000}
$GPGGA,201457.00,4120.3657,N,07542.3644,W,7,10,0.00,252.14,M,-33.430,M,,*57
$GPRMC,201457.00,A,4120.3657,N,07542.3644,W,0.0000,,221219,-12.1,W*56
$GPGSA,A,3,31,14,26,22,3,32,16,29,25,23,,,0.0,0.0,0.0*09
$GPGBS,201457.00,47.366,26.111,0.000,,,,*41
{"class":"TPV","status":7,"mode":3,"time":"2019-12-22T20:14:57.000Z","leapseconds":18,"ept":0.005,"lat":41.339427963,"lon":-75.706073822,"altHAE":218.708,"altMSL":252.139,"alt":252.139,"epx":47.366,"epy":26.111,"epv":0.000,"magvar":-12.1,"speed":0.000,"climb":0.000,"eps":94.73,"epc":0.00,"geoidSep":-33.430,"eph":0.000,"sep":0.000}
$GPGSV,3,1,09,31,68,032,34,14,63,108,29,26,60,187,44,22,42,266,47*71
$GPGSV,3,2,09,03,37,295,43,32,34,123,25,16,31,198,48,29,20,079,25*77
$GPGSV,3,3,09,25,19,043,26*4C
{"class":"SKY","time":"2019-12-22T20:14:57.000Z","xdop":3.16,"ydop":1.74,"vdop":0.00,"tdop":1.00,"hdop":0.00,"gdop":1.00,"pdop":0.00,"satellites":[{"PRN":31,"el":68.0,"az":32.0,"ss":34.0,"used":true,"gnssid":0,"svid":31},{"PRN":14,"el":63.0,"az":108.0,"ss":29.0,"used":true,"gnssid":0,"svid":14},{"PRN":26,"el":60.0,"az":187.0,"ss":44.0,"used":true,"gnssid":0,"svid":26},{"PRN":22,"el":42.0,"az":266.0,"ss":47.0,"used":true,"gnssid":0,"svid":22},{"PRN":3,"el":37.0,"az":295.0,"ss":43.0,"used":true,"gnssid":0,"svid":3},{"PRN":32,"el":34.0,"az":123.0,"ss":25.0,"used":true,"gnssid":0,"svid":32},{"PRN":16,"el":31.0,"az":198.0,"ss":48.0,"used":true,"gnssid":0,"svid":16},{"PRN":29,"el":20.0,"az":79.0,"ss":25.0,"used":true,"gnssid":0,"svid":29},{"PRN":25,"el":19.0,"az":43.0,"ss":26.0,"used":true,"gnssid":0,"svid":25}]}
$GPGSV,3,1,10,31,68,032,34,14,63,108,29,26,60,187,44,22,42,266,47*79
$GPGSV,3,2,10,03,37,295,43,32,34,123,25,16,31,198,48,29,20,079,25*7F
$GPGSV,3,3,10,25,19,043,26,23,12,307,20*70
{"class":"SKY","time":"2019-12-22T20:14:57.000Z","xdop":3.16,"ydop":1.74,"vdop":0.00,"tdop":1.00,"hdop":0.00,"gdop":1.00,"pdop":0.00,"satellites":[{"PRN":31,"el":68.0,"az":32.0,"ss":34.0,"used":true,"gnssid":0,"svid":31},{"PRN":14,"el":63.0,"az":108.0,"ss":29.0,"used":true,"gnssid":0,"svid":14},{"PRN":26,"el":60.0,"az":187.0,"ss":44.0,"used":true,"gnssid":0,"svid":26},{"PRN":22,"el":42.0,"az":266.0,"ss":47.0,"used":true,"gnssid":0,"svid":22},{"PRN":3,"el":37.0,"az":295.0,"ss":43.0,"used":true,"gnssid":0,"svid":3},{"PRN":32,"el":34.0,"az":123.0,"ss":25.0,"used":true,"gnssid":0,"svid":32},{"PRN":16,"el":31.0,"az":198.0,"ss":48.0,"used":true,"gnssid":0,"svid":16},{"PRN":29,"el":20.0,"az":79.0,"ss":25.0,"used":true,"gnssid":0,"svid":29},{"PRN":25,"el":19.0,"az":43.0,"ss":26.0,"used":true,"gnssid":0,"svid":25},{"PRN":23,"el":12.0,"az":307.0,"ss":20.0,"used":true,"gnssid":0,"svid":23}]}
$GPGGA,201458.00,4120.3657,N,07542.3644,W,1,10,0.00,252.14,M,-33.430,M,,*5E
$GPRMC,201458.00,A,4120.3657,N,07542.3644,W,0.0000,,221219,-12.1,W*59
$GPGSA,A,3,31,14,26,22,3,32,16,29,25,23,,,0.0,0.0,0.0*09
$GPGBS,201458.00,47.366,26.111,0.000,,,,*4E
{"class":"TPV","mode":3,"time":"2019-12-22T20:14:58.000Z","leapseconds":18,"ept":0.005,"lat":41.339427963,"lon":-75.706073822,"altHAE":218.708,"altMSL":252.139,"alt":252.139,"epx":47.366,"epy":26.111,"epv":0.000,"magvar":-12.1,"speed":0.000,"climb":0.000,"eps":94.73,"epc":0.00,"geoidSep":-33.430,"eph":0.000,"sep":0.000}
$GPGGA,201459.00,4120.3657,N,07542.3644,W,1,10,0.00,252.14,M,-33.430,M,,*5F
$GPRMC,201459.00,A,4120.3657,N,07542.3644,W,0.0000,,221219,-12.1,W*58
$GPGSA,A,3,31,14,26,22,3,32,16,29,25,23,,,0.0,0.0,0.0*09
$GPGBS,201459.00,47.366,26.111,0.000,,,,*4F
{"class":"TPV","mode":3,"time":"2019-12-22T20:14:59.000Z","leapseconds":18,"ept":0.005,"lat":41.339427963,"lon":-75.706073822,"altHAE":218.708,"altMSL":252.139,"alt":252.139,"epx":47.366,"epy":26.111,"epv":0.000,"magvar":-12.1,"speed":0.000,"climb":0.000,"eps":94.73,"epc":0.00,"geoidSep":-33.430,"eph":0.000,"sep":0.000}
