$GPGGA,,,S,,W,1,05,2.55,,M,,M,,*7A
$GPRMC,,A,,S,,W,,,,,*22
$GPGSA,A,3,,,,,,,,,,,,,3.7,2.6,2.7*37
{"class":"TPV","mode":3,"epv":62.675,"eph":48.490,"sep":70.936}
$GPGGA,012419.63,,S,,W,1,05,2.55,,M,,M,,*5E
$GPRMC,012419.63,A,,S,,W,,,261106,,*04
$GPGSA,A,3,,,,,,,,,,,,,3.7,2.6,2.7*37
{"class":"TPV","mode":3,"time":"2006-11-26T01:24:19.630Z","leapseconds":14,"ept":0.005,"epv":62.675,"eph":48.490,"sep":70.936}
$GPGGA,012419.63,,S,,W,1,05,2.55,,M,,M,,*5E
$GPRMC,012419.63,A,,S,,W,,,261106,,*04
$GPGSA,A,3,6,29,2,21,30,10,7,,,,,,3.7,2.6,2.7*0E
{"class":"TPV","mode":3,"time":"2006-11-26T01:24:19.630Z","leapseconds":14,"ept":0.005,"epv":62.675,"eph":48.490,"sep":70.936}
$GPGGA,012419.63,,S,,W,1,05,2.55,,M,,M,,*5E
$GPRMC,012419.63,A,,S,,W,,,261106,,*04
$GPGSA,A,3,6,29,2,21,30,10,7,,,,,,3.7,2.6,2.7*0E
{"class":"TPV","mode":3,"time":"2006-11-26T01:24:19.630Z","leapseconds":14,"ept":0.005,"epv":62.675,"eph":48.490,"sep":70.936}
$GPGGA,012424.46,,S,,W,1,05,2.55,,M,,M,,*57
$GPRMC,012424.46,A,,S,,W,,,261106,,*0D
$GPGSA,A,3,6,29,2,21,30,10,7,,,,,,3.7,2.6,2.7*0E
{"class":"TPV","mode":3,"time":"2006-11-26T01:24:24.463Z","leapseconds":14,"ept":0.005,"epv":62.675,"epc":25.94,"eph":48.490,"sep":70.936}
$GPGGA,012424.46,,S,,W,1,05,2.55,,M,,M,,*57
$GPRMC,012424.46,A,,S,,W,,,261106,,*0D
$GPGSA,A,3,6,29,2,21,30,10,7,,,,,,3.7,2.6,2.7*0E
{"class":"TPV","mode":3,"time":"2006-11-26T01:24:24.463Z","leapseconds":14,"ept":0.005,"epv":62.675,"epc":25.94,"eph":48.490,"sep":70.936}
$GPGSV,3,1,09,26,06,138,00,24,14,077,34,06,77,232,26,29,14,126,29*7F
$GPGSV,3,2,09,02,16,079,38,21,35,257,26,30,22,204,32,10,54,073,41*75
$GPGSV,3,3,09,07,40,297,29*44
{"class":"SKY","xdop":0.62,"ydop":0.98,"vdop":2.72,"tdop":2.15,"hdop":2.55,"gdop":4.30,"pdop":3.73,"satellites":[{"PRN":26,"el":5.8,"az":138.0,"ss":0.0,"used":false,"gnssid":0,"svid":26},{"PRN":24,"el":13.9,"az":76.7,"ss":34.0,"used":true,"gnssid":0,"svid":24},{"PRN":6,"el":77.3,"az":232.2,"ss":26.0,"used":true,"gnssid":0,"svid":6},{"PRN":29,"el":14.4,"az":126.4,"ss":29.0,"used":true,"gnssid":0,"svid":29},{"PRN":2,"el":16.3,"az":79.4,"ss":38.0,"used":true,"gnssid":0,"svid":2},{"PRN":21,"el":34.8,"az":257.3,"ss":26.0,"used":true,"gnssid":0,"svid":21}]}
$GPGGA,012424.46,,S,,W,1,05,2.55,,M,,M,,*57
$GPRMC,012424.46,A,,S,,W,,,261106,,*0D
$GPGSA,A,3,24,6,29,2,21,30,10,7,,,,,3.7,2.6,2.7*08
$GPGBS,012424.46,9.338,14.739,62.675,,,,*4B
{"class":"TPV","mode":3,"time":"2006-11-26T01:24:24.463Z","leapseconds":14,"ept":0.005,"epx":9.338,"epy":14.739,"epv":62.675,"epc":25.94,"eph":48.490,"sep":70.936}
$GPGGA,012424.46,,S,,W,1,05,2.55,,M,,M,,*57
$GPRMC,012424.46,A,,S,,W,,,261106,,*0D
$GPGSA,A,3,24,6,29,2,21,30,10,7,,,,,3.7,2.5,2.7*0B
$GPGBS,012424.46,9.338,14.739,62.675,,,,*4B
{"class":"TPV","mode":3,"time":"2006-11-26T01:24:24.463Z","leapseconds":14,"ept":0.005,"epx":9.338,"epy":14.739,"epv":62.675,"epc":25.94,"eph":48.490,"sep":70.936}
$GPGGA,012424.46,,S,,W,1,05,2.55,,M,,M,,*57
$GPRMC,012424.46,A,,S,,W,,,261106,,*0D
$GPGSA,A,3,24,6,29,2,21,30,10,7,,,,,3.7,2.5,2.7*0B
$GPGBS,012424.46,9.338,14.739,62.675,,,,*4B
{"class":"TPV","mode":3,"time":"2006-11-26T01:24:24.463Z","leapseconds":14,"ept":0.005,"epx":9.338,"epy":14.739,"epv":62.675,"epc":25.94,"eph":48.490,"sep":70.936}
$GPGSV,3,1,09,26,06,138,00,24,14,077,32,06,77,232,26,29,14,126,28*78
$GPGSV,3,2,09,02,16,079,38,21,35,257,26,30,22,204,32,10,54,072,42*77
$GPGSV,3,3,09,07,40,297,29*44
{"class":"SKY","xdop":0.62,"ydop":0.98,"vdop":2.72,"tdop":2.14,"hdop":2.55,"gdop":4.30,"pdop":3.73,"satellites":[{"PRN":26,"el":5.8,"az":138.0,"ss":0.0,"used":false,"gnssid":0,"svid":26},{"PRN":24,"el":13.9,"az":76.7,"ss":32.0,"used":true,"gnssid":0,"svid":24},{"PRN":6,"el":77.3,"az":231.9,"ss":26.0,"used":true,"gnssid":0,"svid":6},{"PRN":29,"el":14.5,"az":126.4,"ss":28.0,"used":true,"gnssid":0,"svid":29},{"PRN":2,"el":16.2,"az":79.4,"ss":38.0,"used":true,"gnssid":0,"svid":2},{"PRN":21,"el":34.9,"az":257.3,"ss":26.0,"used":true,"gnssid":0,"svid":21}]}
$GPGGA,012434.49,,S,,W,1,05,2.55,,M,,M,,*59
$GPRMC,012434.49,A,,S,,W,,,261106,,*03
$GPGSA,A,3,24,6,29,2,21,30,10,7,,,,,3.7,2.5,2.7*0B
$GPGBS,012434.49,9.338,14.739,62.675,,,,*45
{"class":"TPV","mode":3,"time":"2006-11-26T01:24:34.491Z","leapseconds":14,"ept":0.005,"epx":9.338,"epy":14.739,"epv":62.675,"eps":2.94,"epc":25.94,"eph":48.490,"sep":70.936}
$GPGGA,012434.49,,S,,W,1,05,2.55,,M,,M,,*59
$GPRMC,012434.49,A,,S,,W,,,261106,,*03
$GPGSA,A,3,24,6,29,2,21,30,10,7,,,,,3.7,2.5,2.7*0B
$GPGBS,012434.49,9.338,14.739,62.675,,,,*45
{"class":"TPV","mode":3,"time":"2006-11-26T01:24:34.491Z","leapseconds":14,"ept":0.005,"epx":9.338,"epy":14.739,"epv":62.675,"eps":2.94,"epc":25.94,"eph":48.490,"sep":70.936}
$GPGGA,012434.49,,S,,W,1,05,2.55,,M,,M,,*59
$GPRMC,012434.49,A,,S,,W,,,261106,,*03
$GPGSA,A,3,24,6,29,2,21,30,10,7,,,,,3.7,2.5,2.7*0B
$GPGBS,012434.49,9.338,14.739,62.675,,,,*45
{"class":"TPV","mode":3,"time":"2006-11-26T01:24:34.491Z","leapseconds":14,"ept":0.005,"epx":9.338,"epy":14.739,"epv":62.675,"eps":2.94,"epc":25.94,"eph":48.490,"sep":70.936}
$GPGSV,3,1,09,26,06,138,00,24,14,077,33,06,77,232,26,29,15,126,27*77
$GPGSV,3,2,09,02,16,079,37,21,35,257,26,30,22,204,30,10,54,072,42*7A
$GPGSV,3,3,09,07,40,297,29*44
{"class":"SKY","xdop":0.62,"ydop":0.98,"vdop":2.72,"tdop":2.14,"hdop":2.55,"gdop":4.30,"pdop":3.73,"satellites":[{"PRN":26,"el":5.8,"az":138.0,"ss":0.0,"used":false,"gnssid":0,"svid":26},{"PRN":24,"el":13.8,"az":76.7,"ss":33.0,"used":true,"gnssid":0,"svid":24},{"PRN":6,"el":77.3,"az":231.8,"ss":26.0,"used":true,"gnssid":0,"svid":6},{"PRN":29,"el":14.5,"az":126.4,"ss":27.0,"used":true,"gnssid":0,"svid":29},{"PRN":2,"el":16.2,"az":79.4,"ss":37.0,"used":true,"gnssid":0,"svid":2},{"PRN":21,"el":34.9,"az":257.3,"ss":26.0,"used":true,"gnssid":0,"svid":21}]}
$GPGGA,012444.46,,S,,W,1,05,2.55,,M,,M,,*51
$GPRMC,012444.46,A,,S,,W,,,261106,,*0B
$GPGSA,A,3,24,6,29,2,21,30,10,7,,,,,3.7,2.5,2.7*0B
$GPGBS,012444.46,9.338,14.739,62.675,,,,*4D
{"class":"TPV","mode":3,"time":"2006-11-26T01:24:44.461Z","leapseconds":14,"ept":0.005,"epx":9.338,"epy":14.739,"epv":62.675,"eps":2.94,"epc":25.94,"eph":48.490,"sep":70.936}
$GPGGA,012444.46,,S,,W,1,05,2.55,,M,,M,,*51
$GPRMC,012444.46,A,,S,,W,,,261106,,*0B
$GPGSA,A,3,24,6,29,2,21,30,10,7,,,,,3.7,2.5,2.7*0B
$GPGBS,012444.46,9.338,14.739,62.675,,,,*4D
{"class":"TPV","mode":3,"time":"2006-11-26T01:24:44.461Z","leapseconds":14,"ept":0.005,"epx":9.338,"epy":14.739,"epv":62.675,"eps":2.94,"epc":25.94,"eph":48.490,"sep":70.936}
$GPGSV,3,1,09,26,06,138,00,24,14,077,33,06,77,232,26,29,15,126,28*78
$GPGSV,3,2,09,02,16,079,37,21,35,257,26,30,22,204,32,10,54,072,42*78
$GPGSV,3,3,09,07,40,297,29*44
{"class":"SKY","xdop":0.62,"ydop":0.98,"vdop":2.72,"tdop":2.14,"hdop":2.55,"gdop":4.29,"pdop":3.72,"satellites":[{"PRN":26,"el":5.8,"az":138.0,"ss":0.0,"used":false,"gnssid":0,"svid":26},{"PRN":24,"el":13.8,"az":76.7,"ss":33.0,"used":true,"gnssid":0,"svid":24},{"PRN":6,"el":77.3,"az":231.6,"ss":26.0,"used":true,"gnssid":0,"svid":6},{"PRN":29,"el":14.6,"az":126.3,"ss":28.0,"used":true,"gnssid":0,"svid":29},{"PRN":2,"el":16.1,"az":79.4,"ss":37.0,"used":true,"gnssid":0,"svid":2},{"PRN":21,"el":35.0,"az":257.3,"ss":26.0,"used":true,"gnssid":0,"svid":21}]}
$GPZDA,073658.70,05,12,2006,00,00*6C
$GPGGA,073658.70,5332.2649,N,11329.5955,W,1,04,2.55,938.74,M,-18.865,M,,*54
$GPRMC,073658.70,A,5332.2649,N,11329.5955,W,0.0000,0.000,051206,13.9,E*43
$GPGSA,A,2,24,6,29,2,21,30,10,7,,,,,3.7,2.5,2.7*0A
$GPGBS,073658.70,9.338,14.739,,,,,*5E
{"class":"TPV","mode":2,"time":"2006-12-05T07:36:58.704Z","leapseconds":14,"ept":0.005,"lat":53.537748090,"lon":-113.493257926,"altHAE":919.870,"altMSL":938.735,"epx":9.338,"epy":14.739,"track":0.0000,"magtrack":13.9327,"magvar":13.9,"speed":0.000,"eps":0.00,"eph":48.385,"sep":70.763}
$GPZDA,075338.70,05,12,2006,00,00*69
$GPGGA,075338.70,5332.2652,N,11329.5949,W,1,04,2.55,939.63,M,-18.865,M,,*51
$GPRMC,075338.70,A,5332.2652,N,11329.5949,W,0.0000,0.000,051206,13.9,E*41
$GPGSA,A,2,24,6,29,2,21,30,10,7,,,,,3.7,2.5,2.7*0A
$GPGBS,075338.70,9.338,14.739,,,,,*5B
{"class":"TPV","mode":2,"time":"2006-12-05T07:53:38.704Z","leapseconds":14,"ept":0.005,"lat":53.537752616,"lon":-113.493247951,"altHAE":920.767,"altMSL":939.632,"epx":9.338,"epy":14.739,"track":0.0000,"magtrack":13.9327,"magvar":13.9,"speed":0.000,"eps":0.03,"eph":48.385,"sep":70.763}
$GPGGA,075338.70,5332.2652,N,11329.5949,W,1,04,5.26,939.63,M,-18.865,M,,*52
$GPRMC,075338.70,A,5332.2652,N,11329.5949,W,0.0000,0.000,051206,13.9,E*41
$GPGSA,A,2,24,6,29,2,21,30,10,7,,,,,5.3,5.3,0.0*0C
$GPGBS,075338.70,9.338,14.739,,,,,*5B
{"class":"TPV","mode":2,"time":"2006-12-05T07:53:38.704Z","leapseconds":14,"ept":0.005,"lat":53.537752616,"lon":-113.493247951,"altHAE":920.767,"altMSL":939.632,"epx":9.338,"epy":14.739,"track":0.0000,"magtrack":13.9327,"magvar":13.9,"speed":0.000,"eps":0.03,"eph":48.385,"sep":70.763}
$GPZDA,081018.70,05,12,2006,00,00*63
$GPGGA,081018.70,5332.2654,N,11329.5943,W,1,04,5.26,940.53,M,-18.865,M,,*59
$GPRMC,081018.70,A,5332.2654,N,11329.5943,W,0.0000,0.000,051206,13.9,E*47
$GPGSA,A,2,24,6,29,2,21,30,10,7,,,,,5.3,5.3,0.0*0C
$GPGBS,081018.70,9.338,14.739,,,,,*51
{"class":"TPV","mode":2,"time":"2006-12-05T08:10:18.704Z","leapseconds":14,"ept":0.005,"lat":53.537757142,"lon":-113.493238060,"altHAE":921.664,"altMSL":940.529,"epx":9.338,"epy":14.739,"track":0.0000,"magtrack":13.9327,"magvar":13.9,"speed":0.000,"eps":0.03,"eph":99.987,"sep":99.989}
$GPGGA,081018.70,5332.2654,N,11329.5943,W,1,04,5.26,940.53,M,-18.865,M,,*59
$GPRMC,081018.70,A,5332.2654,N,11329.5943,W,0.0000,0.000,051206,13.9,E*47
$GPGSA,A,2,24,6,29,2,21,30,10,7,,,,,5.3,5.3,0.0*0C
$GPGBS,081018.70,9.338,14.739,,,,,*51
{"class":"TPV","mode":2,"time":"2006-12-05T08:10:18.704Z","leapseconds":14,"ept":0.005,"lat":53.537757142,"lon":-113.493238060,"altHAE":921.664,"altMSL":940.529,"epx":9.338,"epy":14.739,"track":0.0000,"magtrack":13.9327,"magvar":13.9,"speed":0.000,"eps":0.03,"eph":99.987,"sep":99.989}
$GPZDA,082658.70,05,12,2006,00,00*62
$GPGGA,082658.70,5332.2657,N,11329.5937,W,1,04,5.26,941.37,M,-18.865,M,,*5B
$GPRMC,082658.70,A,5332.2657,N,11329.5937,W,0.0000,0.000,051206,13.9,E*46
$GPGSA,A,2,24,6,29,2,21,30,10,7,,,,,5.3,5.3,0.0*0C
$GPGBS,082658.70,9.338,14.739,,,,,*50
{"class":"TPV","mode":2,"time":"2006-12-05T08:26:58.704Z","leapseconds":14,"ept":0.005,"lat":53.537761333,"lon":-113.493228840,"altHAE":922.505,"altMSL":941.370,"epx":9.338,"epy":14.739,"track":0.0000,"magtrack":13.9326,"magvar":13.9,"speed":0.000,"eps":0.03,"eph":99.907,"sep":99.909}
$GPGGA,082658.70,5332.2657,N,11329.5937,W,1,04,5.26,941.37,M,-18.865,M,,*5B
$GPRMC,082658.70,A,5332.2657,N,11329.5937,W,0.0000,0.000,051206,13.9,E*46
$GPGSA,A,2,24,6,29,2,21,30,10,7,,,,,5.3,5.3,0.0*0C
$GPGBS,082658.70,9.338,14.739,,,,,*50
{"class":"TPV","mode":2,"time":"2006-12-05T08:26:58.704Z","leapseconds":14,"ept":0.005,"lat":53.537761333,"lon":-113.493228840,"altHAE":922.505,"altMSL":941.370,"epx":9.338,"epy":14.739,"track":0.0000,"magtrack":13.9326,"magvar":13.9,"speed":0.000,"eps":0.03,"eph":99.907,"sep":99.909}
$GPGSV,3,1,09,26,06,138,00,24,14,077,30,06,77,231,26,29,15,126,27*77
$GPGSV,3,2,09,02,16,079,37,21,35,257,26,30,22,204,33,10,54,072,42*79
$GPGSV,3,3,09,07,40,297,29*44
{"class":"SKY","xdop":0.62,"ydop":0.98,"vdop":0.04,"tdop":2.07,"hdop":5.26,"gdop":5.65,"pdop":5.26,"satellites":[{"PRN":26,"el":5.8,"az":138.0,"ss":0.0,"used":false,"gnssid":0,"svid":26},{"PRN":24,"el":13.8,"az":76.7,"ss":30.0,"used":true,"gnssid":0,"svid":24},{"PRN":6,"el":77.3,"az":231.4,"ss":26.0,"used":true,"gnssid":0,"svid":6},{"PRN":29,"el":14.6,"az":126.3,"ss":27.0,"used":true,"gnssid":0,"svid":29},{"PRN":2,"el":16.1,"az":79.5,"ss":37.0,"used":true,"gnssid":0,"svid":2},{"PRN":21,"el":35.0,"az":257.4,"ss":26.0,"used":true,"gnssid":0,"svid":21}]}
$GPZDA,084338.70,05,12,2006,00,00*67
$GPGGA,084338.70,5332.2659,N,11329.5932,W,1,04,5.26,942.16,M,-18.865,M,,*55
$GPRMC,084338.70,A,5332.2659,N,11329.5932,W,0.0000,0.000,051206,13.9,E*48
$GPGSA,A,2,24,6,29,2,21,30,10,7,,,,,5.3,5.3,0.0*0C
$GPGBS,084338.70,9.338,14.739,,,,,*55
{"class":"TPV","mode":2,"time":"2006-12-05T08:43:38.704Z","leapseconds":14,"ept":0.005,"lat":53.537765356,"lon":-113.493220207,"altHAE":923.294,"altMSL":942.159,"epx":9.338,"epy":14.739,"track":0.0000,"magtrack":13.9326,"magvar":13.9,"speed":0.000,"eps":0.03,"eph":99.907,"sep":99.909}
$GPGGA,084338.70,5332.2659,N,11329.5932,W,1,04,5.25,942.16,M,-18.865,M,,*56
$GPRMC,084338.70,A,5332.2659,N,11329.5932,W,0.0000,0.000,051206,13.9,E*48
$GPGSA,A,2,24,6,29,2,21,30,10,7,,,,,5.3,5.3,0.0*0C
$GPGBS,084338.70,9.338,14.739,,,,,*55
{"class":"TPV","mode":2,"time":"2006-12-05T08:43:38.704Z","leapseconds":14,"ept":0.005,"lat":53.537765356,"lon":-113.493220207,"altHAE":923.294,"altMSL":942.159,"epx":9.338,"epy":14.739,"track":0.0000,"magtrack":13.9326,"magvar":13.9,"speed":0.000,"eps":0.03,"eph":99.907,"sep":99.909}
$GPZDA,090018.70,05,12,2006,00,00*63
$GPGGA,090018.70,5332.2662,N,11329.5927,W,1,04,5.25,942.90,M,-18.865,M,,*50
$GPRMC,090018.70,A,5332.2662,N,11329.5927,W,0.0000,0.000,051206,13.9,E*40
$GPGSA,A,2,24,6,29,2,21,30,10,7,,,,,5.3,5.3,0.0*0C
$GPGBS,090018.70,9.338,14.739,,,,,*51
{"class":"TPV","mode":2,"time":"2006-12-05T09:00:18.704Z","leapseconds":14,"ept":0.005,"lat":53.537769212,"lon":-113.493212244,"altHAE":924.033,"altMSL":942.898,"epx":9.338,"epy":14.739,"track":0.0000,"magtrack":13.9326,"magvar":13.9,"speed":0.000,"eps":0.03,"eph":99.753,"sep":99.755}
$GPGGA,090018.70,5332.2662,N,11329.5927,W,1,04,5.25,942.90,M,-18.865,M,,*50
$GPRMC,090018.70,A,5332.2662,N,11329.5927,W,0.0000,0.000,051206,13.9,E*40
$GPGSA,A,2,24,6,29,2,21,30,10,7,,,,,5.3,5.3,0.0*0C
$GPGBS,090018.70,9.338,14.739,,,,,*51
{"class":"TPV","mode":2,"time":"2006-12-05T09:00:18.704Z","leapseconds":14,"ept":0.005,"lat":53.537769212,"lon":-113.493212244,"altHAE":924.033,"altMSL":942.898,"epx":9.338,"epy":14.739,"track":0.0000,"magtrack":13.9326,"magvar":13.9,"speed":0.000,"eps":0.03,"eph":99.753,"sep":99.755}
$GPZDA,091658.70,05,12,2006,00,00*60
$GPGGA,091658.70,5332.2664,N,11329.5923,W,1,04,5.25,943.55,M,-18.865,M,,*59
$GPRMC,091658.70,A,5332.2664,N,11329.5923,W,0.0000,0.000,051206,13.9,E*41
$GPGSA,A,2,24,6,29,2,21,30,10,7,,,,,5.3,5.3,0.0*0C
$GPGBS,091658.70,9.338,14.739,,,,,*52
{"class":"TPV","mode":2,"time":"2006-12-05T09:16:58.704Z","leapseconds":14,"ept":0.005,"lat":53.537772733,"lon":-113.493205287,"altHAE":924.686,"altMSL":943.551,"epx":9.338,"epy":14.739,"track":0.0000,"magtrack":13.9326,"magvar":13.9,"speed":0.000,"eps":0.03,"eph":99.753,"sep":99.755}
$GPZDA,093338.70,05,12,2006,00,00*61
$GPGGA,093338.70,5332.2666,N,11329.5919,W,1,04,5.25,944.20,M,-18.865,M,,*56
$GPRMC,093338.70,A,5332.2666,N,11329.5919,W,0.0000,0.000,051206,13.9,E*4B
$GPGSA,A,2,24,6,29,2,21,30,10,7,,,,,5.3,5.3,0.0*0C
$GPGBS,093338.70,9.338,14.739,,,,,*53
{"class":"TPV","mode":2,"time":"2006-12-05T09:33:38.704Z","leapseconds":14,"ept":0.005,"lat":53.537776337,"lon":-113.493198330,"altHAE":925.338,"altMSL":944.203,"epx":9.338,"epy":14.739,"track":0.0000,"magtrack":13.9326,"magvar":13.9,"speed":0.000,"eps":0.03,"eph":99.753,"sep":99.755}
$GPZDA,095018.70,05,12,2006,00,00*66
$GPGGA,095018.70,5332.2668,N,11329.5915,W,1,04,5.25,944.78,M,-18.865,M,,*5E
$GPRMC,095018.70,A,5332.2668,N,11329.5915,W,0.0000,0.000,051206,13.9,E*4E
$GPGSA,A,2,24,6,29,2,21,30,10,7,,,,,5.3,5.3,0.0*0C
$GPGBS,095018.70,9.338,14.739,,,,,*54
{"class":"TPV","mode":2,"time":"2006-12-05T09:50:18.704Z","leapseconds":14,"ept":0.005,"lat":53.537779522,"lon":-113.493192295,"altHAE":925.914,"altMSL":944.779,"epx":9.338,"epy":14.739,"track":0.0000,"magtrack":13.9326,"magvar":13.9,"speed":0.000,"eps":0.03,"eph":99.753,"sep":99.755}
$GPGGA,095018.70,5332.2668,N,11329.5915,W,1,04,5.24,944.78,M,-18.865,M,,*5F
$GPRMC,095018.70,A,5332.2668,N,11329.5915,W,0.0000,0.000,051206,13.9,E*4E
$GPGSA,A,2,24,6,29,2,21,30,10,7,,,,,5.2,5.2,0.0*0C
$GPGBS,095018.70,9.338,14.739,,,,,*54
{"class":"TPV","mode":2,"time":"2006-12-05T09:50:18.704Z","leapseconds":14,"ept":0.005,"lat":53.537779522,"lon":-113.493192295,"altHAE":925.914,"altMSL":944.779,"epx":9.338,"epy":14.739,"track":0.0000,"magtrack":13.9326,"magvar":13.9,"speed":0.000,"eps":0.03,"eph":99.753,"sep":99.755}
$GPGSV,3,1,09,26,06,138,00,24,14,077,30,06,77,231,26,29,15,126,26*76
$GPGSV,3,2,09,02,16,079,37,21,35,257,26,30,22,204,33,10,54,072,42*79
$GPGSV,3,3,09,07,40,297,29*44
{"class":"SKY","xdop":0.62,"ydop":0.98,"vdop":0.04,"tdop":2.06,"hdop":5.24,"gdop":5.63,"pdop":5.24,"satellites":[{"PRN":26,"el":6.0,"az":137.9,"ss":0.0,"used":false,"gnssid":0,"svid":26},{"PRN":24,"el":13.7,"az":76.8,"ss":30.0,"used":true,"gnssid":0,"svid":24},{"PRN":6,"el":77.3,"az":231.2,"ss":26.0,"used":true,"gnssid":0,"svid":6},{"PRN":29,"el":14.6,"az":126.3,"ss":26.0,"used":true,"gnssid":0,"svid":29},{"PRN":2,"el":16.1,"az":79.5,"ss":37.0,"used":true,"gnssid":0,"svid":2},{"PRN":21,"el":35.0,"az":257.4,"ss":26.0,"used":true,"gnssid":0,"svid":21}]}
$GPZDA,100658.70,05,12,2006,00,00*69
$GPGGA,100658.70,5332.2669,N,11329.5912,W,1,04,5.24,945.29,M,-18.865,M,,*53
$GPRMC,100658.70,A,5332.2669,N,11329.5912,W,0.0000,0.000,051206,13.9,E*47
$GPGSA,A,2,24,6,29,2,21,30,10,7,,,,,5.2,5.2,0.0*0C
$GPGBS,100658.70,9.338,14.739,,,,,*5B
{"class":"TPV","mode":2,"time":"2006-12-05T10:06:58.704Z","leapseconds":14,"ept":0.005,"lat":53.537782372,"lon":-113.493187015,"altHAE":926.426,"altMSL":945.291,"epx":9.338,"epy":14.739,"track":0.0000,"magtrack":13.9326,"magvar":13.9,"speed":0.000,"eps":0.03,"eph":99.533,"sep":99.536}
$GPZDA,102338.70,05,12,2006,00,00*68
$GPGGA,102338.70,5332.2671,N,11329.5909,W,1,04,5.24,945.75,M,-18.865,M,,*58
$GPRMC,102338.70,A,5332.2671,N,11329.5909,W,0.0000,0.000,051206,13.9,E*45
$GPGSA,A,2,24,6,29,2,21,30,10,7,,,,,5.2,5.2,0.0*0C
$GPGBS,102338.70,9.338,14.739,,,,,*5A
{"class":"TPV","mode":2,"time":"2006-12-05T10:23:38.704Z","leapseconds":14,"ept":0.005,"lat":53.537784803,"lon":-113.493182237,"altHAE":926.883,"altMSL":945.748,"epx":9.338,"epy":14.739,"track":0.0000,"magtrack":13.9326,"magvar":13.9,"speed":0.000,"eps":0.03,"eph":99.533,"sep":99.536}
$GPZDA,104018.70,05,12,2006,00,00*6F
$GPGGA,104018.70,5332.2672,N,11329.5907,W,1,04,5.24,946.16,M,-18.865,M,,*54
$GPRMC,104018.70,A,5332.2672,N,11329.5907,W,0.0000,0.000,051206,13.9,E*4F
$GPGSA,A,2,24,6,29,2,21,30,10,7,,,,,5.2,5.2,0.0*0C
$GPGBS,104018.70,9.338,14.739,,,,,*5D
{"class":"TPV","mode":2,"time":"2006-12-05T10:40:18.704Z","leapseconds":14,"ept":0.005,"lat":53.537786898,"lon":-113.493178046,"altHAE":927.295,"altMSL":946.160,"epx":9.338,"epy":14.739,"track":0.0000,"magtrack":13.9326,"magvar":13.9,"speed":0.000,"eps":0.03,"eph":99.533,"sep":99.536}
$GPGGA,104018.70,5332.2672,N,11329.5907,W,1,04,5.23,946.16,M,-18.865,M,,*53
$GPRMC,104018.70,A,5332.2672,N,11329.5907,W,0.0000,0.000,051206,13.9,E*4F
$GPGSA,A,2,24,6,29,2,21,30,10,7,,,,,5.2,5.2,0.0*0C
$GPGBS,104018.70,9.338,14.739,,,,,*5D
{"class":"TPV","mode":2,"time":"2006-12-05T10:40:18.704Z","leapseconds":14,"ept":0.005,"lat":53.537786898,"lon":-113.493178046,"altHAE":927.295,"altMSL":946.160,"epx":9.338,"epy":14.739,"track":0.0000,"magtrack":13.9326,"magvar":13.9,"speed":0.000,"eps":0.03,"eph":99.533,"sep":99.536}
$GPZDA,105658.70,05,12,2006,00,00*6C
$GPGGA,105658.70,5332.2673,N,11329.5905,W,1,04,5.23,946.53,M,-18.865,M,,*52
$GPRMC,105658.70,A,5332.2673,N,11329.5905,W,0.0000,0.000,051206,13.9,E*4F
$GPGSA,A,2,24,6,29,2,21,30,10,7,,,,,5.2,5.2,0.0*0C
$GPGBS,105658.70,9.338,14.739,,,,,*5E
{"class":"TPV","mode":2,"time":"2006-12-05T10:56:58.704Z","leapseconds":14,"ept":0.005,"lat":53.537788742,"lon":-113.493174190,"altHAE":927.668,"altMSL":946.533,"epx":9.338,"epy":14.739,"track":0.0000,"magtrack":13.9326,"magvar":13.9,"speed":0.000,"eps":0.03,"eph":99.420,"sep":99.422}
$GPGGA,105658.70,5332.2673,N,11329.5905,W,1,04,5.23,946.53,M,-18.865,M,,*52
$GPRMC,105658.70,A,5332.2673,N,11329.5905,W,0.0000,0.000,051206,13.9,E*4F
$GPGSA,A,2,24,6,29,2,21,30,10,7,,,,,5.2,5.2,0.0*0C
$GPGBS,105658.70,9.338,14.739,,,,,*5E
{"class":"TPV","mode":2,"time":"2006-12-05T10:56:58.704Z","leapseconds":14,"ept":0.005,"lat":53.537788742,"lon":-113.493174190,"altHAE":927.668,"altMSL":946.533,"epx":9.338,"epy":14.739,"track":0.0000,"magtrack":13.9326,"magvar":13.9,"speed":0.000,"eps":0.03,"eph":99.420,"sep":99.422}
$GPZDA,111338.70,05,12,2006,00,00*6A
$GPGGA,111338.70,5332.2674,N,11329.5902,W,1,04,5.23,946.87,M,-18.865,M,,*5D
$GPRMC,111338.70,A,5332.2674,N,11329.5902,W,0.0000,0.000,051206,13.9,E*49
$GPGSA,A,2,24,6,29,2,21,30,10,7,,,,,5.2,5.2,0.0*0C
$GPGBS,111338.70,9.338,14.739,,,,,*58
{"class":"TPV","mode":2,"time":"2006-12-05T11:13:38.704Z","leapseconds":14,"ept":0.005,"lat":53.537790335,"lon":-113.493170754,"altHAE":928.007,"altMSL":946.872,"epx":9.338,"epy":14.739,"track":0.0000,"magtrack":13.9326,"magvar":13.9,"speed":0.000,"eps":0.03,"eph":99.420,"sep":99.422}
$GPGSV,3,1,09,26,06,138,00,24,14,077,29,06,77,231,26,29,15,126,26*7E
$GPGSV,3,2,09,02,16,079,35,21,35,257,26,30,22,204,32,10,54,072,43*7B
$GPGSV,3,3,09,07,40,297,29*44
{"class":"SKY","xdop":0.62,"ydop":0.98,"vdop":0.04,"tdop":2.06,"hdop":5.23,"gdop":5.62,"pdop":5.23,"satellites":[{"PRN":26,"el":6.0,"az":137.9,"ss":0.0,"used":false,"gnssid":0,"svid":26},{"PRN":24,"el":13.7,"az":76.8,"ss":29.0,"used":true,"gnssid":0,"svid":24},{"PRN":6,"el":77.3,"az":231.0,"ss":26.0,"used":true,"gnssid":0,"svid":6},{"PRN":29,"el":14.7,"az":126.3,"ss":26.0,"used":true,"gnssid":0,"svid":29},{"PRN":2,"el":16.0,"az":79.5,"ss":35.0,"used":true,"gnssid":0,"svid":2},{"PRN":21,"el":35.1,"az":257.4,"ss":26.0,"used":true,"gnssid":0,"svid":21}]}
$GPZDA,113018.70,05,12,2006,00,00*69
$GPGGA,113018.70,5332.2675,N,11329.5900,W,1,04,5.23,947.18,M,-18.865,M,,*5A
$GPRMC,113018.70,A,5332.2675,N,11329.5900,W,0.0000,0.000,051206,13.9,E*49
$GPGSA,A,2,24,6,29,2,21,30,10,7,,,,,5.2,5.2,0.0*0C
$GPGBS,113018.70,9.338,14.739,,,,,*5B
{"class":"TPV","mode":2,"time":"2006-12-05T11:30:18.704Z","leapseconds":14,"ept":0.005,"lat":53.537791843,"lon":-113.493167485,"altHAE":928.316,"altMSL":947.181,"epx":9.338,"epy":14.739,"track":0.0000,"magtrack":13.9326,"magvar":13.9,"speed":0.000,"eps":0.00,"eph":99.420,"sep":99.422}
$GPZDA,114658.70,05,12,2006,00,00*6C
$GPGGA,114658.70,5332.2676,N,11329.5899,W,1,04,5.23,947.47,M,-18.865,M,,*57
$GPRMC,114658.70,A,5332.2676,N,11329.5899,W,0.0000,0.000,051206,13.9,E*4E
$GPGSA,A,2,24,6,29,2,21,30,10,7,,,,,5.2,5.2,0.0*0C
$GPGBS,114658.70,9.338,14.739,,,,,*5E
{"class":"TPV","mode":2,"time":"2006-12-05T11:46:58.704Z","leapseconds":14,"ept":0.005,"lat":53.537793184,"lon":-113.493164551,"altHAE":928.600,"altMSL":947.465,"epx":9.338,"epy":14.739,"track":0.0000,"magtrack":13.9326,"magvar":13.9,"speed":0.000,"eps":0.03,"eph":99.420,"sep":99.422}
$GPGGA,114658.70,5332.2676,N,11329.5899,W,1,04,5.22,947.47,M,-18.865,M,,*56
$GPRMC,114658.70,A,5332.2676,N,11329.5899,W,0.0000,0.000,051206,13.9,E*4E
$GPGSA,A,2,24,6,29,2,21,30,10,7,,,,,5.2,5.2,0.0*0C
$GPGBS,114658.70,9.338,14.739,,,,,*5E
{"class":"TPV","mode":2,"time":"2006-12-05T11:46:58.704Z","leapseconds":14,"ept":0.005,"lat":53.537793184,"lon":-113.493164551,"altHAE":928.600,"altMSL":947.465,"epx":9.338,"epy":14.739,"track":0.0000,"magtrack":13.9326,"magvar":13.9,"speed":0.000,"eps":0.03,"eph":99.420,"sep":99.422}
$GPZDA,122018.70,05,12,2006,00,00*6B
$GPGGA,122018.70,5332.2677,N,11329.5896,W,1,04,5.22,947.97,M,-18.865,M,,*52
$GPRMC,122018.70,A,5332.2677,N,11329.5896,W,0.0000,0.000,051206,13.9,E*47
$GPGSA,A,2,24,6,29,2,21,30,10,7,,,,,5.2,5.2,0.0*0C
$GPGBS,122018.70,9.338,14.739,,,,,*59
{"class":"TPV","mode":2,"time":"2006-12-05T12:20:18.704Z","leapseconds":14,"ept":0.005,"lat":53.537795448,"lon":-113.493159187,"altHAE":929.102,"altMSL":947.967,"epx":9.338,"epy":14.739,"track":0.0000,"magtrack":13.9326,"magvar":13.9,"speed":0.000,"eps":0.01,"eph":99.133,"sep":99.135}
$GPZDA,123658.70,05,12,2006,00,00*68
$GPGGA,123658.70,5332.2678,N,11329.5894,W,1,04,5.22,948.19,M,-18.865,M,,*55
$GPRMC,123658.70,A,5332.2678,N,11329.5894,W,0.0000,0.000,051206,13.9,E*49
$GPGSA,A,2,24,6,29,2,21,30,10,7,,,,,5.2,5.2,0.0*0C
$GPGBS,123658.70,9.338,14.739,,,,,*5A
{"class":"TPV","mode":2,"time":"2006-12-05T12:36:58.704Z","leapseconds":14,"ept":0.005,"lat":53.537796370,"lon":-113.493156756,"altHAE":929.325,"altMSL":948.190,"epx":9.338,"epy":14.739,"track":0.0000,"magtrack":13.9326,"magvar":13.9,"speed":0.000,"eps":0.03,"eph":99.133,"sep":99.135}
$GPGGA,123658.70,5332.2678,N,11329.5894,W,1,04,5.21,948.19,M,-18.865,M,,*56
$GPRMC,123658.70,A,5332.2678,N,11329.5894,W,0.0000,0.000,051206,13.9,E*49
$GPGSA,A,2,24,6,29,2,21,30,10,7,,,,,5.2,5.2,0.0*0C
$GPGBS,123658.70,9.338,14.739,,,,,*5A
{"class":"TPV","mode":2,"time":"2006-12-05T12:36:58.704Z","leapseconds":14,"ept":0.005,"lat":53.537796370,"lon":-113.493156756,"altHAE":929.325,"altMSL":948.190,"epx":9.338,"epy":14.739,"track":0.0000,"magtrack":13.9326,"magvar":13.9,"speed":0.000,"eps":0.03,"eph":99.133,"sep":99.135}
$GPGSV,3,1,09,26,06,138,00,24,14,077,29,06,77,231,26,29,15,126,26*7E
$GPGSV,3,2,09,02,16,080,35,21,35,257,26,30,22,204,33,10,54,072,43*7C
$GPGSV,3,3,09,07,40,297,29*44
{"class":"SKY","xdop":0.62,"ydop":0.98,"vdop":0.04,"tdop":2.05,"hdop":5.21,"gdop":5.60,"pdop":5.21,"satellites":[{"PRN":26,"el":6.1,"az":137.9,"ss":0.0,"used":false,"gnssid":0,"svid":26},{"PRN":24,"el":13.7,"az":76.8,"ss":29.0,"used":true,"gnssid":0,"svid":24},{"PRN":6,"el":77.3,"az":230.9,"ss":26.0,"used":true,"gnssid":0,"svid":6},{"PRN":29,"el":14.7,"az":126.2,"ss":26.0,"used":true,"gnssid":0,"svid":29},{"PRN":2,"el":16.0,"az":79.5,"ss":35.0,"used":true,"gnssid":0,"svid":2},{"PRN":21,"el":35.1,"az":257.4,"ss":26.0,"used":true,"gnssid":0,"svid":21}]}
$GPZDA,125338.70,05,12,2006,00,00*6D
$GPGGA,125338.70,5332.2678,N,11329.5893,W,1,04,5.21,948.40,M,-18.865,M,,*58
$GPRMC,125338.70,A,5332.2678,N,11329.5893,W,0.0000,0.000,051206,13.9,E*4B
$GPGSA,A,2,24,6,29,2,21,30,10,7,,,,,5.2,5.2,0.0*0C
$GPGBS,125338.70,9.338,14.739,,,,,*5F
{"class":"TPV","mode":2,"time":"2006-12-05T12:53:38.704Z","leapseconds":14,"ept":0.005,"lat":53.537797208,"lon":-113.493154493,"altHAE":929.532,"altMSL":948.397,"epx":9.338,"epy":14.739,"track":0.0000,"magtrack":13.9326,"magvar":13.9,"speed":0.000,"eps":0.03,"eph":99.005,"sep":99.007}
$GPZDA,131018.70,05,12,2006,00,00*69
$GPGGA,131018.70,5332.2679,N,11329.5891,W,1,04,5.21,948.59,M,-18.865,M,,*57
$GPRMC,131018.70,A,5332.2679,N,11329.5891,W,0.0000,0.000,051206,13.9,E*4C
$GPGSA,A,2,24,6,29,2,21,30,10,7,,,,,5.2,5.2,0.0*0C
$GPGBS,131018.70,9.338,14.739,,,,,*5B
{"class":"TPV","mode":2,"time":"2006-12-05T13:10:18.704Z","leapseconds":14,"ept":0.005,"lat":53.537797878,"lon":-113.493152397,"altHAE":929.725,"altMSL":948.590,"epx":9.338,"epy":14.739,"track":0.0000,"magtrack":13.9326,"magvar":13.9,"speed":0.000,"eps":0.00,"eph":99.005,"sep":99.007}
$GPGGA,131018.70,5332.2679,N,11329.5891,W,1,04,5.20,948.59,M,-18.865,M,,*56
$GPRMC,131018.70,A,5332.2679,N,11329.5891,W,0.0000,0.000,051206,13.9,E*4C
$GPGSA,A,2,24,6,29,2,21,30,10,7,,,,,5.2,5.2,0.0*0C
$GPGBS,131018.70,9.338,14.739,,,,,*5B
{"class":"TPV","mode":2,"time":"2006-12-05T13:10:18.704Z","leapseconds":14,"ept":0.005,"lat":53.537797878,"lon":-113.493152397,"altHAE":929.725,"altMSL":948.590,"epx":9.338,"epy":14.739,"track":0.0000,"magtrack":13.9326,"magvar":13.9,"speed":0.000,"eps":0.00,"eph":99.005,"sep":99.007}
$GPZDA,132658.70,05,12,2006,00,00*68
$GPGGA,132658.70,5332.2679,N,11329.5890,W,1,04,5.20,948.77,M,-18.865,M,,*5A
$GPRMC,132658.70,A,5332.2679,N,11329.5890,W,0.0000,0.000,051206,13.9,E*4C
$GPGSA,A,2,24,6,29,2,21,30,10,7,,,,,5.2,5.2,0.0*0C
$GPGBS,132658.70,9.338,14.739,,,,,*5A
{"class":"TPV","mode":2,"time":"2006-12-05T13:26:58.704Z","leapseconds":14,"ept":0.005,"lat":53.537798549,"lon":-113.493150386,"altHAE":929.905,"altMSL":948.770,"epx":9.338,"epy":14.739,"track":0.0000,"magtrack":13.9326,"magvar":13.9,"speed":0.000,"eps":0.03,"eph":98.867,"sep":98.869}
$GPGGA,132658.70,5332.2679,N,11329.5890,W,1,04,5.20,948.77,M,-18.865,M,,*5A
$GPRMC,132658.70,A,5332.2679,N,11329.5890,W,0.0000,0.000,051206,13.9,E*4C
$GPGSA,A,2,24,6,29,2,21,30,10,7,,,,,5.2,5.2,0.0*0C
$GPGBS,132658.70,9.338,14.739,,,,,*5A
{"class":"TPV","mode":2,"time":"2006-12-05T13:26:58.704Z","leapseconds":14,"ept":0.005,"lat":53.537798549,"lon":-113.493150386,"altHAE":929.905,"altMSL":948.770,"epx":9.338,"epy":14.739,"track":0.0000,"magtrack":13.9326,"magvar":13.9,"speed":0.000,"eps":0.03,"eph":98.867,"sep":98.869}
$GPZDA,134338.70,05,12,2006,00,00*6D
$GPGGA,134338.70,5332.2680,N,11329.5889,W,1,04,5.20,948.94,M,-18.865,M,,*5C
$GPRMC,134338.70,A,5332.2680,N,11329.5889,W,0.0000,0.000,051206,13.9,E*47
$GPGSA,A,2,24,6,29,2,21,30,10,7,,,,,5.2,5.2,0.0*0C
$GPGBS,134338.70,9.338,14.739,,,,,*5F
{"class":"TPV","mode":2,"time":"2006-12-05T13:43:38.704Z","leapseconds":14,"ept":0.005,"lat":53.537799219,"lon":-113.493148458,"altHAE":930.073,"altMSL":948.938,"epx":9.338,"epy":14.739,"track":0.0000,"magtrack":13.9326,"magvar":13.9,"speed":0.000,"eps":0.03,"eph":98.758,"sep":98.760}
$GPZDA,140018.70,05,12,2006,00,00*6F
$GPGGA,140018.70,5332.2680,N,11329.5888,W,1,04,5.20,949.10,M,-18.865,M,,*52
$GPRMC,140018.70,A,5332.2680,N,11329.5888,W,0.0000,0.000,051206,13.9,E*44
$GPGSA,A,2,24,6,29,2,21,30,10,7,,,,,5.2,5.2,0.0*0C
$GPGBS,140018.70,9.338,14.739,,,,,*5D
{"class":"TPV","mode":2,"time":"2006-12-05T14:00:18.704Z","leapseconds":14,"ept":0.005,"lat":53.537799806,"lon":-113.493146530,"altHAE":930.231,"altMSL":949.096,"epx":9.338,"epy":14.739,"track":0.0000,"magtrack":13.9326,"magvar":13.9,"speed":0.000,"eps":0.03,"eph":98.758,"sep":98.760}
$GPGGA,140018.70,5332.2680,N,11329.5888,W,1,04,5.20,949.10,M,-18.865,M,,*52
$GPRMC,140018.70,A,5332.2680,N,11329.5888,W,0.0000,0.000,051206,13.9,E*44
$GPGSA,A,2,24,6,29,2,21,30,10,7,,,,,5.2,5.2,0.0*0C
$GPGBS,140018.70,9.338,14.739,,,,,*5D
{"class":"TPV","mode":2,"time":"2006-12-05T14:00:18.704Z","leapseconds":14,"ept":0.005,"lat":53.537799806,"lon":-113.493146530,"altHAE":930.231,"altMSL":949.096,"epx":9.338,"epy":14.739,"track":0.0000,"magtrack":13.9326,"magvar":13.9,"speed":0.000,"eps":0.03,"eph":98.758,"sep":98.760}
$GPGSV,3,1,09,26,06,138,00,24,14,077,28,06,77,231,26,29,15,126,26*7F
$GPGSV,3,2,09,02,16,080,35,21,35,257,26,30,22,204,30,10,54,072,44*78
$GPGSV,3,3,09,07,40,297,29*44
{"class":"SKY","xdop":0.62,"ydop":0.98,"vdop":0.04,"tdop":2.05,"hdop":5.20,"gdop":5.59,"pdop":5.20,"satellites":[{"PRN":26,"el":6.1,"az":137.9,"ss":0.0,"used":false,"gnssid":0,"svid":26},{"PRN":24,"el":13.6,"az":76.8,"ss":28.0,"used":true,"gnssid":0,"svid":24},{"PRN":6,"el":77.3,"az":230.6,"ss":26.0,"used":true,"gnssid":0,"svid":6},{"PRN":29,"el":14.7,"az":126.2,"ss":26.0,"used":true,"gnssid":0,"svid":29},{"PRN":2,"el":16.0,"az":79.5,"ss":35.0,"used":true,"gnssid":0,"svid":2},{"PRN":21,"el":35.1,"az":257.4,"ss":26.0,"used":true,"gnssid":0,"svid":21}]}
$GPZDA,141658.70,05,12,2006,00,00*6C
$GPGGA,141658.70,5332.2680,N,11329.5887,W,1,04,5.20,949.24,M,-18.865,M,,*59
$GPRMC,141658.70,A,5332.2680,N,11329.5887,W,0.0000,0.000,051206,13.9,E*48
$GPGSA,A,2,24,6,29,2,21,30,10,7,,,,,5.2,5.2,0.0*0C
$GPGBS,141658.70,9.338,14.739,,,,,*5E
{"class":"TPV","mode":2,"time":"2006-12-05T14:16:58.704Z","leapseconds":14,"ept":0.005,"lat":53.537800393,"lon":-113.493144770,"altHAE":930.379,"altMSL":949.244,"epx":9.338,"epy":14.739,"track":0.0000,"magtrack":13.9326,"magvar":13.9,"speed":0.000,"eps":0.03,"eph":98.791,"sep":98.793}
$GPGGA,141658.70,5332.2680,N,11329.5887,W,1,04,5.19,949.24,M,-18.865,M,,*53
$GPRMC,141658.70,A,5332.2680,N,11329.5887,W,0.0000,0.000,051206,13.9,E*48
$GPGSA,A,2,24,6,29,2,21,30,10,7,,,,,5.2,5.2,0.0*0C
$GPGBS,141658.70,9.338,14.739,,,,,*5E
{"class":"TPV","mode":2,"time":"2006-12-05T14:16:58.704Z","leapseconds":14,"ept":0.005,"lat":53.537800393,"lon":-113.493144770,"altHAE":930.379,"altMSL":949.244,"epx":9.338,"epy":14.739,"track":0.0000,"magtrack":13.9326,"magvar":13.9,"speed":0.000,"eps":0.03,"eph":98.791,"sep":98.793}
$GPZDA,143338.70,05,12,2006,00,00*6D
$GPGGA,143338.70,5332.2681,N,11329.5886,W,1,04,5.19,949.38,M,-18.865,M,,*5F
$GPRMC,143338.70,A,5332.2681,N,11329.5886,W,0.0000,0.000,051206,13.9,E*49
$GPGSA,A,2,24,6,29,2,21,30,10,7,,,,,5.2,5.2,0.0*0C
$GPGBS,143338.70,9.338,14.739,,,,,*5F
{"class":"TPV","mode":2,"time":"2006-12-05T14:33:38.704Z","leapseconds":14,"ept":0.005,"lat":53.537800896,"lon":-113.493143010,"altHAE":930.519,"altMSL":949.384,"epx":9.338,"epy":14.739,"track":0.0000,"magtrack":13.9326,"magvar":13.9,"speed":0.000,"eps":0.03,"eph":98.631,"sep":98.633}
$GPGGA,143338.70,5332.2681,N,11329.5886,W,1,04,5.19,949.38,M,-18.865,M,,*5F
$GPRMC,143338.70,A,5332.2681,N,11329.5886,W,0.0000,0.000,051206,13.9,E*49
$GPGSA,A,2,24,6,29,2,21,30,10,7,,,,,5.2,5.2,0.0*0C
$GPGBS,143338.70,9.338,14.739,,,,,*5F
{"class":"TPV","mode":2,"time":"2006-12-05T14:33:38.704Z","leapseconds":14,"ept":0.005,"lat":53.537800896,"lon":-113.493143010,"altHAE":930.519,"altMSL":949.384,"epx":9.338,"epy":14.739,"track":0.0000,"magtrack":13.9326,"magvar":13.9,"speed":0.000,"eps":0.03,"eph":98.631,"sep":98.633}
$GPZDA,145018.70,05,12,2006,00,00*6A
$GPGGA,145018.70,5332.2681,N,11329.5885,W,1,04,5.19,949.51,M,-18.865,M,,*54
$GPRMC,145018.70,A,5332.2681,N,11329.5885,W,0.0000,0.000,051206,13.9,E*4D
$GPGSA,A,2,24,6,29,2,21,30,10,7,,,,,5.2,5.2,0.0*0C
$GPGBS,145018.70,9.338,14.739,,,,,*58
{"class":"TPV","mode":2,"time":"2006-12-05T14:50:18.704Z","leapseconds":14,"ept":0.005,"lat":53.537801315,"lon":-113.493141333,"altHAE":930.650,"altMSL":949.515,"epx":9.338,"epy":14.739,"track":0.0000,"magtrack":13.9326,"magvar":13.9,"speed":0.000,"eps":0.03,"eph":98.631,"sep":98.633}
$GPGGA,145018.70,5332.2681,N,11329.5885,W,1,04,5.18,949.51,M,-18.865,M,,*55
$GPRMC,145018.70,A,5332.2681,N,11329.5885,W,0.0000,0.000,051206,13.9,E*4D
$GPGSA,A,2,24,6,29,2,21,30,10,7,,,,,5.2,5.2,0.0*0C
$GPGBS,145018.70,9.338,14.739,,,,,*58
{"class":"TPV","mode":2,"time":"2006-12-05T14:50:18.704Z","leapseconds":14,"ept":0.005,"lat":53.537801315,"lon":-113.493141333,"altHAE":930.650,"altMSL":949.515,"epx":9.338,"epy":14.739,"track":0.0000,"magtrack":13.9326,"magvar":13.9,"speed":0.000,"eps":0.03,"eph":98.631,"sep":98.633}
$GPZDA,150658.70,05,12,2006,00,00*6C
$GPGGA,150658.70,5332.2681,N,11329.5884,W,1,04,5.18,949.64,M,-18.865,M,,*54
$GPRMC,150658.70,A,5332.2681,N,11329.5884,W,0.0000,0.000,051206,13.9,E*4A
$GPGSA,A,2,24,6,29,2,21,30,10,7,,,,,5.2,5.2,0.0*0C
$GPGBS,150658.70,9.338,14.739,,,,,*5E
{"class":"TPV","mode":2,"time":"2006-12-05T15:06:58.704Z","leapseconds":14,"ept":0.005,"lat":53.537801650,"lon":-113.493139657,"altHAE":930.775,"altMSL":949.640,"epx":9.338,"epy":14.739,"track":0.0000,"magtrack":13.9326,"magvar":13.9,"speed":0.000,"eps":0.03,"eph":98.490,"sep":98.493}
$GPZDA,152338.70,05,12,2006,00,00*6D
$GPGGA,152338.70,5332.2681,N,11329.5883,W,1,04,5.18,949.76,M,-18.865,M,,*51
$GPRMC,152338.70,A,5332.2681,N,11329.5883,W,0.0000,0.000,051206,13.9,E*4C
$GPGSA,A,2,24,6,29,2,21,30,10,7,,,,,5.2,5.2,0.0*0C
$GPGBS,152338.70,9.338,14.739,,,,,*5F
{"class":"TPV","mode":2,"time":"2006-12-05T15:23:38.704Z","leapseconds":14,"ept":0.005,"lat":53.537802069,"lon":-113.493138064,"altHAE":930.892,"altMSL":949.757,"epx":9.338,"epy":14.739,"track":0.0000,"magtrack":13.9326,"magvar":13.9,"speed":0.000,"eps":0.03,"eph":98.490,"sep":98.493}
$GPGSV,3,1,09,26,06,138,00,24,14,077,30,06,77,231,26,29,15,126,26*76
$GPGSV,3,2,09,02,16,080,35,21,35,257,26,30,22,204,30,10,54,072,45*79
$GPGSV,3,3,09,07,40,297,29*44
{"class":"SKY","xdop":0.62,"ydop":0.98,"vdop":0.04,"tdop":2.04,"hdop":5.18,"gdop":5.57,"pdop":5.18,"satellites":[{"PRN":26,"el":6.1,"az":137.8,"ss":0.0,"used":false,"gnssid":0,"svid":26},{"PRN":24,"el":13.6,"az":76.8,"ss":30.0,"used":true,"gnssid":0,"svid":24},{"PRN":6,"el":77.3,"az":230.6,"ss":26.0,"used":true,"gnssid":0,"svid":6},{"PRN":29,"el":14.8,"az":126.2,"ss":26.0,"used":true,"gnssid":0,"svid":29},{"PRN":2,"el":15.9,"az":79.5,"ss":35.0,"used":true,"gnssid":0,"svid":2},{"PRN":21,"el":35.2,"az":257.5,"ss":26.0,"used":true,"gnssid":0,"svid":21}]}
$GPZDA,154018.70,05,12,2006,00,00*6A
$GPGGA,154018.70,5332.2681,N,11329.5882,W,1,04,5.18,949.87,M,-18.865,M,,*59
$GPRMC,154018.70,A,5332.2681,N,11329.5882,W,0.0000,0.000,051206,13.9,E*4A
$GPGSA,A,2,24,6,29,2,21,30,10,7,,,,,5.2,5.2,0.0*0C
$GPGBS,154018.70,9.338,14.739,,,,,*58
{"class":"TPV","mode":2,"time":"2006-12-05T15:40:18.704Z","leapseconds":14,"ept":0.005,"lat":53.537802405,"lon":-113.493136556,"altHAE":931.003,"altMSL":949.868,"epx":9.338,"epy":14.739,"track":0.0000,"magtrack":13.9326,"magvar":13.9,"speed":0.000,"eps":0.03,"eph":98.490,"sep":98.493}
$GPZDA,161338.70,05,12,2006,00,00*6D
$GPGGA,161338.70,5332.2682,N,11329.5880,W,1,04,5.18,950.07,M,-18.865,M,,*5F
$GPRMC,161338.70,A,5332.2682,N,11329.5880,W,0.0000,0.000,051206,13.9,E*4C
$GPGSA,A,2,24,6,29,2,21,30,10,7,,,,,5.2,5.2,0.0*0C
$GPGBS,161338.70,9.338,14.739,,,,,*5F
{"class":"TPV","mode":2,"time":"2006-12-05T16:13:38.704Z","leapseconds":14,"ept":0.005,"lat":53.537803243,"lon":-113.493133622,"altHAE":931.209,"altMSL":950.074,"epx":9.338,"epy":14.739,"track":0.0000,"magtrack":13.9326,"magvar":13.9,"speed":0.000,"eps":0.01,"eph":98.490,"sep":98.493}
