$GPGGA,000341.91,4120.3704,N,07542.3562,W,1,00,,244.03,M,-33.430,M,,*44
$GPRMC,000341.91,A,4120.3704,N,07542.3562,W,,,201019,-12.1,W*43
$GPGSA,A,3,,,,,,,,,,,,,,,*1C
{"class":"TPV","mode":3,"time":"2019-10-20T00:03:41.909Z","leapseconds":18,"ept":0.005,"lat":41.339506891,"lon":-75.705935988,"altHAE":210.604,"altMSL":244.035,"magvar":-12.1,"geoidSep":-33.430}
$GPGGA,000341.91,4120.3704,N,07542.3562,W,1,00,,244.03,M,-33.430,M,,*44
$GPRMC,000341.91,A,4120.3704,N,07542.3562,W,,,201019,-12.1,W*43
$GPGSA,A,3,,,,,,,,,,,,,,,*1C
{"class":"TPV","mode":3,"time":"2019-10-20T00:03:41.910Z","leapseconds":18,"ept":0.005,"lat":41.339506891,"lon":-75.705935988,"altHAE":210.604,"altMSL":244.035,"magvar":-12.1,"geoidSep":-33.430}
$GPGGA,000341.91,4120.3704,N,07542.3562,W,1,00,,244.03,M,-33.430,M,,*44
$GPRMC,000341.91,A,4120.3704,N,07542.3562,W,,,201019,-12.1,W*43
$GPGSA,A,3,,,,,,,,,,,,,,,*1C
{"class":"TPV","mode":3,"time":"2019-10-20T00:03:41.911Z","leapseconds":18,"ept":0.005,"lat":41.339506891,"lon":-75.705935988,"altHAE":210.604,"altMSL":244.035,"magvar":-12.1,"geoidSep":-33.430}
$GPGGA,000341.91,4120.3704,N,07542.3562,W,1,00,,244.03,M,-33.430,M,,*44
$GPRMC,000341.91,A,4120.3704,N,07542.3562,W,,,201019,-12.1,W*43
$GPGSA,A,3,,,,,,,,,,,,,,,*1C
{"class":"TPV","mode":3,"time":"2019-10-20T00:03:41.912Z","leapseconds":18,"ept":0.005,"lat":41.339506891,"lon":-75.705935988,"altHAE":210.604,"altMSL":244.035,"magvar":-12.1,"geoidSep":-33.430}
$GPGGA,000341.91,4120.3704,N,07542.3562,W,1,00,,244.03,M,-33.430,M,,*44
$GPRMC,000341.91,A,4120.3704,N,07542.3562,W,,,201019,-12.1,W*43
$GPGSA,A,3,,,,,,,,,,,,,,,*1C
{"class":"TPV","mode":3,"time":"2019-10-20T00:03:41.913Z","leapseconds":18,"ept":0.005,"lat":41.339506891,"lon":-75.705935988,"altHAE":210.604,"altMSL":244.035,"magvar":-12.1,"geoidSep":-33.430}
$GPGGA,000341.91,4120.3704,N,07542.3562,W,1,00,,244.03,M,-33.430,M,,*44
$GPRMC,000341.91,A,4120.3704,N,07542.3562,W,,,201019,-12.1,W*43
$GPGSA,A,3,,,,,,,,,,,,,,,*1C
{"class":"TPV","mode":3,"time":"2019-10-20T00:03:41.914Z","leapseconds":18,"ept":0.005,"lat":41.339506891,"lon":-75.705935988,"altHAE":210.604,"altMSL":244.035,"magvar":-12.1,"geoidSep":-33.430}
$GPGGA,000341.92,4120.3704,N,07542.3562,W,1,00,,244.03,M,-33.430,M,,*47
$GPRMC,000341.92,A,4120.3704,N,07542.3562,W,,,201019,-12.1,W*40
$GPGSA,A,3,,,,,,,,,,,,,,,*1C
{"class":"TPV","mode":3,"time":"2019-10-20T00:03:41.915Z","leapseconds":18,"ept":0.005,"lat":41.339506891,"lon":-75.705935988,"altHAE":210.604,"altMSL":244.035,"magvar":-12.1,"geoidSep":-33.430}
$GPGGA,000341.92,4120.3704,N,07542.3562,W,1,00,,244.03,M,-33.430,M,,*47
$GPRMC,000341.92,A,4120.3704,N,07542.3562,W,,,201019,-12.1,W*40
$GPGSA,A,3,,,,,,,,,,,,,,,*1C
{"class":"TPV","mode":3,"time":"2019-10-20T00:03:41.916Z","leapseconds":18,"ept":0.005,"lat":41.339506891,"lon":-75.705935988,"altHAE":210.604,"altMSL":244.035,"magvar":-12.1,"geoidSep":-33.430}
$GPGGA,000341.92,4120.3704,N,07542.3562,W,1,00,,244.03,M,-33.430,M,,*47
$GPRMC,000341.92,A,4120.3704,N,07542.3562,W,,,201019,-12.1,W*40
$GPGSA,A,3,,,,,,,,,,,,,,,*1C
{"class":"TPV","mode":3,"time":"2019-10-20T00:03:41.917Z","leapseconds":18,"ept":0.005,"lat":41.339506891,"lon":-75.705935988,"altHAE":210.604,"altMSL":244.035,"magvar":-12.1,"geoidSep":-33.430}
$GPGGA,000341.92,4120.3704,N,07542.3562,W,1,00,,244.03,M,-33.430,M,,*47
$GPRMC,000341.92,A,4120.3704,N,07542.3562,W,,,201019,-12.1,W*40
$GPGSA,A,3,,,,,,,,,,,,,,,*1C
{"class":"TPV","mode":3,"time":"2019-10-20T00:03:41.918Z","leapseconds":18,"ept":0.005,"lat":41.339506891,"lon":-75.705935988,"altHAE":210.604,"altMSL":244.035,"magvar":-12.1,"geoidSep":-33.430}
$GPGGA,000341.92,4120.3704,N,07542.3562,W,1,00,,244.03,M,-33.430,M,,*47
$GPRMC,000341.92,A,4120.3704,N,07542.3562,W,,,201019,-12.1,W*40
$GPGSA,A,3,,,,,,,,,,,,,,,*1C
{"class":"TPV","mode":3,"time":"2019-10-20T00:03:41.919Z","leapseconds":18,"ept":0.005,"lat":41.339506891,"lon":-75.705935988,"altHAE":210.604,"altMSL":244.035,"magvar":-12.1,"geoidSep":-33.430}
$GPGGA,000341.92,4120.3704,N,07542.3562,W,1,00,,244.03,M,-33.430,M,,*47
$GPRMC,000341.92,A,4120.3704,N,07542.3562,W,,,201019,-12.1,W*40
$GPGSA,A,3,,,,,,,,,,,,,,,*1C
{"class":"TPV","mode":3,"time":"2019-10-20T00:03:41.920Z","leapseconds":18,"ept":0.005,"lat":41.339506891,"lon":-75.705935988,"altHAE":210.604,"altMSL":244.035,"magvar":-12.1,"geoidSep":-33.430}
$GPGGA,000341.92,4120.3704,N,07542.3562,W,1,00,,244.03,M,-33.430,M,,*47
$GPRMC,000341.92,A,4120.3704,N,07542.3562,W,,,201019,-12.1,W*40
$GPGSA,A,3,,,,,,,,,,,,,,,*1C
{"class":"TPV","mode":3,"time":"2019-10-20T00:03:41.921Z","leapseconds":18,"ept":0.005,"lat":41.339506891,"lon":-75.705935988,"altHAE":210.604,"altMSL":244.035,"magvar":-12.1,"geoidSep":-33.430}
$GPGGA,000341.92,4120.3704,N,07542.3562,W,1,00,,244.03,M,-33.430,M,,*47
$GPRMC,000341.92,A,4120.3704,N,07542.3562,W,,,201019,-12.1,W*40
$GPGSA,A,3,,,,,,,,,,,,,,,*1C
{"class":"TPV","mode":3,"time":"2019-10-20T00:03:41.922Z","leapseconds":18,"ept":0.005,"lat":41.339506891,"lon":-75.705935988,"altHAE":210.604,"altMSL":244.035,"magvar":-12.1,"geoidSep":-33.430}
$GPGGA,000341.92,4120.3704,N,07542.3562,W,1,00,,244.03,M,-33.430,M,,*47
$GPRMC,000341.92,A,4120.3704,N,07542.3562,W,,,201019,-12.1,W*40
$GPGSA,A,3,,,,,,,,,,,,,,,*1C
{"class":"TPV","mode":3,"time":"2019-10-20T00:03:41.923Z","leapseconds":18,"ept":0.005,"lat":41.339506891,"lon":-75.705935988,"altHAE":210.604,"altMSL":244.035,"magvar":-12.1,"geoidSep":-33.430}
$GPGGA,000341.92,4120.3704,N,07542.3562,W,1,00,,244.03,M,-33.430,M,,*47
$GPRMC,000341.92,A,4120.3704,N,07542.3562,W,,,201019,-12.1,W*40
$GPGSA,A,3,,,,,,,,,,,,,,,*1C
{"class":"TPV","mode":3,"time":"2019-10-20T00:03:41.924Z","leapseconds":18,"ept":0.005,"lat":41.339506891,"lon":-75.705935988,"altHAE":210.604,"altMSL":244.035,"magvar":-12.1,"geoidSep":-33.430}
$GPGGA,000341.93,4120.3704,N,07542.3562,W,1,00,,244.03,M,-33.430,M,,*46
$GPRMC,000341.93,A,4120.3704,N,07542.3562,W,,,201019,-12.1,W*41
$GPGSA,A,3,,,,,,,,,,,,,,,*1C
{"class":"TPV","mode":3,"time":"2019-10-20T00:03:41.925Z","leapseconds":18,"ept":0.005,"lat":41.339506891,"lon":-75.705935988,"altHAE":210.604,"altMSL":244.035,"magvar":-12.1,"geoidSep":-33.430}
$GPGGA,000341.93,4120.3704,N,07542.3562,W,1,00,,244.03,M,-33.430,M,,*46
$GPRMC,000341.93,A,4120.3704,N,07542.3562,W,,,201019,-12.1,W*41
$GPGSA,A,3,,,,,,,,,,,,,,,*1C
{"class":"TPV","mode":3,"time":"2019-10-20T00:03:41.926Z","leapseconds":18,"ept":0.005,"lat":41.339506891,"lon":-75.705935988,"altHAE":210.604,"altMSL":244.035,"magvar":-12.1,"geoidSep":-33.430}
$GPGGA,000341.93,4120.3704,N,07542.3562,W,1,00,,244.03,M,-33.430,M,,*46
$GPRMC,000341.93,A,4120.3704,N,07542.3562,W,,,201019,-12.1,W*41
$GPGSA,A,3,,,,,,,,,,,,,,,*1C
{"class":"TPV","mode":3,"time":"2019-10-20T00:03:41.927Z","leapseconds":18,"ept":0.005,"lat":41.339506891,"lon":-75.705935988,"altHAE":210.604,"altMSL":244.035,"magvar":-12.1,"geoidSep":-33.430}
$GPGGA,000341.93,4120.3704,N,07542.3562,W,1,00,,244.03,M,-33.430,M,,*46
$GPRMC,000341.93,A,4120.3704,N,07542.3562,W,,,201019,-12.1,W*41
$GPGSA,A,3,,,,,,,,,,,,,,,*1C
{"class":"TPV","mode":3,"time":"2019-10-20T00:03:41.928Z","leapseconds":18,"ept":0.005,"lat":41.339506891,"lon":-75.705935988,"altHAE":210.604,"altMSL":244.035,"magvar":-12.1,"geoidSep":-33.430}
$GPGGA,000341.93,4120.3704,N,07542.3562,W,1,00,,244.03,M,-33.430,M,,*46
$GPRMC,000341.93,A,4120.3704,N,07542.3562,W,,,201019,-12.1,W*41
$GPGSA,A,3,,,,,,,,,,,,,,,*1C
{"class":"TPV","mode":3,"time":"2019-10-20T00:03:41.929Z","leapseconds":18,"ept":0.005,"lat":41.339506891,"lon":-75.705935988,"altHAE":210.604,"altMSL":244.035,"magvar":-12.1,"geoidSep":-33.430}
$GPGGA,000341.93,4120.3704,N,07542.3562,W,1,00,,244.03,M,-33.430,M,,*46
$GPRMC,000341.93,A,4120.3704,N,07542.3562,W,,,201019,-12.1,W*41
$GPGSA,A,3,,,,,,,,,,,,,,,*1C
{"class":"TPV","mode":3,"time":"2019-10-20T00:03:41.930Z","leapseconds":18,"ept":0.005,"lat":41.339506891,"lon":-75.705935988,"altHAE":210.604,"altMSL":244.035,"magvar":-12.1,"geoidSep":-33.430}
$GPGGA,000341.93,4120.3704,N,07542.3562,W,1,00,,244.03,M,-33.430,M,,*46
$GPRMC,000341.93,A,4120.3704,N,07542.3562,W,,,201019,-12.1,W*41
$GPGSA,A,3,,,,,,,,,,,,,,,*1C
{"class":"TPV","mode":3,"time":"2019-10-20T00:03:41.931Z","leapseconds":18,"ept":0.005,"lat":41.339506891,"lon":-75.705935988,"altHAE":210.604,"altMSL":244.035,"magvar":-12.1,"geoidSep":-33.430}
$GPGGA,000341.93,4120.3704,N,07542.3562,W,1,00,,244.03,M,-33.430,M,,*46
$GPRMC,000341.93,A,4120.3704,N,07542.3562,W,,,201019,-12.1,W*41
$GPGSA,A,3,,,,,,,,,,,,,,,*1C
{"class":"TPV","mode":3,"time":"2019-10-20T00:03:41.932Z","leapseconds":18,"ept":0.005,"lat":41.339506891,"lon":-75.705935988,"altHAE":210.604,"altMSL":244.035,"magvar":-12.1,"geoidSep":-33.430}
$GPGGA,000341.93,4120.3704,N,07542.3562,W,1,00,,244.03,M,-33.430,M,,*46
$GPRMC,000341.93,A,4120.3704,N,07542.3562,W,,,201019,-12.1,W*41
$GPGSA,A,3,,,,,,,,,,,,,,,*1C
{"class":"TPV","mode":3,"time":"2019-10-20T00:03:41.933Z","leapseconds":18,"ept":0.005,"lat":41.339506891,"lon":-75.705935988,"altHAE":210.604,"altMSL":244.035,"magvar":-12.1,"geoidSep":-33.430}
$GPGGA,000341.93,4120.3704,N,07542.3562,W,1,00,,244.03,M,-33.430,M,,*46
$GPRMC,000341.93,A,4120.3704,N,07542.3562,W,,,201019,-12.1,W*41
$GPGSA,A,3,,,,,,,,,,,,,,,*1C
{"class":"TPV","mode":3,"time":"2019-10-20T00:03:41.934Z","leapseconds":18,"ept":0.005,"lat":41.339506891,"lon":-75.705935988,"altHAE":210.604,"altMSL":244.035,"magvar":-12.1,"geoidSep":-33.430}
$GPGGA,000341.94,4120.3704,N,07542.3562,W,1,00,,244.03,M,-33.430,M,,*41
$GPRMC,000341.94,A,4120.3704,N,07542.3562,W,,,201019,-12.1,W*46
$GPGSA,A,3,,,,,,,,,,,,,,,*1C
{"class":"TPV","mode":3,"time":"2019-10-20T00:03:41.935Z","leapseconds":18,"ept":0.005,"lat":41.339506891,"lon":-75.705935988,"altHAE":210.604,"altMSL":244.035,"magvar":-12.1,"geoidSep":-33.430}
$GPGGA,000341.94,4120.3704,N,07542.3562,W,1,00,,244.03,M,-33.430,M,,*41
$GPRMC,000341.94,A,4120.3704,N,07542.3562,W,,,201019,-12.1,W*46
$GPGSA,A,3,,,,,,,,,,,,,,,*1C
{"class":"TPV","mode":3,"time":"2019-10-20T00:03:41.936Z","leapseconds":18,"ept":0.005,"lat":41.339506891,"lon":-75.705935988,"altHAE":210.604,"altMSL":244.035,"magvar":-12.1,"geoidSep":-33.430}
$GPGGA,000341.94,4120.3704,N,07542.3562,W,1,00,,244.03,M,-33.430,M,,*41
$GPRMC,000341.94,A,4120.3704,N,07542.3562,W,,,201019,-12.1,W*46
$GPGSA,A,3,,,,,,,,,,,,,,,*1C
{"class":"TPV","mode":3,"time":"2019-10-20T00:03:41.937Z","leapseconds":18,"ept":0.005,"lat":41.339506891,"lon":-75.705935988,"altHAE":210.604,"altMSL":244.035,"magvar":-12.1,"geoidSep":-33.430}
$GPGGA,000341.94,4120.3704,N,07542.3562,W,1,00,,244.03,M,-33.430,M,,*41
$GPRMC,000341.94,A,4120.3704,N,07542.3562,W,,,201019,-12.1,W*46
$GPGSA,A,3,,,,,,,,,,,,,,,*1C
{"class":"TPV","mode":3,"time":"2019-10-20T00:03:41.938Z","leapseconds":18,"ept":0.005,"lat":41.339506891,"lon":-75.705935988,"altHAE":210.604,"altMSL":244.035,"magvar":-12.1,"geoidSep":-33.430}
$GPGGA,000341.94,4120.3704,N,07542.3562,W,1,00,,244.03,M,-33.430,M,,*41
$GPRMC,000341.94,A,4120.3704,N,07542.3562,W,,,201019,-12.1,W*46
$GPGSA,A,3,,,,,,,,,,,,,,,*1C
{"class":"TPV","mode":3,"time":"2019-10-20T00:03:41.939Z","leapseconds":18,"ept":0.005,"lat":41.339506891,"lon":-75.705935988,"altHAE":210.604,"altMSL":244.035,"magvar":-12.1,"geoidSep":-33.430}
$GPGGA,000341.94,4120.3704,N,07542.3562,W,1,00,,244.03,M,-33.430,M,,*41
$GPRMC,000341.94,A,4120.3704,N,07542.3562,W,,,201019,-12.1,W*46
$GPGSA,A,3,,,,,,,,,,,,,,,*1C
{"class":"TPV","mode":3,"time":"2019-10-20T00:03:41.940Z","leapseconds":18,"ept":0.005,"lat":41.339506891,"lon":-75.705935988,"altHAE":210.604,"altMSL":244.035,"magvar":-12.1,"geoidSep":-33.430}
$GPGGA,000341.94,4120.3704,N,07542.3562,W,1,00,,244.03,M,-33.430,M,,*41
$GPRMC,000341.94,A,4120.3704,N,07542.3562,W,,,201019,-12.1,W*46
$GPGSA,A,3,,,,,,,,,,,,,,,*1C
{"class":"TPV","mode":3,"time":"2019-10-20T00:03:41.941Z","leapseconds":18,"ept":0.005,"lat":41.339506891,"lon":-75.705935988,"altHAE":210.604,"altMSL":244.035,"magvar":-12.1,"geoidSep":-33.430}
$GPGGA,000341.94,4120.3704,N,07542.3562,W,1,00,,244.03,M,-33.430,M,,*41
$GPRMC,000341.94,A,4120.3704,N,07542.3562,W,,,201019,-12.1,W*46
$GPGSA,A,3,,,,,,,,,,,,,,,*1C
{"class":"TPV","mode":3,"time":"2019-10-20T00:03:41.942Z","leapseconds":18,"ept":0.005,"lat":41.339506891,"lon":-75.705935988,"altHAE":210.604,"altMSL":244.035,"magvar":-12.1,"geoidSep":-33.430}
$GPGGA,000341.94,4120.3704,N,07542.3562,W,1,00,,244.03,M,-33.430,M,,*41
$GPRMC,000341.94,A,4120.3704,N,07542.3562,W,,,201019,-12.1,W*46
$GPGSA,A,3,,,,,,,,,,,,,,,*1C
{"class":"TPV","mode":3,"time":"2019-10-20T00:03:41.943Z","leapseconds":18,"ept":0.005,"lat":41.339506891,"lon":-75.705935988,"altHAE":210.604,"altMSL":244.035,"magvar":-12.1,"geoidSep":-33.430}
$GPGGA,000341.94,4120.3704,N,07542.3562,W,1,00,,244.03,M,-33.430,M,,*41
$GPRMC,000341.94,A,4120.3704,N,07542.3562,W,,,201019,-12.1,W*46
$GPGSA,A,3,,,,,,,,,,,,,,,*1C
{"class":"TPV","mode":3,"time":"2019-10-20T00:03:41.944Z","leapseconds":18,"ept":0.005,"lat":41.339506891,"lon":-75.705935988,"altHAE":210.604,"altMSL":244.035,"magvar":-12.1,"geoidSep":-33.430}
$GPGGA,000341.95,4120.3704,N,07542.3562,W,1,00,,244.03,M,-33.430,M,,*40
$GPRMC,000341.95,A,4120.3704,N,07542.3562,W,,,201019,-12.1,W*47
$GPGSA,A,3,,,,,,,,,,,,,,,*1C
{"class":"TPV","mode":3,"time":"2019-10-20T00:03:41.945Z","leapseconds":18,"ept":0.005,"lat":41.339506891,"lon":-75.705935988,"altHAE":210.604,"altMSL":244.035,"magvar":-12.1,"geoidSep":-33.430}
$GPGGA,000341.95,4120.3704,N,07542.3562,W,1,00,,244.03,M,-33.430,M,,*40
$GPRMC,000341.95,A,4120.3704,N,07542.3562,W,,,201019,-12.1,W*47
$GPGSA,A,3,,,,,,,,,,,,,,,*1C
{"class":"TPV","mode":3,"time":"2019-10-20T00:03:41.946Z","leapseconds":18,"ept":0.005,"lat":41.339506891,"lon":-75.705935988,"altHAE":210.604,"altMSL":244.035,"magvar":-12.1,"geoidSep":-33.430}
$GPGGA,000341.95,4120.3704,N,07542.3562,W,1,00,,244.03,M,-33.430,M,,*40
$GPRMC,000341.95,A,4120.3704,N,07542.3562,W,,,201019,-12.1,W*47
$GPGSA,A,3,,,,,,,,,,,,,,,*1C
{"class":"TPV","mode":3,"time":"2019-10-20T00:03:41.947Z","leapseconds":18,"ept":0.005,"lat":41.339506891,"lon":-75.705935988,"altHAE":210.604,"altMSL":244.035,"magvar":-12.1,"geoidSep":-33.430}
$GPGGA,000341.95,4120.3704,N,07542.3562,W,1,00,,244.03,M,-33.430,M,,*40
$GPRMC,000341.95,A,4120.3704,N,07542.3562,W,,,201019,-12.1,W*47
$GPGSA,A,3,,,,,,,,,,,,,,,*1C
{"class":"TPV","mode":3,"time":"2019-10-20T00:03:41.948Z","leapseconds":18,"ept":0.005,"lat":41.339506891,"lon":-75.705935988,"altHAE":210.604,"altMSL":244.035,"magvar":-12.1,"geoidSep":-33.430}
$GPGGA,000341.95,4120.3704,N,07542.3562,W,1,00,,244.03,M,-33.430,M,,*40
$GPRMC,000341.95,A,4120.3704,N,07542.3562,W,,,201019,-12.1,W*47
$GPGSA,A,3,,,,,,,,,,,,,,,*1C
{"class":"TPV","mode":3,"time":"2019-10-20T00:03:41.949Z","leapseconds":18,"ept":0.005,"lat":41.339506891,"lon":-75.705935988,"altHAE":210.604,"altMSL":244.035,"magvar":-12.1,"geoidSep":-33.430}
$GPGGA,000341.95,4120.3704,N,07542.3562,W,1,00,,244.03,M,-33.430,M,,*40
$GPRMC,000341.95,A,4120.3704,N,07542.3562,W,,,201019,-12.1,W*47
$GPGSA,A,3,,,,,,,,,,,,,,,*1C
{"class":"TPV","mode":3,"time":"2019-10-20T00:03:41.950Z","leapseconds":18,"ept":0.005,"lat":41.339506891,"lon":-75.705935988,"altHAE":210.604,"altMSL":244.035,"magvar":-12.1,"geoidSep":-33.430}
$GPGGA,000341.95,4120.3704,N,07542.3562,W,1,00,,244.03,M,-33.430,M,,*40
$GPRMC,000341.95,A,4120.3704,N,07542.3562,W,,,201019,-12.1,W*47
$GPGSA,A,3,,,,,,,,,,,,,,,*1C
{"class":"TPV","mode":3,"time":"2019-10-20T00:03:41.951Z","leapseconds":18,"ept":0.005,"lat":41.339506891,"lon":-75.705935988,"altHAE":210.604,"altMSL":244.035,"magvar":-12.1,"geoidSep":-33.430}
$GPGGA,000341.95,4120.3704,N,07542.3562,W,1,00,,244.03,M,-33.430,M,,*40
$GPRMC,000341.95,A,4120.3704,N,07542.3562,W,,,201019,-12.1,W*47
$GPGSA,A,3,,,,,,,,,,,,,,,*1C
{"class":"TPV","mode":3,"time":"2019-10-20T00:03:41.952Z","leapseconds":18,"ept":0.005,"lat":41.339506891,"lon":-75.705935988,"altHAE":210.604,"altMSL":244.035,"magvar":-12.1,"geoidSep":-33.430}
$GPGGA,000341.95,4120.3704,N,07542.3562,W,1,00,,244.03,M,-33.430,M,,*40
$GPRMC,000341.95,A,4120.3704,N,07542.3562,W,,,201019,-12.1,W*47
$GPGSA,A,3,,,,,,,,,,,,,,,*1C
{"class":"TPV","mode":3,"time":"2019-10-20T00:03:41.953Z","leapseconds":18,"ept":0.005,"lat":41.339506891,"lon":-75.705935988,"altHAE":210.604,"altMSL":244.035,"magvar":-12.1,"geoidSep":-33.430}
$GPGGA,000341.95,4120.3704,N,07542.3562,W,1,00,,244.03,M,-33.430,M,,*40
$GPRMC,000341.95,A,4120.3704,N,07542.3562,W,,,201019,-12.1,W*47
$GPGSA,A,3,,,,,,,,,,,,,,,*1C
{"class":"TPV","mode":3,"time":"2019-10-20T00:03:41.954Z","leapseconds":18,"ept":0.005,"lat":41.339506891,"lon":-75.705935988,"altHAE":210.604,"altMSL":244.035,"magvar":-12.1,"geoidSep":-33.430}
$GPGGA,000341.96,4120.3704,N,07542.3562,W,1,00,,244.03,M,-33.430,M,,*43
$GPRMC,000341.96,A,4120.3704,N,07542.3562,W,,,201019,-12.1,W*44
$GPGSA,A,3,,,,,,,,,,,,,,,*1C
{"class":"TPV","mode":3,"time":"2019-10-20T00:03:41.955Z","leapseconds":18,"ept":0.005,"lat":41.339506891,"lon":-75.705935988,"altHAE":210.604,"altMSL":244.035,"magvar":-12.1,"geoidSep":-33.430}
$GPGGA,000341.96,4120.3704,N,07542.3562,W,1,00,,244.03,M,-33.430,M,,*43
$GPRMC,000341.96,A,4120.3704,N,07542.3562,W,,,201019,-12.1,W*44
$GPGSA,A,3,,,,,,,,,,,,,,,*1C
{"class":"TPV","mode":3,"time":"2019-10-20T00:03:41.956Z","leapseconds":18,"ept":0.005,"lat":41.339506891,"lon":-75.705935988,"altHAE":210.604,"altMSL":244.035,"magvar":-12.1,"geoidSep":-33.430}
$GPGGA,000341.96,4120.3704,N,07542.3562,W,1,00,,244.03,M,-33.430,M,,*43
$GPRMC,000341.96,A,4120.3704,N,07542.3562,W,,,201019,-12.1,W*44
$GPGSA,A,3,,,,,,,,,,,,,,,*1C
{"class":"TPV","mode":3,"time":"2019-10-20T00:03:41.957Z","leapseconds":18,"ept":0.005,"lat":41.339506891,"lon":-75.705935988,"altHAE":210.604,"altMSL":244.035,"magvar":-12.1,"geoidSep":-33.430}
$GPGGA,000341.96,4120.3704,N,07542.3562,W,1,00,,244.03,M,-33.430,M,,*43
$GPRMC,000341.96,A,4120.3704,N,07542.3562,W,,,201019,-12.1,W*44
$GPGSA,A,3,,,,,,,,,,,,,,,*1C
{"class":"TPV","mode":3,"time":"2019-10-20T00:03:41.958Z","leapseconds":18,"ept":0.005,"lat":41.339506891,"lon":-75.705935988,"altHAE":210.604,"altMSL":244.035,"magvar":-12.1,"geoidSep":-33.430}
$GPGGA,000341.96,4120.3704,N,07542.3562,W,1,00,,244.03,M,-33.430,M,,*43
$GPRMC,000341.96,A,4120.3704,N,07542.3562,W,,,201019,-12.1,W*44
$GPGSA,A,3,,,,,,,,,,,,,,,*1C
{"class":"TPV","mode":3,"time":"2019-10-20T00:03:41.959Z","leapseconds":18,"ept":0.005,"lat":41.339506891,"lon":-75.705935988,"altHAE":210.604,"altMSL":244.035,"magvar":-12.1,"geoidSep":-33.430}
$GPGGA,000341.96,4120.3704,N,07542.3562,W,1,00,,244.03,M,-33.430,M,,*43
$GPRMC,000341.96,A,4120.3704,N,07542.3562,W,,,201019,-12.1,W*44
$GPGSA,A,3,,,,,,,,,,,,,,,*1C
{"class":"TPV","mode":3,"time":"2019-10-20T00:03:41.960Z","leapseconds":18,"ept":0.005,"lat":41.339506891,"lon":-75.705935988,"altHAE":210.604,"altMSL":244.035,"magvar":-12.1,"geoidSep":-33.430}
$GPGGA,000341.96,4120.3704,N,07542.3562,W,1,00,,244.03,M,-33.430,M,,*43
$GPRMC,000341.96,A,4120.3704,N,07542.3562,W,,,201019,-12.1,W*44
$GPGSA,A,3,,,,,,,,,,,,,,,*1C
{"class":"TPV","mode":3,"time":"2019-10-20T00:03:41.961Z","leapseconds":18,"ept":0.005,"lat":41.339506891,"lon":-75.705935988,"altHAE":210.604,"altMSL":244.035,"magvar":-12.1,"geoidSep":-33.430}
$GPGGA,000341.96,4120.3704,N,07542.3562,W,1,00,,244.03,M,-33.430,M,,*43
$GPRMC,000341.96,A,4120.3704,N,07542.3562,W,,,201019,-12.1,W*44
$GPGSA,A,3,,,,,,,,,,,,,,,*1C
{"class":"TPV","mode":3,"time":"2019-10-20T00:03:41.962Z","leapseconds":18,"ept":0.005,"lat":41.339506891,"lon":-75.705935988,"altHAE":210.604,"altMSL":244.035,"magvar":-12.1,"geoidSep":-33.430}
$GPGGA,000341.96,4120.3704,N,07542.3562,W,1,00,,244.03,M,-33.430,M,,*43
$GPRMC,000341.96,A,4120.3704,N,07542.3562,W,,,201019,-12.1,W*44
$GPGSA,A,3,,,,,,,,,,,,,,,*1C
{"class":"TPV","mode":3,"time":"2019-10-20T00:03:41.963Z","leapseconds":18,"ept":0.005,"lat":41.339506891,"lon":-75.705935988,"altHAE":210.604,"altMSL":244.035,"magvar":-12.1,"geoidSep":-33.430}
$GPGGA,000341.96,4120.3704,N,07542.3562,W,1,00,,244.03,M,-33.430,M,,*43
$GPRMC,000341.96,A,4120.3704,N,07542.3562,W,,,201019,-12.1,W*44
$GPGSA,A,3,,,,,,,,,,,,,,,*1C
{"class":"TPV","mode":3,"time":"2019-10-20T00:03:41.964Z","leapseconds":18,"ept":0.005,"lat":41.339506891,"lon":-75.705935988,"altHAE":210.604,"altMSL":244.035,"magvar":-12.1,"geoidSep":-33.430}
$GPGGA,000341.97,4120.3704,N,07542.3562,W,1,00,,244.03,M,-33.430,M,,*42
$GPRMC,000341.97,A,4120.3704,N,07542.3562,W,,,201019,-12.1,W*45
$GPGSA,A,3,,,,,,,,,,,,,,,*1C
{"class":"TPV","mode":3,"time":"2019-10-20T00:03:41.965Z","leapseconds":18,"ept":0.005,"lat":41.339506891,"lon":-75.705935988,"altHAE":210.604,"altMSL":244.035,"magvar":-12.1,"geoidSep":-33.430}
$GPGGA,000341.97,4120.3704,N,07542.3562,W,1,00,,244.03,M,-33.430,M,,*42
$GPRMC,000341.97,A,4120.3704,N,07542.3562,W,,,201019,-12.1,W*45
$GPGSA,A,3,,,,,,,,,,,,,,,*1C
{"class":"TPV","mode":3,"time":"2019-10-20T00:03:41.966Z","leapseconds":18,"ept":0.005,"lat":41.339506891,"lon":-75.705935988,"altHAE":210.604,"altMSL":244.035,"magvar":-12.1,"geoidSep":-33.430}
$GPGGA,000341.97,4120.3704,N,07542.3562,W,1,00,,244.03,M,-33.430,M,,*42
$GPRMC,000341.97,A,4120.3704,N,07542.3562,W,,,201019,-12.1,W*45
$GPGSA,A,3,,,,,,,,,,,,,,,*1C
{"class":"TPV","mode":3,"time":"2019-10-20T00:03:41.967Z","leapseconds":18,"ept":0.005,"lat":41.339506891,"lon":-75.705935988,"altHAE":210.604,"altMSL":244.035,"magvar":-12.1,"geoidSep":-33.430}
