$GPZDA,231119.00,23,12,2007,00,00*68
$GPGGA,231118,2037.7569,N,08704.0845,W,2,07,,75.78,M,-13.865,M,,*52
$GPRMC,231118,A,2037.7569,N,08704.0845,W,0.0000,0.000,231207,,*3B
$GPGSA,A,3,,,,,,,,,,,,,,,*1C
{"class":"TPV","status":2,"mode":3,"time":"2007-12-23T23:11:18.999Z","ept":0.005,"lat":20.629282026,"lon":-87.068075525,"alt":75.777,"track":0.0000,"speed":0.000,"climb":0.000,"eps":0.17,"ecefx":305449.31,"ecefy":-5963890.99,"ecefz":2233051.73,"ecefvx":0.00,"ecefvy":0.00,"ecefvz":0.00,"ecefpAcc":2.80,"ecefvAcc":0.17}
$GPGSV,4,1,14,26,66,116,00,15,67,141,32,24,44,344,00,02,21,089,31*7C
$GPGSV,4,2,14,30,21,234,50,05,18,217,40,12,16,201,41,18,25,255,41*7D
$GPGSV,4,3,14,10,31,032,00,21,19,310,00,135,33,251,45,06,54,308,24*4A
$GPGSV,4,4,14,09,05,174,00,122,-9,000,00*57
{"class":"SKY","xdop":0.69,"ydop":1.52,"vdop":2.00,"tdop":1.33,"hdop":1.67,"gdop":2.92,"pdop":2.60,"satellites":[{"PRN":26,"el":66,"az":116,"ss":0,"used":false,"gnssid":0,"svid":26},{"PRN":15,"el":67,"az":141,"ss":32,"used":true,"gnssid":0,"svid":15},{"PRN":24,"el":44,"az":344,"ss":0,"used":false,"gnssid":0,"svid":24},{"PRN":2,"el":21,"az":89,"ss":31,"used":true,"gnssid":0,"svid":2},{"PRN":30,"el":21,"az":234,"ss":50,"used":true,"gnssid":0,"svid":30},{"PRN":5,"el":18,"az":217,"ss":40,"used":true,"gnssid":0,"svid":5},{"PRN":12,"el":16,"az":201,"ss":41,"used":true,"gnssid":0,"svid":12},{"PRN":18,"el":25,"az":255,"ss":41,"used":true,"gnssid":0,"svid":18},{"PRN":10,"el":31,"az":32,"ss":0,"used":false,"gnssid":0,"svid":10},{"PRN":21,"el":19,"az":310,"ss":0,"used":false,"gnssid":0,"svid":21},{"PRN":135,"el":33,"az":251,"ss":45,"used":true,"gnssid":1,"svid":135},{"PRN":6,"el":54,"az":308,"ss":24,"used":false,"gnssid":0,"svid":6},{"PRN":9,"el":5,"az":174,"ss":0,"used":false,"gnssid":0,"svid":9},{"PRN":122,"el":-9,"az":0,"ss":0,"used":false,"gnssid":1,"svid":122}]}
$GPZDA,231125.00,23,12,2007,00,00*67
$GPGGA,231124,2037.7569,N,08704.0845,W,2,07,1.67,75.76,M,-13.865,M,,*4D
$GPRMC,231124,A,2037.7569,N,08704.0845,W,0.0000,0.000,231207,,*34
$GPGSA,A,3,15,2,30,5,12,18,135,,,,,,2.6,1.7,2.0*0F
{"class":"TPV","status":2,"mode":3,"time":"2007-12-23T23:11:24.999Z","ept":0.005,"lat":20.629281973,"lon":-87.068075520,"alt":75.764,"epx":2.588,"epy":5.690,"epv":11.500,"track":0.0000,"speed":0.000,"climb":0.000,"eps":0.17,"epc":4.60,"ecefx":305449.31,"ecefy":-5963890.98,"ecefz":2233051.72,"ecefvx":0.00,"ecefvy":0.00,"ecefvz":0.00,"ecefpAcc":2.80,"ecefvAcc":0.17}
$GPGSV,4,1,14,26,66,116,00,15,67,141,32,24,44,344,00,02,21,089,32*7F
$GPGSV,4,2,14,30,21,234,50,05,18,217,40,12,16,201,41,18,25,255,41*7D
$GPGSV,4,3,14,10,31,032,00,21,19,310,00,135,33,251,45,06,54,308,25*4B
$GPGSV,4,4,14,09,05,174,00,122,-9,000,00*57
{"class":"SKY","xdop":0.69,"ydop":1.52,"vdop":1.99,"tdop":1.33,"hdop":1.67,"gdop":2.92,"pdop":2.60,"satellites":[{"PRN":26,"el":66,"az":116,"ss":0,"used":false,"gnssid":0,"svid":26},{"PRN":15,"el":67,"az":141,"ss":32,"used":true,"gnssid":0,"svid":15},{"PRN":24,"el":44,"az":344,"ss":0,"used":false,"gnssid":0,"svid":24},{"PRN":2,"el":21,"az":89,"ss":32,"used":true,"gnssid":0,"svid":2},{"PRN":30,"el":21,"az":234,"ss":50,"used":true,"gnssid":0,"svid":30},{"PRN":5,"el":18,"az":217,"ss":40,"used":true,"gnssid":0,"svid":5},{"PRN":12,"el":16,"az":201,"ss":41,"used":true,"gnssid":0,"svid":12},{"PRN":18,"el":25,"az":255,"ss":41,"used":true,"gnssid":0,"svid":18},{"PRN":10,"el":31,"az":32,"ss":0,"used":false,"gnssid":0,"svid":10},{"PRN":21,"el":19,"az":310,"ss":0,"used":false,"gnssid":0,"svid":21},{"PRN":135,"el":33,"az":251,"ss":45,"used":true,"gnssid":1,"svid":135},{"PRN":6,"el":54,"az":308,"ss":25,"used":false,"gnssid":0,"svid":6},{"PRN":9,"el":5,"az":174,"ss":0,"used":false,"gnssid":0,"svid":9},{"PRN":122,"el":-9,"az":0,"ss":0,"used":false,"gnssid":1,"svid":122}]}
$GPZDA,231126.00,23,12,2007,00,00*64
$GPGGA,231125,2037.7569,N,08704.0845,W,2,07,1.67,75.76,M,-13.865,M,,*4C
$GPRMC,231125,A,2037.7569,N,08704.0845,W,0.0000,0.000,231207,,*35
$GPGSA,A,3,15,2,30,5,12,18,135,,,,,,2.6,1.7,2.0*0F
{"class":"TPV","status":2,"mode":3,"time":"2007-12-23T23:11:25.999Z","ept":0.005,"lat":20.629281802,"lon":-87.068075424,"alt":75.757,"epx":2.588,"epy":5.690,"epv":11.500,"track":0.0000,"speed":0.000,"climb":0.000,"eps":0.17,"epc":4.60,"ecefx":305449.32,"ecefy":-5963890.98,"ecefz":2233051.70,"ecefvx":0.00,"ecefvy":0.00,"ecefvz":0.00,"ecefpAcc":2.80,"ecefvAcc":0.17}
$GPGSV,4,1,14,26,66,116,00,15,67,141,33,24,44,344,00,02,21,089,33*7F
$GPGSV,4,2,14,30,21,234,50,05,18,217,40,12,16,201,41,18,25,255,41*7D
$GPGSV,4,3,14,10,31,032,00,21,19,310,00,135,33,251,45,06,54,308,24*4A
$GPGSV,4,4,14,09,05,174,00,122,-9,000,00*57
{"class":"SKY","xdop":0.69,"ydop":1.52,"vdop":1.99,"tdop":1.33,"hdop":1.67,"gdop":2.92,"pdop":2.60,"satellites":[{"PRN":26,"el":66,"az":116,"ss":0,"used":false,"gnssid":0,"svid":26},{"PRN":15,"el":67,"az":141,"ss":33,"used":true,"gnssid":0,"svid":15},{"PRN":24,"el":44,"az":344,"ss":0,"used":false,"gnssid":0,"svid":24},{"PRN":2,"el":21,"az":89,"ss":33,"used":true,"gnssid":0,"svid":2},{"PRN":30,"el":21,"az":234,"ss":50,"used":true,"gnssid":0,"svid":30},{"PRN":5,"el":18,"az":217,"ss":40,"used":true,"gnssid":0,"svid":5},{"PRN":12,"el":16,"az":201,"ss":41,"used":true,"gnssid":0,"svid":12},{"PRN":18,"el":25,"az":255,"ss":41,"used":true,"gnssid":0,"svid":18},{"PRN":10,"el":31,"az":32,"ss":0,"used":false,"gnssid":0,"svid":10},{"PRN":21,"el":19,"az":310,"ss":0,"used":false,"gnssid":0,"svid":21},{"PRN":135,"el":33,"az":251,"ss":45,"used":true,"gnssid":1,"svid":135},{"PRN":6,"el":54,"az":308,"ss":24,"used":false,"gnssid":0,"svid":6},{"PRN":9,"el":5,"az":174,"ss":0,"used":false,"gnssid":0,"svid":9},{"PRN":122,"el":-9,"az":0,"ss":0,"used":false,"gnssid":1,"svid":122}]}
$GPZDA,231127.00,23,12,2007,00,00*65
$GPGGA,231126,2037.7569,N,08704.0845,W,2,07,1.67,75.75,M,-13.865,M,,*4C
$GPRMC,231126,A,2037.7569,N,08704.0845,W,0.0000,0.000,231207,,*36
$GPGSA,A,3,15,2,30,5,12,18,135,,,,,,2.6,1.7,2.0*0F
{"class":"TPV","status":2,"mode":3,"time":"2007-12-23T23:11:26.999Z","ept":0.005,"lat":20.629281718,"lon":-87.068075424,"alt":75.754,"epx":2.588,"epy":5.690,"epv":11.500,"track":0.0000,"speed":0.000,"climb":0.000,"eps":0.17,"epc":4.60,"ecefx":305449.32,"ecefy":-5963890.98,"ecefz":2233051.69,"ecefvx":0.00,"ecefvy":0.00,"ecefvz":0.00,"ecefpAcc":2.80,"ecefvAcc":0.17}
