$GPZDA,172236.00,01,12,2017,00,00*63
$GPGGA,172236.00,4513.1125,N,00548.4306,E,2,06,,278.88,M,48.583,M,,*77
$GPRMC,172236.00,A,4513.1125,N,00548.4306,E,0.0911,158.924,011217,,*02
$GPGSA,A,2,,,,,,,,,,,,,,,*1D
{"class":"TPV","status":2,"mode":2,"time":"2017-12-01T17:22:36.000Z","ept":0.005,"lat":45.218541146,"lon":5.807177490,"alt":278.879,"track":158.9240,"speed":0.047,"eps":0.01}
$GPZDA,172238.00,01,12,2017,00,00*6D
$GPGGA,172238.00,4513.1125,N,00548.4307,E,2,06,1.36,278.89,M,48.583,M,,*63
$GPRMC,172238.00,A,4513.1125,N,00548.4307,E,0.0911,158.924,011217,,*0D
$GPGSA,A,2,,,,,,,,,,,,,1.7,1.4,1.0*31
{"class":"TPV","status":2,"mode":2,"time":"2017-12-01T17:22:38.000Z","leapseconds":18,"ept":0.005,"lat":45.218542098,"lon":5.807177580,"alt":278.887,"track":158.9240,"speed":0.047,"eps":0.01,"eph":6.460,"sep":7.932}
{"class":"TPV","status":2,"mode":2,"time":"2017-12-01T17:22:38.000Z","leapseconds":18,"ept":0.005,"lat":45.218542098,"lon":5.807177580,"alt":278.887,"track":158.9240,"speed":0.047,"eps":0.01,"eph":6.460,"sep":7.932}
$GPZDA,172239.00,01,12,2017,00,00*6C
$GPGGA,172239.00,4513.1126,N,00548.4307,E,2,05,1.36,278.88,M,48.583,M,,*63
$GPRMC,172239.00,A,4513.1126,N,00548.4307,E,0.0911,158.924,011217,,*0F
$GPGSA,A,2,,,,,,,,,,,,,1.7,1.4,1.0*31
{"class":"TPV","status":2,"mode":2,"time":"2017-12-01T17:22:39.000Z","leapseconds":18,"ept":0.005,"lat":45.218543056,"lon":5.807177557,"alt":278.880,"track":158.9240,"speed":0.047,"eps":0.01,"eph":6.460,"sep":7.932}
$GPZDA,172240.00,01,12,2017,00,00*62
$GPGGA,172240.00,4513.1126,N,00548.4307,E,2,06,1.61,278.89,M,48.583,M,,*6D
$GPRMC,172240.00,A,4513.1126,N,00548.4307,E,0.0911,158.924,011217,,*01
$GPGSA,A,2,,,,,,,,,,,,,1.9,1.6,1.0*3D
{"class":"TPV","status":2,"mode":2,"time":"2017-12-01T17:22:40.000Z","leapseconds":18,"ept":0.005,"lat":45.218544008,"lon":5.807177647,"alt":278.887,"track":158.9240,"speed":0.047,"eps":0.01,"eph":6.460,"sep":7.932}
{"class":"TPV","status":2,"mode":2,"time":"2017-12-01T17:22:40.000Z","leapseconds":18,"ept":0.005,"lat":45.218544008,"lon":5.807177647,"alt":278.887,"track":158.9240,"speed":0.047,"eps":0.01,"eph":6.460,"sep":7.932}
$GPZDA,172241.00,01,12,2017,00,00*63
$GPGGA,172241.00,4513.1127,N,00548.4307,E,2,06,1.36,278.87,M,48.583,M,,*61
$GPRMC,172241.00,A,4513.1127,N,00548.4307,E,0.0911,158.924,011217,,*01
$GPGSA,A,2,,,,,,,,,,,,,1.7,1.4,1.0*31
{"class":"TPV","status":2,"mode":2,"time":"2017-12-01T17:22:41.000Z","leapseconds":18,"ept":0.005,"lat":45.218545658,"lon":5.807177827,"alt":278.874,"track":158.9240,"speed":0.047,"eps":0.01,"eph":6.460,"sep":7.932}
$GPZDA,172242.00,01,12,2017,00,00*60
$GPGGA,172242.00,4513.1128,N,00548.4307,E,2,06,1.36,278.87,M,48.583,M,,*6D
$GPRMC,172242.00,A,4513.1128,N,00548.4307,E,0.0911,158.924,011217,,*0D
$GPGSA,A,2,,,,,,,,,,,,,1.7,1.4,1.0*31
{"class":"TPV","status":2,"mode":2,"time":"2017-12-01T17:22:42.000Z","leapseconds":18,"ept":0.005,"lat":45.218547245,"lon":5.807177994,"alt":278.868,"track":158.9240,"speed":0.047,"eps":0.01,"eph":6.460,"sep":7.932}
{"class":"TPV","status":2,"mode":2,"time":"2017-12-01T17:22:42.000Z","leapseconds":18,"ept":0.005,"lat":45.218547245,"lon":5.807177994,"alt":278.868,"track":158.9240,"speed":0.047,"eps":0.01,"eph":6.460,"sep":7.932}
$GPZDA,172243.00,01,12,2017,00,00*61
$GPGGA,172243.00,4513.1129,N,00548.4307,E,2,06,1.36,278.86,M,48.583,M,,*6C
$GPRMC,172243.00,A,4513.1129,N,00548.4307,E,0.0911,158.924,011217,,*0D
$GPGSA,A,2,,,,,,,,,,,,,1.7,1.4,1.0*31
{"class":"TPV","status":2,"mode":2,"time":"2017-12-01T17:22:43.000Z","leapseconds":18,"ept":0.005,"lat":45.218548704,"lon":5.807178149,"alt":278.862,"track":158.9240,"speed":0.047,"eps":0.01,"eph":6.460,"sep":7.932}
$GPGSV,6,1,23,05,44,201,37,07,10,065,00,08,05,028,00,13,72,321,30*7B
$GPGSV,6,2,23,15,40,301,27,17,02,130,00,18,02,326,00,20,44,281,29*73
$GPGSV,6,3,23,21,06,304,00,24,08,253,21,28,56,087,35,30,38,061,19*71
$GPGSV,6,4,23,33,34,209,00,36,32,146,45,37,36,158,00,70,48,155,33*77
$GPGSV,6,5,23,71,74,308,23,72,22,324,00,73,76,251,30,74,21,228,13*7E
$GPGSV,6,6,23,80,44,037,29,81,07,032,25,88,04,346,00*42
