{"class":"RAW","time":1540500945,"nsec":992000000,"rawdata":[{"gnssid":0,"svid":32,"snr":50,"obs":"L1C","lli":0,"locktime":64500,"pseudorange":18191129.764003,"carrierphase":95595025.381802,"doppler":1130.424316},{"gnssid":0,"svid":10,"snr":48,"obs":"L1C","lli":0,"locktime":64500,"pseudorange":18209344.772436,"carrierphase":95690763.585883,"doppler":-985.383789},{"gnssid":0,"svid":14,"snr":46,"obs":"L1C","lli":0,"locktime":64500,"pseudorange":19164830.956166,"carrierphase":100711862.359504,"doppler":2350.592041},{"gnssid":0,"svid":20,"snr":43,"obs":"L1C","lli":0,"locktime":64500,"pseudorange":19397504.254558,"carrierphase":101934564.928294,"doppler":-2345.763916},{"gnssid":0,"svid":8,"snr":43,"obs":"L1C","lli":0,"locktime":64500,"pseudorange":19953380.486950,"carrierphase":104855688.209196,"doppler":-857.054932},{"gnssid":0,"svid":27,"snr":45,"obs":"L1C","lli":0,"locktime":64500,"pseudorange":20221549.866554,"carrierphase":106264934.124014,"doppler":-2679.057129},{"gnssid":0,"svid":24,"snr":40,"obs":"L1C","lli":0,"locktime":64500,"pseudorange":21308524.365814,"carrierphase":111977058.222027,"doppler":-1387.243652},{"gnssid":1,"svid":31,"snr":41,"obs":"L1C","lli":0,"locktime":64500,"pseudorange":35447161.829680,"carrierphase":186276090.297149,"doppler":13.682129},{"gnssid":1,"svid":35,"snr":44,"obs":"L1C","lli":0,"locktime":64500,"pseudorange":35527621.241283,"carrierphase":186698904.815604,"doppler":14.401367},{"gnssid":1,"svid":33,"snr":44,"obs":"L1C","lli":0,"locktime":64500,"pseudorange":35475540.054326,"carrierphase":186425213.906566,"doppler":15.211914},{"gnssid":0,"svid":11,"snr":31,"obs":"L1C","lli":0,"locktime":6920,"pseudorange":21136353.729460,"carrierphase":111072274.621856,"doppler":3265.142090},{"gnssid":0,"svid":21,"snr":40,"obs":"L1C","lli":0,"locktime":64500,"pseudorange":21533043.666063,"carrierphase":113156898.078325,"doppler":-3016.693115},{"gnssid":0,"svid":4,"snr":37,"obs":"L1C","lli":0,"locktime":64500,"pseudorange":21478168.193190,"carrierphase":112868537.207855,"doppler":-3284.967041}]}
$GPZDA,205546.00,25,10,2018,00,00*6B
$GPGGA,205546.00,4404.1286,N,12118.8586,W,1,09,,1132.83,M,-22.155,M,,*7E
$GPRMC,205546.00,A,4404.1286,N,12118.8586,W,0.0080,54.668,251018,14.4,E*74
$GPGSA,A,3,,,,,,,,,,,,,,,*1C
{"class":"TPV","mode":3,"time":"2018-10-25T20:55:46.000Z","leapseconds":18,"ept":0.005,"lat":44.068809596,"lon":-121.314309171,"altHAE":1110.675,"altMSL":1132.830,"track":54.6684,"magtrack":69.0869,"magvar":14.4,"speed":0.004,"climb":-0.017,"eps":0.02,"ecefx":-2386071.06,"ecefy":-3922190.51,"ecefz":4414360.73,"ecefvx":0.01,"ecefvy":0.01,"ecefvz":-0.01,"ecefpAcc":1.65,"ecefvAcc":0.02,"velN":0.002,"velE":0.003,"velD":0.017,"geoidSep":-22.155}
{"class":"RAW","time":1540500946,"nsec":992000000,"rawdata":[{"gnssid":0,"svid":32,"snr":50,"obs":"L1C","lli":0,"locktime":64500,"pseudorange":18190915.004174,"carrierphase":95593895.208314,"doppler":1129.898193},{"gnssid":0,"svid":10,"snr":48,"obs":"L1C","lli":0,"locktime":64500,"pseudorange":18209532.152874,"carrierphase":95691749.032490,"doppler":-985.574219},{"gnssid":0,"svid":14,"snr":46,"obs":"L1C","lli":0,"locktime":64500,"pseudorange":19164383.654735,"carrierphase":100709511.943516,"doppler":2350.289307},{"gnssid":0,"svid":20,"snr":44,"obs":"L1C","lli":0,"locktime":64500,"pseudorange":19397950.962682,"carrierphase":101936910.709630,"doppler":-2345.775635},{"gnssid":0,"svid":8,"snr":42,"obs":"L1C","lli":0,"locktime":64500,"pseudorange":19953543.454534,"carrierphase":104856545.524978,"doppler":-857.571472},{"gnssid":0,"svid":27,"snr":45,"obs":"L1C","lli":0,"locktime":64500,"pseudorange":20222059.552514,"carrierphase":106267613.381239,"doppler":-2679.332275},{"gnssid":0,"svid":24,"snr":41,"obs":"L1C","lli":0,"locktime":64500,"pseudorange":21308788.562111,"carrierphase":111978445.755905,"doppler":-1387.994385},{"gnssid":1,"svid":31,"snr":41,"obs":"L1C","lli":0,"locktime":64500,"pseudorange":35447159.386649,"carrierphase":186276076.558792,"doppler":13.552733},{"gnssid":1,"svid":35,"snr":45,"obs":"L1C","lli":0,"locktime":64500,"pseudorange":35527618.065343,"carrierphase":186698890.180421,"doppler":14.920654},{"gnssid":1,"svid":33,"snr":44,"obs":"L1C","lli":0,"locktime":64500,"pseudorange":35475537.070339,"carrierphase":186425198.736831,"doppler":15.341797},{"gnssid":0,"svid":11,"snr":31,"obs":"L1C","lli":0,"locktime":7920,"pseudorange":21135734.857488,"carrierphase":111069009.624063,"doppler":3264.724854},{"gnssid":0,"svid":21,"snr":40,"obs":"L1C","lli":0,"locktime":64500,"pseudorange":21533617.778226,"carrierphase":113159914.750770,"doppler":-3016.632080},{"gnssid":0,"svid":4,"snr":37,"obs":"L1C","lli":0,"locktime":64500,"pseudorange":21478793.329790,"carrierphase":112871822.268050,"doppler":-3284.954834}]}
$GPZDA,205547.00,25,10,2018,00,00*6A
$GPGGA,205547.00,4404.1286,N,12118.8586,W,1,09,0.91,1132.83,M,-22.155,M,,*69
$GPRMC,205547.00,A,4404.1286,N,12118.8586,W,0.0080,54.668,251018,14.4,E*75
$GPGSA,A,3,,,,,,,,,,,,,1.7,0.9,1.5*39
{"class":"TPV","mode":3,"time":"2018-10-25T20:55:47.000Z","leapseconds":18,"ept":0.005,"lat":44.068809596,"lon":-121.314309171,"altHAE":1110.675,"altMSL":1132.830,"epv":34.040,"track":54.6684,"magtrack":69.0869,"magvar":14.4,"speed":0.004,"climb":-0.017,"eps":0.02,"epc":68.08,"ecefx":-2386071.04,"ecefy":-3922190.52,"ecefz":4414360.75,"ecefvx":0.01,"ecefvy":0.01,"ecefvz":-0.01,"ecefpAcc":1.65,"ecefvAcc":0.02,"velN":0.002,"velE":0.003,"velD":0.017,"geoidSep":-22.155,"eph":17.290,"sep":32.870}
$GPGSV,5,1,18,01,07,312,25,08,37,270,45,10,65,052,51,11,19,312,34*73
$GPGSV,5,2,18,14,50,202,49,18,32,309,00,20,39,081,47,21,18,138,43*7D
$GPGSV,5,3,18,22,02,272,00,24,19,050,44,27,34,229,48,31,00,171,00*7A
$GPGSV,5,4,18,32,72,187,53,44,39,174,44,46,39,191,47,48,38,197,48*73
$GPGSV,5,5,18,51,37,160,00,195,13,305,00*4E
{"class":"SKY","xdop":0.56,"ydop":0.72,"vdop":1.48,"tdop":0.94,"hdop":0.91,"gdop":1.97,"pdop":1.73,"satellites":[{"PRN":1,"el":7.0,"az":312.0,"ss":25.0,"used":false,"gnssid":0,"svid":1,"health":1},{"PRN":4,"az":0.0,"ss":40.0,"used":false,"gnssid":0,"svid":4,"health":2},{"PRN":8,"el":37.0,"az":270.0,"ss":45.0,"used":true,"gnssid":0,"svid":8,"health":1},{"PRN":10,"el":65.0,"az":52.0,"ss":51.0,"used":true,"gnssid":0,"svid":10,"health":1},{"PRN":11,"el":19.0,"az":312.0,"ss":34.0,"used":true,"gnssid":0,"svid":11,"health":1},{"PRN":14,"el":50.0,"az":202.0,"ss":49.0,"used":true,"gnssid":0,"svid":14,"health":1},{"PRN":18,"el":32.0,"az":309.0,"ss":0.0,"used":false,"gnssid":0,"svid":18,"health":1},{"PRN":20,"el":39.0,"az":81.0,"ss":47.0,"used":true,"gnssid":0,"svid":20,"health":1},{"PRN":21,"el":18.0,"az":138.0,"ss":43.0,"used":true,"gnssid":0,"svid":21,"health":1},{"PRN":22,"el":2.0,"az":272.0,"ss":0.0,"used":false,"gnssid":0,"svid":22,"health":1},{"PRN":24,"el":19.0,"az":50.0,"ss":44.0,"used":true,"gnssid":0,"svid":24,"health":1},{"PRN":27,"el":34.0,"az":229.0,"ss":48.0,"used":true,"gnssid":0,"svid":27,"health":1},{"PRN":31,"el":0.0,"az":171.0,"ss":0.0,"used":false,"gnssid":0,"svid":31,"health":1},{"PRN":32,"el":72.0,"az":187.0,"ss":53.0,"used":true,"gnssid":0,"svid":32,"health":1},{"PRN":44,"el":39.0,"az":174.0,"ss":44.0,"used":false,"gnssid":1,"svid":131},{"PRN":46,"el":39.0,"az":191.0,"ss":47.0,"used":false,"gnssid":1,"svid":133},{"PRN":48,"el":38.0,"az":197.0,"ss":48.0,"used":false,"gnssid":1,"svid":135},{"PRN":51,"el":37.0,"az":160.0,"ss":0.0,"used":false,"gnssid":1,"svid":138},{"PRN":195,"el":13.0,"az":305.0,"ss":0.0,"used":false,"gnssid":5,"svid":3,"health":1},{"PRN":196,"az":0.0,"ss":0.0,"used":false,"gnssid":5,"svid":4}]}
{"class":"TPV","mode":3,"time":"2018-10-25T20:55:47.000Z","leapseconds":18,"ept":0.005,"lat":44.068809596,"lon":-121.314309171,"altHAE":1110.675,"altMSL":1132.830,"epx":8.416,"epy":10.773,"epv":34.040,"track":54.6684,"magtrack":69.0869,"magvar":14.4,"speed":0.004,"climb":-0.017,"eps":0.02,"epc":68.08,"ecefx":-2386071.04,"ecefy":-3922190.52,"ecefz":4414360.75,"ecefvx":0.01,"ecefvy":0.01,"ecefvz":-0.01,"ecefpAcc":1.65,"ecefvAcc":0.02,"velN":0.002,"velE":0.003,"velD":0.017,"geoidSep":-22.155,"eph":17.290,"sep":32.870}
{"class":"RAW","time":1540500947,"nsec":992000000,"rawdata":[{"gnssid":0,"svid":32,"snr":51,"obs":"L1C","lli":0,"locktime":64500,"pseudorange":18190700.087292,"carrierphase":95592765.394264,"doppler":1129.409912},{"gnssid":0,"svid":10,"snr":48,"obs":"L1C","lli":0,"locktime":64500,"pseudorange":18209719.812516,"carrierphase":95692734.571505,"doppler":-985.762939},{"gnssid":0,"svid":14,"snr":46,"obs":"L1C","lli":0,"locktime":64500,"pseudorange":19163936.318403,"carrierphase":100707161.760450,"doppler":2349.788818},{"gnssid":0,"svid":20,"snr":44,"obs":"L1C","lli":0,"locktime":64500,"pseudorange":19398397.670806,"carrierphase":101939256.505249,"doppler":-2345.969238},{"gnssid":0,"svid":8,"snr":43,"obs":"L1C","lli":0,"locktime":64500,"pseudorange":19953706.631520,"carrierphase":104857403.276798,"doppler":-858.372559},{"gnssid":0,"svid":27,"snr":45,"obs":"L1C","lli":0,"locktime":64500,"pseudorange":20222569.168673,"carrierphase":106270292.814704,"doppler":-2679.638184},{"gnssid":0,"svid":24,"snr":41,"obs":"L1C","lli":0,"locktime":64500,"pseudorange":21309052.775857,"carrierphase":111979833.730466,"doppler":-1388.208008},{"gnssid":1,"svid":31,"snr":41,"obs":"L1C","lli":0,"locktime":64500,"pseudorange":35447156.472463,"carrierphase":186276062.570888,"doppler":13.776611},{"gnssid":1,"svid":35,"snr":44,"obs":"L1C","lli":0,"locktime":64500,"pseudorange":35527615.273309,"carrierphase":186698875.360893,"doppler":14.892822},{"gnssid":1,"svid":33,"snr":44,"obs":"L1C","lli":0,"locktime":64500,"pseudorange":35475533.929300,"carrierphase":186425183.311703,"doppler":15.158202},{"gnssid":0,"svid":11,"snr":30,"obs":"L1C","lli":0,"locktime":8920,"pseudorange":21135114.554598,"carrierphase":111065744.772406,"doppler":3264.775146},{"gnssid":0,"svid":21,"snr":39,"obs":"L1C","lli":0,"locktime":64500,"pseudorange":21534191.541386,"carrierphase":113162931.444116,"doppler":-3017.163086},{"gnssid":0,"svid":4,"snr":37,"obs":"L1C","lli":0,"locktime":64500,"pseudorange":21479418.414039,"carrierphase":112875107.251377,"doppler":-3285.375977}]}
$GPZDA,205548.00,25,10,2018,00,00*65
$GPGGA,205548.00,4404.1286,N,12118.8586,W,1,11,0.91,1132.83,M,-22.155,M,,*6F
$GPRMC,205548.00,A,4404.1286,N,12118.8586,W,0.0080,54.668,251018,14.4,E*7A
$GPGSA,A,3,8,10,11,14,20,21,24,27,,,,,1.7,0.9,1.5*07
$GPGBS,205548.00,8.416,10.773,34.040,,,,*45
{"class":"TPV","mode":3,"time":"2018-10-25T20:55:48.000Z","leapseconds":18,"ept":0.005,"lat":44.068809596,"lon":-121.314309171,"altHAE":1110.675,"altMSL":1132.830,"epx":8.416,"epy":10.773,"epv":34.040,"track":54.6684,"magtrack":69.0869,"magvar":14.4,"speed":0.004,"climb":-0.017,"eps":0.01,"epc":68.08,"ecefx":-2386071.03,"ecefy":-3922190.52,"ecefz":4414360.76,"ecefvx":0.01,"ecefvy":0.01,"ecefvz":-0.01,"ecefpAcc":1.64,"ecefvAcc":0.01,"velN":0.002,"velE":0.003,"velD":0.017,"geoidSep":-22.155,"eph":17.290,"sep":32.870}
{"class":"RAW","time":1540500948,"nsec":992000000,"rawdata":[{"gnssid":0,"svid":32,"snr":51,"obs":"L1C","lli":0,"locktime":64500,"pseudorange":18190485.379813,"carrierphase":95591636.112985,"doppler":1128.983154},{"gnssid":0,"svid":10,"snr":49,"obs":"L1C","lli":0,"locktime":64500,"pseudorange":18209907.733911,"carrierphase":95693720.402524,"doppler":-985.994873},{"gnssid":0,"svid":14,"snr":46,"obs":"L1C","lli":0,"locktime":64500,"pseudorange":19163488.807569,"carrierphase":100704811.970394,"doppler":2349.718018},{"gnssid":0,"svid":20,"snr":44,"obs":"L1C","lli":0,"locktime":64500,"pseudorange":19398844.344030,"carrierphase":101941602.502975,"doppler":-2345.979248},{"gnssid":0,"svid":8,"snr":43,"obs":"L1C","lli":0,"locktime":64500,"pseudorange":19953869.808506,"carrierphase":104858261.577918,"doppler":-858.527588},{"gnssid":0,"svid":27,"snr":45,"obs":"L1C","lli":0,"locktime":64500,"pseudorange":20223079.221087,"carrierphase":106272972.635545,"doppler":-2680.046387},{"gnssid":0,"svid":24,"snr":41,"obs":"L1C","lli":0,"locktime":64500,"pseudorange":21309317.233907,"carrierphase":111981222.272716,"doppler":-1388.775513},{"gnssid":1,"svid":31,"snr":42,"obs":"L1C","lli":0,"locktime":64500,"pseudorange":35447153.593177,"carrierphase":186276048.590814,"doppler":13.917969},{"gnssid":1,"svid":35,"snr":45,"obs":"L1C","lli":0,"locktime":64500,"pseudorange":35527612.673226,"carrierphase":186698860.559937,"doppler":14.653319},{"gnssid":1,"svid":33,"snr":44,"obs":"L1C","lli":0,"locktime":64500,"pseudorange":35475530.701010,"carrierphase":186425167.893357,"doppler":15.267822},{"gnssid":0,"svid":11,"snr":31,"obs":"L1C","lli":0,"locktime":9920,"pseudorange":21134493.152344,"carrierphase":111062479.722168,"doppler":3265.241455},{"gnssid":0,"svid":21,"snr":39,"obs":"L1C","lli":0,"locktime":64500,"pseudorange":21534765.531398,"carrierphase":113165948.298619,"doppler":-3016.735840},{"gnssid":0,"svid":4,"snr":38,"obs":"L1C","lli":0,"locktime":64500,"pseudorange":21480043.480839,"carrierphase":112878392.343872,"doppler":-3285.192871}]}
$GPZDA,205549.00,25,10,2018,00,00*64
$GPGGA,205549.00,4404.1286,N,12118.8586,W,1,11,0.82,1132.83,M,-22.155,M,,*6C
$GPRMC,205549.00,A,4404.1286,N,12118.8586,W,0.0080,54.668,251018,14.4,E*7B
$GPGSA,A,3,8,10,11,14,20,21,24,27,,,,,1.7,0.8,1.5*06
$GPGBS,205549.00,8.416,10.773,34.040,,,,*44
{"class":"TPV","mode":3,"time":"2018-10-25T20:55:49.000Z","leapseconds":18,"ept":0.005,"lat":44.068809596,"lon":-121.314309171,"altHAE":1110.675,"altMSL":1132.830,"epx":8.416,"epy":10.773,"epv":34.040,"track":54.6684,"magtrack":69.0869,"magvar":14.4,"speed":0.004,"climb":-0.017,"eps":0.01,"epc":68.08,"ecefx":-2386071.02,"ecefy":-3922190.51,"ecefz":4414360.77,"ecefvx":0.01,"ecefvy":0.01,"ecefvz":-0.01,"ecefpAcc":1.64,"ecefvAcc":0.01,"velN":0.002,"velE":0.003,"velD":0.017,"geoidSep":-22.155,"eph":17.290,"sep":32.870}
{"class":"TPV","mode":3,"time":"2018-10-25T20:55:49.000Z","leapseconds":18,"ept":0.005,"lat":44.068809596,"lon":-121.314309171,"altHAE":1110.675,"altMSL":1132.830,"epx":8.416,"epy":10.773,"epv":34.040,"track":54.6684,"magtrack":69.0869,"magvar":14.4,"speed":0.004,"climb":-0.017,"eps":0.01,"epc":68.08,"ecefx":-2386071.02,"ecefy":-3922190.51,"ecefz":4414360.77,"ecefvx":0.01,"ecefvy":0.01,"ecefvz":-0.01,"ecefpAcc":1.64,"ecefvAcc":0.01,"velN":0.002,"velE":0.003,"velD":0.017,"geoidSep":-22.155,"eph":17.290,"sep":32.870}
{"class":"RAW","time":1540500949,"nsec":992000000,"rawdata":[{"gnssid":0,"svid":32,"snr":50,"obs":"L1C","lli":0,"locktime":64500,"pseudorange":18190270.323330,"carrierphase":95590507.243698,"doppler":1128.723633},{"gnssid":0,"svid":10,"snr":49,"obs":"L1C","lli":0,"locktime":64500,"pseudorange":18210095.288851,"carrierphase":95694706.377718,"doppler":-986.202148},{"gnssid":0,"svid":14,"snr":45,"obs":"L1C","lli":0,"locktime":64500,"pseudorange":19163041.663190,"carrierphase":100702462.464674,"doppler":2349.335938},{"gnssid":0,"svid":20,"snr":44,"obs":"L1C","lli":0,"locktime":64500,"pseudorange":19399291.052154,"carrierphase":101943948.587992,"doppler":-2346.079102},{"gnssid":0,"svid":8,"snr":43,"obs":"L1C","lli":0,"locktime":64500,"pseudorange":19954033.282146,"carrierphase":104859120.352905,"doppler":-859.110352},{"gnssid":0,"svid":27,"snr":45,"obs":"L1C","lli":0,"locktime":64500,"pseudorange":20223589.221151,"carrierphase":106275652.678440,"doppler":-2680.233887},{"gnssid":0,"svid":24,"snr":41,"obs":"L1C","lli":0,"locktime":64500,"pseudorange":21309581.988611,"carrierphase":111982611.319701,"doppler":-1389.312622},{"gnssid":1,"svid":31,"snr":41,"obs":"L1C","lli":0,"locktime":64500,"pseudorange":35447150.556839,"carrierphase":186276034.549527,"doppler":13.991943},{"gnssid":1,"svid":35,"snr":45,"obs":"L1C","lli":0,"locktime":64500,"pseudorange":35527609.811390,"carrierphase":186698845.695699,"doppler":15.093261},{"gnssid":1,"svid":33,"snr":44,"obs":"L1C","lli":0,"locktime":64500,"pseudorange":35475527.664672,"carrierphase":186425152.270458,"doppler":15.839844},{"gnssid":0,"svid":11,"snr":30,"obs":"L1C","lli":0,"locktime":10920,"pseudorange":21133869.656064,"carrierphase":111059215.493352,"doppler":3263.586670},{"gnssid":0,"svid":21,"snr":39,"obs":"L1C","lli":0,"locktime":64500,"pseudorange":21535339.556310,"carrierphase":113168965.242764,"doppler":-3016.973633},{"gnssid":0,"svid":4,"snr":38,"obs":"L1C","lli":0,"locktime":64500,"pseudorange":21480668.617439,"carrierphase":112881677.393412,"doppler":-3285.351562}]}
$GPZDA,205550.00,25,10,2018,00,00*6C
$GPGGA,205550.00,4404.1286,N,12118.8586,W,1,11,0.82,1132.83,M,-22.155,M,,*64
$GPRMC,205550.00,A,4404.1286,N,12118.8586,W,0.0080,54.668,251018,14.4,E*73
$GPGSA,A,3,8,10,11,14,20,21,24,27,,,,,1.7,0.8,1.5*06
$GPGBS,205550.00,8.416,10.773,34.040,,,,*4C
{"class":"TPV","mode":3,"time":"2018-10-25T20:55:50.000Z","leapseconds":18,"ept":0.005,"lat":44.068809596,"lon":-121.314309171,"altHAE":1110.675,"altMSL":1132.830,"epx":8.416,"epy":10.773,"epv":34.040,"track":54.6684,"magtrack":69.0869,"magvar":14.4,"speed":0.004,"climb":-0.017,"eps":0.01,"epc":68.08,"ecefx":-2386071.02,"ecefy":-3922190.52,"ecefz":4414360.78,"ecefvx":0.01,"ecefvy":0.01,"ecefvz":-0.01,"ecefpAcc":1.64,"ecefvAcc":0.01,"velN":0.002,"velE":0.003,"velD":0.017,"geoidSep":-22.155,"eph":17.290,"sep":32.870}
{"class":"RAW","time":1540500950,"nsec":992000000,"rawdata":[{"gnssid":0,"svid":32,"snr":50,"obs":"L1C","lli":0,"locktime":64500,"pseudorange":18190055.528599,"carrierphase":95589379.021724,"doppler":1127.584961},{"gnssid":0,"svid":10,"snr":49,"obs":"L1C","lli":0,"locktime":64500,"pseudorange":18210283.227696,"carrierphase":95695692.735186,"doppler":-986.806396},{"gnssid":0,"svid":14,"snr":45,"obs":"L1C","lli":0,"locktime":64500,"pseudorange":19162594.553711,"carrierphase":100700113.483638,"doppler":2348.684082},{"gnssid":0,"svid":20,"snr":44,"obs":"L1C","lli":0,"locktime":64500,"pseudorange":19399737.760277,"carrierphase":101946294.953235,"doppler":-2346.512451},{"gnssid":0,"svid":8,"snr":43,"obs":"L1C","lli":0,"locktime":64500,"pseudorange":19954196.773236,"carrierphase":104859979.832418,"doppler":-859.875427},{"gnssid":0,"svid":27,"snr":45,"obs":"L1C","lli":0,"locktime":64500,"pseudorange":20224099.203764,"carrierphase":106278333.195310,"doppler":-2680.802002},{"gnssid":0,"svid":24,"snr":41,"obs":"L1C","lli":0,"locktime":64500,"pseudorange":21309846.568812,"carrierphase":111984001.033943,"doppler":-1390.301514},{"gnssid":1,"svid":31,"snr":42,"obs":"L1C","lli":0,"locktime":64500,"pseudorange":35447147.921856,"carrierphase":186276020.553683,"doppler":13.522217},{"gnssid":1,"svid":35,"snr":44,"obs":"L1C","lli":0,"locktime":64500,"pseudorange":35527606.652901,"carrierphase":186698830.965318,"doppler":14.517822},{"gnssid":1,"svid":33,"snr":44,"obs":"L1C","lli":0,"locktime":64500,"pseudorange":35475525.012239,"carrierphase":186425136.823684,"doppler":15.237549},{"gnssid":0,"svid":11,"snr":30,"obs":"L1C","lli":0,"locktime":11920,"pseudorange":21133245.531576,"carrierphase":111055951.609297,"doppler":3263.504395},{"gnssid":0,"svid":21,"snr":40,"obs":"L1C","lli":0,"locktime":64500,"pseudorange":21535914.052379,"carrierphase":113171982.482810,"doppler":-3017.694092},{"gnssid":0,"svid":4,"snr":38,"obs":"L1C","lli":0,"locktime":64500,"pseudorange":21481293.666788,"carrierphase":112884962.624088,"doppler":-3285.632324}]}
$GPZDA,205551.00,25,10,2018,00,00*6D
$GPGGA,205551.00,4404.1286,N,12118.8586,W,1,11,0.82,1132.83,M,-22.155,M,,*65
$GPRMC,205551.00,A,4404.1286,N,12118.8586,W,0.0080,54.668,251018,14.4,E*72
$GPGSA,A,3,8,10,11,14,20,21,24,27,,,,,1.7,0.8,1.5*06
$GPGBS,205551.00,8.416,10.773,34.040,,,,*4D
{"class":"TPV","mode":3,"time":"2018-10-25T20:55:51.000Z","leapseconds":18,"ept":0.005,"lat":44.068809596,"lon":-121.314309171,"altHAE":1110.675,"altMSL":1132.830,"epx":8.416,"epy":10.773,"epv":34.040,"track":54.6684,"magtrack":69.0869,"magvar":14.4,"speed":0.004,"climb":-0.017,"eps":0.01,"epc":68.08,"ecefx":-2386071.02,"ecefy":-3922190.53,"ecefz":4414360.79,"ecefvx":0.01,"ecefvy":0.01,"ecefvz":-0.01,"ecefpAcc":1.63,"ecefvAcc":0.01,"velN":0.002,"velE":0.003,"velD":0.017,"geoidSep":-22.155,"eph":17.290,"sep":32.870}
{"class":"TPV","mode":3,"time":"2018-10-25T20:55:51.000Z","leapseconds":18,"ept":0.005,"lat":44.068809596,"lon":-121.314309171,"altHAE":1110.675,"altMSL":1132.830,"epx":8.416,"epy":10.773,"epv":34.040,"track":54.6684,"magtrack":69.0869,"magvar":14.4,"speed":0.004,"climb":-0.017,"eps":0.01,"epc":68.08,"ecefx":-2386071.02,"ecefy":-3922190.53,"ecefz":4414360.79,"ecefvx":0.01,"ecefvy":0.01,"ecefvz":-0.01,"ecefpAcc":1.63,"ecefvAcc":0.01,"velN":0.002,"velE":0.003,"velD":0.017,"geoidSep":-22.155,"eph":17.290,"sep":32.870}
{"class":"RAW","time":1540500951,"nsec":992000000,"rawdata":[{"gnssid":0,"svid":32,"snr":50,"obs":"L1C","lli":0,"locktime":64500,"pseudorange":18189840.821120,"carrierphase":95588251.538886,"doppler":1127.202637},{"gnssid":0,"svid":10,"snr":49,"obs":"L1C","lli":0,"locktime":64500,"pseudorange":18210471.166541,"carrierphase":95696679.583790,"doppler":-986.968933},{"gnssid":0,"svid":14,"snr":45,"obs":"L1C","lli":0,"locktime":64500,"pseudorange":19162147.514033,"carrierphase":100697765.088773,"doppler":2348.199463},{"gnssid":0,"svid":20,"snr":44,"obs":"L1C","lli":0,"locktime":64500,"pseudorange":19400184.538202,"carrierphase":101948641.730861,"doppler":-2347.041504},{"gnssid":0,"svid":8,"snr":43,"obs":"L1C","lli":0,"locktime":64500,"pseudorange":19954360.822732,"carrierphase":104860840.104057,"doppler":-860.580505},{"gnssid":0,"svid":27,"snr":45,"obs":"L1C","lli":0,"locktime":64500,"pseudorange":20224609.378330,"carrierphase":106281014.307266,"doppler":-2681.632080},{"gnssid":0,"svid":24,"snr":41,"obs":"L1C","lli":0,"locktime":64500,"pseudorange":21310110.991962,"carrierphase":111985391.541585,"doppler":-1390.942383},{"gnssid":1,"svid":31,"snr":41,"obs":"L1C","lli":0,"locktime":64500,"pseudorange":35447145.339224,"carrierphase":186276006.744769,"doppler":13.988037},{"gnssid":1,"svid":35,"snr":44,"obs":"L1C","lli":0,"locktime":64500,"pseudorange":35527604.017918,"carrierphase":186698816.371239,"doppler":14.548339},{"gnssid":1,"svid":33,"snr":44,"obs":"L1C","lli":0,"locktime":64500,"pseudorange":35475521.888650,"carrierphase":186425121.548849,"doppler":15.167725},{"gnssid":0,"svid":11,"snr":30,"obs":"L1C","lli":0,"locktime":12920,"pseudorange":21132627.916020,"carrierphase":111052688.251406,"doppler":3263.317871},{"gnssid":0,"svid":21,"snr":39,"obs":"L1C","lli":0,"locktime":64500,"pseudorange":21536488.565897,"carrierphase":113175000.108148,"doppler":-3017.590332},{"gnssid":0,"svid":4,"snr":38,"obs":"L1C","lli":0,"locktime":64500,"pseudorange":21481919.012791,"carrierphase":112888248.223442,"doppler":-3285.870361}]}
$GPZDA,205552.00,25,10,2018,00,00*6E
$GPGGA,205552.00,4404.1286,N,12118.8586,W,1,07,0.82,1132.83,M,-22.155,M,,*61
$GPRMC,205552.00,A,4404.1286,N,12118.8586,W,0.0080,54.668,251018,14.4,E*71
$GPGSA,A,3,8,10,11,14,20,21,24,27,,,,,1.7,0.8,1.5*06
$GPGBS,205552.00,8.416,10.773,34.040,,,,*4E
{"class":"TPV","mode":3,"time":"2018-10-25T20:55:52.000Z","leapseconds":18,"ept":0.005,"lat":44.068809596,"lon":-121.314309171,"altHAE":1110.675,"altMSL":1132.830,"epx":8.416,"epy":10.773,"epv":34.040,"track":54.6684,"magtrack":69.0869,"magvar":14.4,"speed":0.004,"climb":-0.017,"eps":0.01,"epc":68.08,"ecefx":-2386071.01,"ecefy":-3922190.54,"ecefz":4414360.78,"ecefvx":0.01,"ecefvy":0.01,"ecefvz":-0.01,"ecefpAcc":1.64,"ecefvAcc":0.01,"velN":0.002,"velE":0.003,"velD":0.017,"geoidSep":-22.155,"eph":17.290,"sep":32.870}
{"class":"RAW","time":1540500952,"nsec":992000000,"rawdata":[{"gnssid":0,"svid":32,"snr":51,"obs":"L1C","lli":0,"locktime":64500,"pseudorange":18189626.898901,"carrierphase":95587124.600610,"doppler":1126.486084},{"gnssid":0,"svid":10,"snr":49,"obs":"L1C","lli":0,"locktime":64500,"pseudorange":18210659.384589,"carrierphase":95697666.712867,"doppler":-987.521179},{"gnssid":0,"svid":14,"snr":45,"obs":"L1C","lli":0,"locktime":64500,"pseudorange":19161700.596506,"carrierphase":100695417.128255,"doppler":2347.528076},{"gnssid":0,"svid":20,"snr":44,"obs":"L1C","lli":0,"locktime":64500,"pseudorange":19400630.687919,"carrierphase":101950988.721406,"doppler":-2347.484619},{"gnssid":0,"svid":8,"snr":43,"obs":"L1C","lli":0,"locktime":64500,"pseudorange":19954524.837329,"carrierphase":104861700.973854,"doppler":-861.511230},{"gnssid":0,"svid":27,"snr":44,"obs":"L1C","lli":0,"locktime":64500,"pseudorange":20225119.465645,"carrierphase":106283695.717084,"doppler":-2681.616211},{"gnssid":0,"svid":24,"snr":41,"obs":"L1C","lli":0,"locktime":64500,"pseudorange":21310375.868817,"carrierphase":111986782.631577,"doppler":-1391.571045},{"gnssid":1,"svid":31,"snr":41,"obs":"L1C","lli":0,"locktime":64500,"pseudorange":35447142.669341,"carrierphase":186275992.968435,"doppler":14.007080},{"gnssid":1,"svid":35,"snr":44,"obs":"L1C","lli":0,"locktime":64500,"pseudorange":35527601.086282,"carrierphase":186698801.686420,"doppler":14.830321},{"gnssid":1,"svid":33,"snr":44,"obs":"L1C","lli":0,"locktime":64500,"pseudorange":35475519.096615,"carrierphase":186425106.261792,"doppler":14.921874},{"gnssid":0,"svid":11,"snr":29,"obs":"L1C","lli":0,"locktime":13920,"pseudorange":21132007.124524,"carrierphase":111049425.239046,"doppler":3263.012939},{"gnssid":0,"svid":21,"snr":40,"obs":"L1C","lli":0,"locktime":64500,"pseudorange":21537062.852563,"carrierphase":113178017.951665,"doppler":-3018.053955},{"gnssid":0,"svid":4,"snr":38,"obs":"L1C","lli":0,"locktime":64500,"pseudorange":21482543.992340,"carrierphase":112891533.903724,"doppler":-3285.821533}]}
$GPZDA,205553.00,25,10,2018,00,00*6F
$GPGGA,205553.00,4404.1286,N,12118.8586,W,1,11,0.99,1132.83,M,-22.155,M,,*6D
$GPRMC,205553.00,A,4404.1286,N,12118.8586,W,0.0080,54.668,251018,14.4,E*70
$GPGSA,A,3,8,10,11,14,20,21,24,27,,,,,2.0,1.0,1.7*09
$GPGBS,205553.00,8.416,10.773,34.040,,,,*4F
{"class":"TPV","mode":3,"time":"2018-10-25T20:55:53.000Z","leapseconds":18,"ept":0.005,"lat":44.068809596,"lon":-121.314309171,"altHAE":1110.675,"altMSL":1132.830,"epx":8.416,"epy":10.773,"epv":34.040,"track":54.6684,"magtrack":69.0869,"magvar":14.4,"speed":0.004,"climb":-0.017,"eps":0.01,"epc":68.08,"ecefx":-2386071.05,"ecefy":-3922190.61,"ecefz":4414360.80,"ecefvx":0.01,"ecefvy":0.01,"ecefvz":-0.01,"ecefpAcc":1.63,"ecefvAcc":0.01,"velN":0.002,"velE":0.003,"velD":0.017,"geoidSep":-22.155,"eph":17.290,"sep":32.870}
{"class":"TPV","mode":3,"time":"2018-10-25T20:55:53.000Z","leapseconds":18,"ept":0.005,"lat":44.068809596,"lon":-121.314309171,"altHAE":1110.675,"altMSL":1132.830,"epx":8.416,"epy":10.773,"epv":34.040,"track":54.6684,"magtrack":69.0869,"magvar":14.4,"speed":0.004,"climb":-0.017,"eps":0.01,"epc":68.08,"ecefx":-2386071.05,"ecefy":-3922190.61,"ecefz":4414360.80,"ecefvx":0.01,"ecefvy":0.01,"ecefvz":-0.01,"ecefpAcc":1.63,"ecefvAcc":0.01,"velN":0.002,"velE":0.003,"velD":0.017,"geoidSep":-22.155,"eph":17.290,"sep":32.870}
{"class":"RAW","time":1540500953,"nsec":992000000,"rawdata":[{"gnssid":0,"svid":32,"snr":50,"obs":"L1C","lli":0,"locktime":64500,"pseudorange":18189412.365924,"carrierphase":95585998.072831,"doppler":1126.439941},{"gnssid":0,"svid":10,"snr":48,"obs":"L1C","lli":0,"locktime":64500,"pseudorange":18210847.044231,"carrierphase":95698653.997040,"doppler":-987.274597},{"gnssid":0,"svid":14,"snr":45,"obs":"L1C","lli":0,"locktime":64500,"pseudorange":19161253.853482,"carrierphase":100693069.434219,"doppler":2347.503662},{"gnssid":0,"svid":20,"snr":44,"obs":"L1C","lli":0,"locktime":64500,"pseudorange":19401077.238991,"carrierphase":101953335.762842,"doppler":-2347.086914},{"gnssid":0,"svid":8,"snr":43,"obs":"L1C","lli":0,"locktime":64500,"pseudorange":19954688.869376,"carrierphase":104862562.318790,"doppler":-861.622803},{"gnssid":0,"svid":27,"snr":44,"obs":"L1C","lli":0,"locktime":64500,"pseudorange":20225629.570410,"carrierphase":106286377.430153,"doppler":-2681.861572},{"gnssid":0,"svid":24,"snr":41,"obs":"L1C","lli":0,"locktime":64500,"pseudorange":21310640.536269,"carrierphase":111988174.152797,"doppler":-1391.808960},{"gnssid":1,"svid":31,"snr":42,"obs":"L1C","lli":0,"locktime":64500,"pseudorange":35447140.173959,"carrierphase":186275979.023081,"doppler":13.886963},{"gnssid":1,"svid":35,"snr":44,"obs":"L1C","lli":0,"locktime":64500,"pseudorange":35527598.468749,"carrierphase":186698786.901051,"doppler":14.899414},{"gnssid":1,"svid":33,"snr":43,"obs":"L1C","lli":0,"locktime":64500,"pseudorange":35475516.182428,"carrierphase":186425090.813914,"doppler":15.612304},{"gnssid":0,"svid":11,"snr":29,"obs":"L1C","lli":0,"locktime":14920,"pseudorange":21131386.699482,"carrierphase":111046162.458550,"doppler":3262.983643},{"gnssid":0,"svid":21,"snr":39,"obs":"L1C","lli":0,"locktime":64500,"pseudorange":21537637.191580,"carrierphase":113181035.873285,"doppler":-3018.182373},{"gnssid":0,"svid":4,"snr":37,"obs":"L1C","lli":0,"locktime":64500,"pseudorange":21483168.971888,"carrierphase":112894819.528379,"doppler":-3285.968018}]}
$GPZDA,205554.00,25,10,2018,00,00*68
$GPGGA,205554.00,4404.1286,N,12118.8586,W,1,11,0.82,1132.83,M,-22.155,M,,*60
$GPRMC,205554.00,A,4404.1286,N,12118.8586,W,0.0080,54.668,251018,14.4,E*77
$GPGSA,A,3,8,10,11,14,20,21,24,27,,,,,1.7,0.8,1.5*06
$GPGBS,205554.00,8.416,10.773,34.040,,,,*48
{"class":"TPV","mode":3,"time":"2018-10-25T20:55:54.000Z","leapseconds":18,"ept":0.005,"lat":44.068809596,"lon":-121.314309171,"altHAE":1110.675,"altMSL":1132.830,"epx":8.416,"epy":10.773,"epv":34.040,"track":54.6684,"magtrack":69.0869,"magvar":14.4,"speed":0.004,"climb":-0.017,"eps":0.01,"epc":68.08,"ecefx":-2386071.03,"ecefy":-3922190.63,"ecefz":4414360.80,"ecefvx":0.01,"ecefvy":0.01,"ecefvz":-0.01,"ecefpAcc":1.63,"ecefvAcc":0.01,"velN":0.002,"velE":0.003,"velD":0.017,"geoidSep":-22.155,"eph":17.290,"sep":32.870}
{"class":"RAW","time":1540500954,"nsec":992000000,"rawdata":[{"gnssid":0,"svid":32,"snr":51,"obs":"L1C","lli":0,"locktime":64500,"pseudorange":18189198.059800,"carrierphase":95584872.245770,"doppler":1125.660156},{"gnssid":0,"svid":10,"snr":49,"obs":"L1C","lli":0,"locktime":64500,"pseudorange":18211034.878375,"carrierphase":95699641.705382,"doppler":-987.742676},{"gnssid":0,"svid":14,"snr":45,"obs":"L1C","lli":0,"locktime":64500,"pseudorange":19160807.197709,"carrierphase":100690722.304599,"doppler":2346.856689},{"gnssid":0,"svid":20,"snr":44,"obs":"L1C","lli":0,"locktime":64500,"pseudorange":19401523.528310,"carrierphase":101955683.144415,"doppler":-2347.512695},{"gnssid":0,"svid":8,"snr":44,"obs":"L1C","lli":0,"locktime":64500,"pseudorange":19954852.814171,"carrierphase":104863424.387816,"doppler":-862.281250},{"gnssid":0,"svid":27,"snr":44,"obs":"L1C","lli":0,"locktime":64500,"pseudorange":20226139.971828,"carrierphase":106289059.611391,"doppler":-2682.199219},{"gnssid":0,"svid":24,"snr":42,"obs":"L1C","lli":0,"locktime":64500,"pseudorange":21310905.709778,"carrierphase":111989566.458168,"doppler":-1392.565918},{"gnssid":1,"svid":31,"snr":42,"obs":"L1C","lli":0,"locktime":64500,"pseudorange":35447137.800730,"carrierphase":186275965.132448,"doppler":13.822753},{"gnssid":1,"svid":35,"snr":45,"obs":"L1C","lli":0,"locktime":64500,"pseudorange":35527596.095519,"carrierphase":186698772.219807,"doppler":14.810303},{"gnssid":1,"svid":33,"snr":44,"obs":"L1C","lli":0,"locktime":64500,"pseudorange":35475513.652147,"carrierphase":186425075.522635,"doppler":15.207519},{"gnssid":0,"svid":11,"snr":29,"obs":"L1C","lli":0,"locktime":15920,"pseudorange":21130769.677233,"carrierphase":111042900.179998,"doppler":3262.166748},{"gnssid":0,"svid":21,"snr":39,"obs":"L1C","lli":0,"locktime":64500,"pseudorange":21538211.303743,"carrierphase":113184054.119557,"doppler":-3018.432373},{"gnssid":0,"svid":4,"snr":36,"obs":"L1C","lli":0,"locktime":64500,"pseudorange":21483793.899086,"carrierphase":112898105.410060,"doppler":-3285.797119}]}
$GPZDA,205555.00,25,10,2018,00,00*69
$GPGGA,205555.00,4404.1286,N,12118.8586,W,1,11,0.82,1132.83,M,-22.155,M,,*61
$GPRMC,205555.00,A,4404.1286,N,12118.8586,W,0.0080,54.668,251018,14.4,E*76
$GPGSA,A,3,8,10,11,14,20,21,24,27,,,,,1.7,0.8,1.5*06
$GPGBS,205555.00,8.416,10.773,34.040,,,,*49
{"class":"TPV","mode":3,"time":"2018-10-25T20:55:55.000Z","leapseconds":18,"ept":0.005,"lat":44.068809596,"lon":-121.314309171,"altHAE":1110.675,"altMSL":1132.830,"epx":8.416,"epy":10.773,"epv":34.040,"track":54.6684,"magtrack":69.0869,"magvar":14.4,"speed":0.004,"climb":-0.017,"eps":0.01,"epc":68.08,"ecefx":-2386071.03,"ecefy":-3922190.65,"ecefz":4414360.79,"ecefvx":0.01,"ecefvy":0.01,"ecefvz":-0.01,"ecefpAcc":1.63,"ecefvAcc":0.01,"velN":0.002,"velE":0.003,"velD":0.017,"geoidSep":-22.155,"eph":17.290,"sep":32.870}
{"class":"TPV","mode":3,"time":"2018-10-25T20:55:55.000Z","leapseconds":18,"ept":0.005,"lat":44.068809596,"lon":-121.314309171,"altHAE":1110.675,"altMSL":1132.830,"epx":8.416,"epy":10.773,"epv":34.040,"track":54.6684,"magtrack":69.0869,"magvar":14.4,"speed":0.004,"climb":-0.017,"eps":0.01,"epc":68.08,"ecefx":-2386071.03,"ecefy":-3922190.65,"ecefz":4414360.79,"ecefvx":0.01,"ecefvy":0.01,"ecefvz":-0.01,"ecefpAcc":1.63,"ecefvAcc":0.01,"velN":0.002,"velE":0.003,"velD":0.017,"geoidSep":-22.155,"eph":17.290,"sep":32.870}
{"class":"RAW","time":1540500955,"nsec":992000000,"rawdata":[{"gnssid":0,"svid":32,"snr":50,"obs":"L1C","lli":0,"locktime":64500,"pseudorange":18188983.840927,"carrierphase":95583747.190466,"doppler":1124.503906},{"gnssid":0,"svid":10,"snr":49,"obs":"L1C","lli":0,"locktime":64500,"pseudorange":18211223.427977,"carrierphase":95700629.952612,"doppler":-988.678894},{"gnssid":0,"svid":14,"snr":45,"obs":"L1C","lli":0,"locktime":64500,"pseudorange":19160360.611736,"carrierphase":100688375.807249,"doppler":2346.186523},{"gnssid":0,"svid":20,"snr":43,"obs":"L1C","lli":0,"locktime":64500,"pseudorange":19401970.184083,"carrierphase":101958030.999929,"doppler":-2348.129150},{"gnssid":0,"svid":8,"snr":44,"obs":"L1C","lli":0,"locktime":64500,"pseudorange":19955016.846218,"carrierphase":104864287.309298,"doppler":-863.373779},{"gnssid":0,"svid":27,"snr":44,"obs":"L1C","lli":0,"locktime":64500,"pseudorange":20226650.477948,"carrierphase":106291742.446068,"doppler":-2683.319092},{"gnssid":0,"svid":24,"snr":41,"obs":"L1C","lli":0,"locktime":64500,"pseudorange":21311170.987988,"carrierphase":111990959.559117,"doppler":-1393.688965},{"gnssid":1,"svid":31,"snr":41,"obs":"L1C","lli":0,"locktime":64500,"pseudorange":35447135.375149,"carrierphase":186275951.512051,"doppler":13.134766},{"gnssid":1,"svid":35,"snr":44,"obs":"L1C","lli":0,"locktime":64500,"pseudorange":35527593.076632,"carrierphase":186698757.700331,"doppler":14.393311},{"gnssid":1,"svid":33,"snr":43,"obs":"L1C","lli":0,"locktime":64500,"pseudorange":35475510.912463,"carrierphase":186425060.367215,"doppler":15.148193},{"gnssid":0,"svid":11,"snr":30,"obs":"L1C","lli":0,"locktime":16920,"pseudorange":21130145.203741,"carrierphase":111039638.484269,"doppler":3260.741699},{"gnssid":0,"svid":21,"snr":39,"obs":"L1C","lli":0,"locktime":64500,"pseudorange":21538785.590409,"carrierphase":113187072.788409,"doppler":-3018.823242},{"gnssid":0,"svid":4,"snr":37,"obs":"L1C","lli":0,"locktime":64500,"pseudorange":21484419.314890,"carrierphase":112901391.632552,"doppler":-3286.468506}]}
$GPZDA,205556.00,25,10,2018,00,00*6A
$GPGGA,205556.00,4404.1286,N,12118.8586,W,1,12,0.82,1132.83,M,-22.155,M,,*61
$GPRMC,205556.00,A,4404.1286,N,12118.8586,W,0.0080,54.668,251018,14.4,E*75
$GPGSA,A,3,8,10,11,14,20,21,24,27,,,,,1.7,0.8,1.5*06
$GPGBS,205556.00,8.416,10.773,34.040,,,,*4A
{"class":"TPV","mode":3,"time":"2018-10-25T20:55:56.000Z","leapseconds":18,"ept":0.005,"lat":44.068809596,"lon":-121.314309171,"altHAE":1110.675,"altMSL":1132.830,"epx":8.416,"epy":10.773,"epv":34.040,"track":54.6684,"magtrack":69.0869,"magvar":14.4,"speed":0.004,"climb":-0.017,"eps":0.01,"epc":68.08,"ecefx":-2386071.02,"ecefy":-3922190.67,"ecefz":4414360.78,"ecefvx":0.01,"ecefvy":0.01,"ecefvz":-0.01,"ecefpAcc":1.62,"ecefvAcc":0.01,"velN":0.002,"velE":0.003,"velD":0.017,"geoidSep":-22.155,"eph":17.290,"sep":32.870}
{"class":"RAW","time":1540500956,"nsec":992000000,"rawdata":[{"gnssid":0,"svid":32,"snr":50,"obs":"L1C","lli":0,"locktime":64500,"pseudorange":18188769.604604,"carrierphase":95582622.751557,"doppler":1124.162598},{"gnssid":0,"svid":10,"snr":49,"obs":"L1C","lli":0,"locktime":64500,"pseudorange":18211411.593675,"carrierphase":95701618.548721,"doppler":-988.789062},{"gnssid":0,"svid":14,"snr":45,"obs":"L1C","lli":0,"locktime":64500,"pseudorange":19159914.147915,"carrierphase":100686029.834580,"doppler":2345.554199},{"gnssid":0,"svid":20,"snr":43,"obs":"L1C","lli":0,"locktime":64500,"pseudorange":19402417.066709,"carrierphase":101960379.139560,"doppler":-2348.389404},{"gnssid":0,"svid":8,"snr":43,"obs":"L1C","lli":0,"locktime":64500,"pseudorange":19955181.035317,"carrierphase":104865150.929828,"doppler":-864.093994},{"gnssid":0,"svid":27,"snr":44,"obs":"L1C","lli":0,"locktime":64500,"pseudorange":20227161.053869,"carrierphase":106294425.720788,"doppler":-2683.523682},{"gnssid":0,"svid":24,"snr":41,"obs":"L1C","lli":0,"locktime":64500,"pseudorange":21311436.144047,"carrierphase":111992353.335827,"doppler":-1394.030762},{"gnssid":1,"svid":31,"snr":43,"obs":"L1C","lli":0,"locktime":64500,"pseudorange":35447132.967019,"carrierphase":186275937.875636,"doppler":13.621582},{"gnssid":1,"svid":35,"snr":44,"obs":"L1C","lli":0,"locktime":64500,"pseudorange":35527590.546350,"carrierphase":186698743.184672,"doppler":14.480713},{"gnssid":1,"svid":33,"snr":44,"obs":"L1C","lli":0,"locktime":64500,"pseudorange":35475508.260030,"carrierphase":186425045.263315,"doppler":15.015137},{"gnssid":0,"svid":11,"snr":30,"obs":"L1C","lli":0,"locktime":17920,"pseudorange":21129528.722449,"carrierphase":111036377.190575,"doppler":3259.925781},{"gnssid":0,"svid":21,"snr":39,"obs":"L1C","lli":0,"locktime":64500,"pseudorange":21539360.103928,"carrierphase":113190091.769689,"doppler":-3019.390869},{"gnssid":0,"svid":4,"snr":37,"obs":"L1C","lli":0,"locktime":64500,"pseudorange":21485044.695793,"carrierphase":112904678.045521,"doppler":-3286.389160}]}
$GPZDA,205557.00,25,10,2018,00,00*6B
$GPGGA,205557.00,4404.1286,N,12118.8586,W,1,11,0.77,1132.83,M,-22.155,M,,*69
$GPRMC,205557.00,A,4404.1286,N,12118.8586,W,0.0080,54.668,251018,14.4,E*74
$GPGSA,A,3,8,10,11,14,20,21,24,27,,,,,1.7,0.8,1.5*06
$GPGBS,205557.00,8.416,10.773,34.040,,,,*4B
{"class":"TPV","mode":3,"time":"2018-10-25T20:55:57.000Z","leapseconds":18,"ept":0.005,"lat":44.068809596,"lon":-121.314309171,"altHAE":1110.675,"altMSL":1132.830,"epx":8.416,"epy":10.773,"epv":34.040,"track":54.6684,"magtrack":69.0869,"magvar":14.4,"speed":0.004,"climb":-0.017,"eps":0.01,"epc":68.08,"ecefx":-2386071.02,"ecefy":-3922190.69,"ecefz":4414360.76,"ecefvx":0.01,"ecefvy":0.01,"ecefvz":-0.01,"ecefpAcc":1.62,"ecefvAcc":0.01,"velN":0.002,"velE":0.003,"velD":0.017,"geoidSep":-22.155,"eph":17.290,"sep":32.870}
$GPGSV,5,1,18,01,07,312,21,08,37,270,46,10,65,052,52,11,19,312,33*70
$GPGSV,5,2,18,14,50,202,48,18,32,309,34,20,39,081,46,21,18,138,42*7B
$GPGSV,5,3,18,22,02,272,00,24,19,050,44,27,34,229,47,31,00,171,00*75
$GPGSV,5,4,18,32,72,187,53,44,39,174,46,46,39,191,47,48,38,197,47*7E
$GPGSV,5,5,18,51,37,160,00,195,13,305,00*4E
{"class":"SKY","xdop":0.56,"ydop":0.61,"vdop":1.47,"tdop":0.91,"hdop":0.77,"gdop":1.89,"pdop":1.66,"satellites":[{"PRN":1,"el":7.0,"az":312.0,"ss":21.0,"used":false,"gnssid":0,"svid":1,"health":1},{"PRN":4,"az":0.0,"ss":40.0,"used":false,"gnssid":0,"svid":4,"health":2},{"PRN":8,"el":37.0,"az":270.0,"ss":46.0,"used":true,"gnssid":0,"svid":8,"health":1},{"PRN":10,"el":65.0,"az":52.0,"ss":52.0,"used":true,"gnssid":0,"svid":10,"health":1},{"PRN":11,"el":19.0,"az":312.0,"ss":33.0,"used":true,"gnssid":0,"svid":11,"health":1},{"PRN":14,"el":50.0,"az":202.0,"ss":48.0,"used":true,"gnssid":0,"svid":14,"health":1},{"PRN":18,"el":32.0,"az":309.0,"ss":34.0,"used":false,"gnssid":0,"svid":18,"health":1},{"PRN":20,"el":39.0,"az":81.0,"ss":46.0,"used":true,"gnssid":0,"svid":20,"health":1},{"PRN":21,"el":18.0,"az":138.0,"ss":42.0,"used":true,"gnssid":0,"svid":21,"health":1},{"PRN":22,"el":2.0,"az":272.0,"ss":0.0,"used":false,"gnssid":0,"svid":22,"health":1},{"PRN":24,"el":19.0,"az":50.0,"ss":44.0,"used":true,"gnssid":0,"svid":24,"health":1},{"PRN":27,"el":34.0,"az":229.0,"ss":47.0,"used":true,"gnssid":0,"svid":27,"health":1},{"PRN":31,"el":0.0,"az":171.0,"ss":0.0,"used":false,"gnssid":0,"svid":31,"health":1},{"PRN":32,"el":72.0,"az":187.0,"ss":53.0,"used":true,"gnssid":0,"svid":32,"health":1},{"PRN":44,"el":39.0,"az":174.0,"ss":46.0,"used":true,"gnssid":1,"svid":131,"health":1},{"PRN":46,"el":39.0,"az":191.0,"ss":47.0,"used":false,"gnssid":1,"svid":133},{"PRN":48,"el":38.0,"az":197.0,"ss":47.0,"used":true,"gnssid":1,"svid":135,"health":1},{"PRN":51,"el":37.0,"az":160.0,"ss":0.0,"used":false,"gnssid":1,"svid":138,"health":1},{"PRN":195,"el":13.0,"az":305.0,"ss":0.0,"used":false,"gnssid":5,"svid":3,"health":1},{"PRN":196,"az":0.0,"ss":0.0,"used":false,"gnssid":5,"svid":4}]}
{"class":"TPV","mode":3,"time":"2018-10-25T20:55:57.000Z","leapseconds":18,"ept":0.005,"lat":44.068809596,"lon":-121.314309171,"altHAE":1110.675,"altMSL":1132.830,"epx":8.416,"epy":10.773,"epv":34.040,"track":54.6684,"magtrack":69.0869,"magvar":14.4,"speed":0.004,"climb":-0.017,"eps":0.01,"epc":68.08,"ecefx":-2386071.02,"ecefy":-3922190.69,"ecefz":4414360.76,"ecefvx":0.01,"ecefvy":0.01,"ecefvz":-0.01,"ecefpAcc":1.62,"ecefvAcc":0.01,"velN":0.002,"velE":0.003,"velD":0.017,"geoidSep":-22.155,"eph":17.290,"sep":32.870}
{"class":"RAW","time":1540500957,"nsec":992000000,"rawdata":[{"gnssid":0,"svid":32,"snr":50,"obs":"L1C","lli":0,"locktime":64500,"pseudorange":18188555.455532,"carrierphase":95581498.891851,"doppler":1123.802490},{"gnssid":0,"svid":10,"snr":49,"obs":"L1C","lli":0,"locktime":64500,"pseudorange":18211599.584871,"carrierphase":95702607.487250,"doppler":-989.040283},{"gnssid":0,"svid":14,"snr":45,"obs":"L1C","lli":0,"locktime":64500,"pseudorange":19159467.823696,"carrierphase":100683684.301664,"doppler":2345.450439},{"gnssid":0,"svid":20,"snr":43,"obs":"L1C","lli":0,"locktime":64500,"pseudorange":19402864.054037,"carrierphase":101962727.496244,"doppler":-2348.305176},{"gnssid":0,"svid":8,"snr":43,"obs":"L1C","lli":0,"locktime":64500,"pseudorange":19955344.980113,"carrierphase":104866015.176615,"doppler":-864.626465},{"gnssid":0,"svid":27,"snr":44,"obs":"L1C","lli":0,"locktime":64500,"pseudorange":20227671.472738,"carrierphase":106297109.394880,"doppler":-2683.753174},{"gnssid":0,"svid":24,"snr":41,"obs":"L1C","lli":0,"locktime":64500,"pseudorange":21311701.596759,"carrierphase":111993747.753777,"doppler":-1394.592285},{"gnssid":1,"svid":31,"snr":41,"obs":"L1C","lli":0,"locktime":64500,"pseudorange":35447130.506539,"carrierphase":186275924.229091,"doppler":13.509521},{"gnssid":1,"svid":35,"snr":44,"obs":"L1C","lli":0,"locktime":64500,"pseudorange":35527587.946268,"carrierphase":186698728.721557,"doppler":14.649170},{"gnssid":1,"svid":33,"snr":45,"obs":"L1C","lli":0,"locktime":64500,"pseudorange":35475505.223692,"carrierphase":186425030.146094,"doppler":15.446289},{"gnssid":0,"svid":11,"snr":29,"obs":"L1C","lli":0,"locktime":18920,"pseudorange":21128909.571273,"carrierphase":111033116.200453,"doppler":3260.716064},{"gnssid":0,"svid":21,"snr":39,"obs":"L1C","lli":0,"locktime":64500,"pseudorange":21539934.634897,"carrierphase":113193110.925496,"doppler":-3019.238281},{"gnssid":0,"svid":4,"snr":37,"obs":"L1C","lli":0,"locktime":64500,"pseudorange":21485670.251198,"carrierphase":112907964.623859,"doppler":-3286.425781}]}
$GPZDA,205558.00,25,10,2018,00,00*64
$GPGGA,205558.00,4404.1286,N,12118.8586,W,1,11,0.82,1132.83,M,-22.155,M,,*6C
$GPRMC,205558.00,A,4404.1286,N,12118.8586,W,0.0080,54.668,251018,14.4,E*7B
$GPGSA,A,3,8,10,11,14,20,21,24,27,,,,,1.7,0.8,1.5*06
$GPGBS,205558.00,8.416,10.773,34.040,,,,*44
{"class":"TPV","mode":3,"time":"2018-10-25T20:55:58.000Z","leapseconds":18,"ept":0.005,"lat":44.068809596,"lon":-121.314309171,"altHAE":1110.675,"altMSL":1132.830,"epx":8.416,"epy":10.773,"epv":34.040,"track":54.6684,"magtrack":69.0869,"magvar":14.4,"speed":0.004,"climb":-0.017,"eps":0.01,"epc":68.08,"ecefx":-2386071.02,"ecefy":-3922190.71,"ecefz":4414360.75,"ecefvx":0.01,"ecefvy":0.01,"ecefvz":-0.01,"ecefpAcc":1.62,"ecefvAcc":0.01,"velN":0.002,"velE":0.003,"velD":0.017,"geoidSep":-22.155,"eph":17.290,"sep":32.870}
{"class":"RAW","time":1540500958,"nsec":992000000,"rawdata":[{"gnssid":0,"svid":32,"snr":50,"obs":"L1C","lli":0,"locktime":64500,"pseudorange":18188341.550763,"carrierphase":95580375.527170,"doppler":1123.063965},{"gnssid":0,"svid":10,"snr":49,"obs":"L1C","lli":0,"locktime":64500,"pseudorange":18211788.308976,"carrierphase":95703596.624780,"doppler":-989.388855},{"gnssid":0,"svid":14,"snr":45,"obs":"L1C","lli":0,"locktime":64500,"pseudorange":19159021.394776,"carrierphase":100681339.108671,"doppler":2344.931641},{"gnssid":0,"svid":20,"snr":43,"obs":"L1C","lli":0,"locktime":64500,"pseudorange":19403310.727260,"carrierphase":101965076.011807,"doppler":-2348.706787},{"gnssid":0,"svid":8,"snr":43,"obs":"L1C","lli":0,"locktime":64500,"pseudorange":19955509.553116,"carrierphase":104866879.925485,"doppler":-864.888916},{"gnssid":0,"svid":27,"snr":44,"obs":"L1C","lli":0,"locktime":64500,"pseudorange":20228182.101009,"carrierphase":106299793.372987,"doppler":-2684.195557},{"gnssid":0,"svid":24,"snr":41,"obs":"L1C","lli":0,"locktime":64500,"pseudorange":21311966.874969,"carrierphase":111995142.674233,"doppler":-1395.330688},{"gnssid":1,"svid":31,"snr":43,"obs":"L1C","lli":0,"locktime":64500,"pseudorange":35447127.766855,"carrierphase":186275910.454445,"doppler":13.595703},{"gnssid":1,"svid":35,"snr":44,"obs":"L1C","lli":0,"locktime":64500,"pseudorange":35527585.258934,"carrierphase":186698714.159276,"doppler":14.859375},{"gnssid":1,"svid":33,"snr":45,"obs":"L1C","lli":0,"locktime":64500,"pseudorange":35475502.710860,"carrierphase":186425014.956428,"doppler":15.088378},{"gnssid":0,"svid":11,"snr":29,"obs":"L1C","lli":0,"locktime":19920,"pseudorange":21128287.331409,"carrierphase":111029855.537944,"doppler":3260.699463},{"gnssid":0,"svid":21,"snr":39,"obs":"L1C","lli":0,"locktime":64500,"pseudorange":21540509.322917,"carrierphase":113196130.287060,"doppler":-3019.464111},{"gnssid":0,"svid":4,"snr":39,"obs":"L1C","lli":0,"locktime":64500,"pseudorange":21486295.701903,"carrierphase":112911251.235068,"doppler":-3286.920166}]}
$GPZDA,205559.00,25,10,2018,00,00*65
$GPGGA,205559.00,4404.1286,N,12118.8586,W,1,11,0.82,1132.83,M,-22.155,M,,*6D
$GPRMC,205559.00,A,4404.1286,N,12118.8586,W,0.0080,54.668,251018,14.4,E*7A
$GPGSA,A,3,8,10,11,14,20,21,24,27,,,,,1.7,0.8,1.5*06
$GPGBS,205559.00,8.416,10.773,34.040,,,,*45
{"class":"TPV","mode":3,"time":"2018-10-25T20:55:59.000Z","leapseconds":18,"ept":0.005,"lat":44.068809596,"lon":-121.314309171,"altHAE":1110.675,"altMSL":1132.830,"epx":8.416,"epy":10.773,"epv":34.040,"track":54.6684,"magtrack":69.0869,"magvar":14.4,"speed":0.004,"climb":-0.017,"eps":0.01,"epc":68.08,"ecefx":-2386071.03,"ecefy":-3922190.73,"ecefz":4414360.73,"ecefvx":0.01,"ecefvy":0.01,"ecefvz":-0.01,"ecefpAcc":1.61,"ecefvAcc":0.01,"velN":0.002,"velE":0.003,"velD":0.017,"geoidSep":-22.155,"eph":17.290,"sep":32.870}
{"class":"TPV","mode":3,"time":"2018-10-25T20:55:59.000Z","leapseconds":18,"ept":0.005,"lat":44.068809596,"lon":-121.314309171,"altHAE":1110.675,"altMSL":1132.830,"epx":8.416,"epy":10.773,"epv":34.040,"track":54.6684,"magtrack":69.0869,"magvar":14.4,"speed":0.004,"climb":-0.017,"eps":0.01,"epc":68.08,"ecefx":-2386071.03,"ecefy":-3922190.73,"ecefz":4414360.73,"ecefvx":0.01,"ecefvy":0.01,"ecefvz":-0.01,"ecefpAcc":1.61,"ecefvAcc":0.01,"velN":0.002,"velE":0.003,"velD":0.017,"geoidSep":-22.155,"eph":17.290,"sep":32.870}
{"class":"RAW","time":1540500959,"nsec":992000000,"rawdata":[{"gnssid":0,"svid":32,"snr":50,"obs":"L1C","lli":0,"locktime":64500,"pseudorange":18188128.082249,"carrierphase":95579252.738154,"doppler":1122.430908},{"gnssid":0,"svid":10,"snr":49,"obs":"L1C","lli":0,"locktime":64500,"pseudorange":18211976.492124,"carrierphase":95704586.115485,"doppler":-989.796631},{"gnssid":0,"svid":14,"snr":45,"obs":"L1C","lli":0,"locktime":64500,"pseudorange":19158575.454461,"carrierphase":100678994.390093,"doppler":2344.180908},{"gnssid":0,"svid":20,"snr":43,"obs":"L1C","lli":0,"locktime":64500,"pseudorange":19403757.540085,"carrierphase":101967424.786731,"doppler":-2349.226562},{"gnssid":0,"svid":8,"snr":43,"obs":"L1C","lli":0,"locktime":64500,"pseudorange":19955674.387873,"carrierphase":104867745.354016,"doppler":-865.892090},{"gnssid":0,"svid":27,"snr":44,"obs":"L1C","lli":0,"locktime":64500,"pseudorange":20228693.025935,"carrierphase":106302477.761649,"doppler":-2684.530762},{"gnssid":0,"svid":24,"snr":41,"obs":"L1C","lli":0,"locktime":64500,"pseudorange":21312232.310231,"carrierphase":111996538.262380,"doppler":-1396.221924},{"gnssid":1,"svid":31,"snr":42,"obs":"L1C","lli":0,"locktime":64500,"pseudorange":35447124.730517,"carrierphase":186275896.736081,"doppler":13.460938},{"gnssid":1,"svid":35,"snr":44,"obs":"L1C","lli":0,"locktime":64500,"pseudorange":35527582.554150,"carrierphase":186698699.588293,"doppler":14.204833},{"gnssid":1,"svid":33,"snr":44,"obs":"L1C","lli":0,"locktime":64500,"pseudorange":35475499.657072,"carrierphase":186424999.748415,"doppler":15.100098},{"gnssid":0,"svid":11,"snr":28,"obs":"L1C","lli":0,"locktime":20920,"pseudorange":21127658.634964,"carrierphase":111026595.285507,"doppler":3260.132324},{"gnssid":0,"svid":21,"snr":39,"obs":"L1C","lli":0,"locktime":64500,"pseudorange":21541083.661934,"carrierphase":113199149.864648,"doppler":-3019.787598},{"gnssid":0,"svid":4,"snr":38,"obs":"L1C","lli":0,"locktime":64500,"pseudorange":21486921.152607,"carrierphase":112914537.996268,"doppler":-3287.200684}]}
$GPZDA,205600.00,25,10,2018,00,00*6A
$GPGGA,205600.00,4404.1286,N,12118.8586,W,1,11,0.82,1132.83,M,-22.155,M,,*62
$GPRMC,205600.00,A,4404.1286,N,12118.8586,W,0.0080,54.668,251018,14.4,E*75
$GPGSA,A,3,8,10,11,14,20,21,24,27,,,,,1.7,0.8,1.5*06
$GPGBS,205600.00,8.416,10.773,34.040,,,,*4A
{"class":"TPV","mode":3,"time":"2018-10-25T20:56:00.000Z","leapseconds":18,"ept":0.005,"lat":44.068809596,"lon":-121.314309171,"altHAE":1110.675,"altMSL":1132.830,"epx":8.416,"epy":10.773,"epv":34.040,"track":54.6684,"magtrack":69.0869,"magvar":14.4,"speed":0.004,"climb":-0.017,"eps":0.01,"epc":68.08,"ecefx":-2386071.02,"ecefy":-3922190.74,"ecefz":4414360.71,"ecefvx":0.01,"ecefvy":0.01,"ecefvz":-0.01,"ecefpAcc":1.61,"ecefvAcc":0.01,"velN":0.002,"velE":0.003,"velD":0.017,"geoidSep":-22.155,"eph":17.290,"sep":32.870}
{"class":"RAW","time":1540500960,"nsec":992000000,"rawdata":[{"gnssid":0,"svid":32,"snr":50,"obs":"L1C","lli":0,"locktime":64500,"pseudorange":18187914.596285,"carrierphase":95578130.617362,"doppler":1121.898193},{"gnssid":0,"svid":10,"snr":49,"obs":"L1C","lli":0,"locktime":64500,"pseudorange":18212165.198779,"carrierphase":95705575.989083,"doppler":-989.750977},{"gnssid":0,"svid":14,"snr":45,"obs":"L1C","lli":0,"locktime":64500,"pseudorange":19158129.269844,"carrierphase":100676650.169822,"doppler":2344.197998},{"gnssid":0,"svid":20,"snr":42,"obs":"L1C","lli":0,"locktime":64500,"pseudorange":19404204.405261,"carrierphase":101969773.848923,"doppler":-2349.092773},{"gnssid":0,"svid":8,"snr":43,"obs":"L1C","lli":0,"locktime":64500,"pseudorange":19955839.274980,"carrierphase":104868611.474401,"doppler":-866.208740},{"gnssid":0,"svid":27,"snr":44,"obs":"L1C","lli":0,"locktime":64500,"pseudorange":20229204.125362,"carrierphase":106305162.634285,"doppler":-2684.799316},{"gnssid":0,"svid":24,"snr":41,"obs":"L1C","lli":0,"locktime":64500,"pseudorange":21312497.972346,"carrierphase":111997934.546473,"doppler":-1396.588013},{"gnssid":1,"svid":31,"snr":42,"obs":"L1C","lli":0,"locktime":64500,"pseudorange":35447121.833781,"carrierphase":186275883.096474,"doppler":13.776367},{"gnssid":1,"svid":35,"snr":44,"obs":"L1C","lli":0,"locktime":64500,"pseudorange":35527579.290960,"carrierphase":186698685.089496,"doppler":14.683349},{"gnssid":1,"svid":33,"snr":45,"obs":"L1C","lli":0,"locktime":64500,"pseudorange":35475496.934838,"carrierphase":186424984.691926,"doppler":14.844971},{"gnssid":0,"svid":11,"snr":27,"obs":"L1C","lli":0,"locktime":21920,"pseudorange":21127038.803230,"carrierphase":111023335.498602,"doppler":3259.962158},{"gnssid":0,"svid":21,"snr":39,"obs":"L1C","lli":0,"locktime":64500,"pseudorange":21541658.367405,"carrierphase":113202169.767988,"doppler":-3019.940186},{"gnssid":0,"svid":4,"snr":37,"obs":"L1C","lli":0,"locktime":64500,"pseudorange":21487546.673112,"carrierphase":112917824.954327,"doppler":-3286.798096}]}
$GPZDA,205601.00,25,10,2018,00,00*6B
$GPGGA,205601.00,4404.1286,N,12118.8586,W,1,11,0.82,1132.83,M,-22.155,M,,*63
$GPRMC,205601.00,A,4404.1286,N,12118.8586,W,0.0080,54.668,251018,14.4,E*74
$GPGSA,A,3,8,10,11,14,20,21,24,27,,,,,1.7,0.8,1.5*06
$GPGBS,205601.00,8.416,10.773,34.040,,,,*4B
{"class":"TPV","mode":3,"time":"2018-10-25T20:56:01.000Z","leapseconds":18,"ept":0.005,"lat":44.068809596,"lon":-121.314309171,"altHAE":1110.675,"altMSL":1132.830,"epx":8.416,"epy":10.773,"epv":34.040,"track":54.6684,"magtrack":69.0869,"magvar":14.4,"speed":0.004,"climb":-0.017,"eps":0.01,"epc":68.08,"ecefx":-2386071.02,"ecefy":-3922190.74,"ecefz":4414360.68,"ecefvx":0.01,"ecefvy":0.01,"ecefvz":-0.01,"ecefpAcc":1.61,"ecefvAcc":0.01,"velN":0.002,"velE":0.003,"velD":0.017,"geoidSep":-22.155,"eph":17.290,"sep":32.870}
{"class":"TPV","mode":3,"time":"2018-10-25T20:56:01.000Z","leapseconds":18,"ept":0.005,"lat":44.068809596,"lon":-121.314309171,"altHAE":1110.675,"altMSL":1132.830,"epx":8.416,"epy":10.773,"epv":34.040,"track":54.6684,"magtrack":69.0869,"magvar":14.4,"speed":0.004,"climb":-0.017,"eps":0.01,"epc":68.08,"ecefx":-2386071.02,"ecefy":-3922190.74,"ecefz":4414360.68,"ecefvx":0.01,"ecefvy":0.01,"ecefvz":-0.01,"ecefpAcc":1.61,"ecefvAcc":0.01,"velN":0.002,"velE":0.003,"velD":0.017,"geoidSep":-22.155,"eph":17.290,"sep":32.870}
{"class":"RAW","time":1540500961,"nsec":992000000,"rawdata":[{"gnssid":0,"svid":32,"snr":50,"obs":"L1C","lli":0,"locktime":64500,"pseudorange":18187701.092871,"carrierphase":95577008.842922,"doppler":1121.125000},{"gnssid":0,"svid":10,"snr":49,"obs":"L1C","lli":0,"locktime":64500,"pseudorange":18212353.451728,"carrierphase":95706565.960597,"doppler":-990.150635},{"gnssid":0,"svid":14,"snr":45,"obs":"L1C","lli":0,"locktime":64500,"pseudorange":19157683.207378,"carrierphase":100674306.194814,"doppler":2343.546143},{"gnssid":0,"svid":20,"snr":43,"obs":"L1C","lli":0,"locktime":64500,"pseudorange":19404651.462389,"carrierphase":101972122.943777,"doppler":-2349.234619},{"gnssid":0,"svid":8,"snr":43,"obs":"L1C","lli":0,"locktime":64500,"pseudorange":19956004.266789,"carrierphase":104869478.030874,"doppler":-867.186035},{"gnssid":0,"svid":27,"snr":45,"obs":"L1C","lli":0,"locktime":64500,"pseudorange":20229715.591244,"carrierphase":106307847.699726,"doppler":-2685.639160},{"gnssid":0,"svid":24,"snr":41,"obs":"L1C","lli":0,"locktime":64500,"pseudorange":21312763.564660,"carrierphase":111999331.212928,"doppler":-1397.106812},{"gnssid":1,"svid":31,"snr":42,"obs":"L1C","lli":0,"locktime":64500,"pseudorange":35447119.338399,"carrierphase":186275869.311603,"doppler":13.321777},{"gnssid":1,"svid":35,"snr":44,"obs":"L1C","lli":0,"locktime":64500,"pseudorange":35527576.359323,"carrierphase":186698670.339761,"doppler":14.327636},{"gnssid":1,"svid":33,"snr":44,"obs":"L1C","lli":0,"locktime":64500,"pseudorange":35475494.107903,"carrierphase":186424969.460084,"doppler":15.174315},{"gnssid":0,"svid":11,"snr":26,"obs":"L1C","lli":0,"locktime":22920,"pseudorange":21126418.186236,"carrierphase":111020075.897742,"doppler":3260.241943},{"gnssid":0,"svid":21,"snr":39,"obs":"L1C","lli":0,"locktime":64500,"pseudorange":21542232.688971,"carrierphase":113205189.660286,"doppler":-3020.275879},{"gnssid":0,"svid":4,"snr":37,"obs":"L1C","lli":0,"locktime":64500,"pseudorange":21488172.141266,"carrierphase":112921111.826020,"doppler":-3287.091064}]}
$GPZDA,205602.00,25,10,2018,00,00*68
$GPGGA,205602.00,4404.1286,N,12118.8586,W,1,11,0.82,1132.83,M,-22.155,M,,*60
$GPRMC,205602.00,A,4404.1286,N,12118.8586,W,0.0080,54.668,251018,14.4,E*77
$GPGSA,A,3,8,10,11,14,20,21,24,27,,,,,1.7,0.8,1.5*06
$GPGBS,205602.00,8.416,10.773,34.040,,,,*48
{"class":"TPV","mode":3,"time":"2018-10-25T20:56:02.000Z","leapseconds":18,"ept":0.005,"lat":44.068809596,"lon":-121.314309171,"altHAE":1110.675,"altMSL":1132.830,"epx":8.416,"epy":10.773,"epv":34.040,"track":54.6684,"magtrack":69.0869,"magvar":14.4,"speed":0.004,"climb":-0.017,"eps":0.01,"epc":68.08,"ecefx":-2386071.01,"ecefy":-3922190.75,"ecefz":4414360.66,"ecefvx":0.01,"ecefvy":0.01,"ecefvz":-0.01,"ecefpAcc":1.60,"ecefvAcc":0.01,"velN":0.002,"velE":0.003,"velD":0.017,"geoidSep":-22.155,"eph":17.290,"sep":32.870}
{"class":"RAW","time":1540500962,"nsec":992000000,"rawdata":[{"gnssid":0,"svid":32,"snr":50,"obs":"L1C","lli":0,"locktime":64500,"pseudorange":18187487.345154,"carrierphase":95575887.701393,"doppler":1120.787842},{"gnssid":0,"svid":10,"snr":49,"obs":"L1C","lli":0,"locktime":64500,"pseudorange":18212541.512724,"carrierphase":95707556.315328,"doppler":-990.465820},{"gnssid":0,"svid":14,"snr":46,"obs":"L1C","lli":0,"locktime":64500,"pseudorange":19157237.301964,"carrierphase":100671962.714914,"doppler":2343.165283},{"gnssid":0,"svid":20,"snr":43,"obs":"L1C","lli":0,"locktime":64500,"pseudorange":19405098.502068,"carrierphase":101974472.318916,"doppler":-2349.504883},{"gnssid":0,"svid":8,"snr":42,"obs":"L1C","lli":0,"locktime":64500,"pseudorange":19956169.136446,"carrierphase":104870345.244839,"doppler":-867.579102},{"gnssid":0,"svid":27,"snr":45,"obs":"L1C","lli":0,"locktime":64500,"pseudorange":20230226.306767,"carrierphase":106310533.208245,"doppler":-2685.835693},{"gnssid":0,"svid":24,"snr":40,"obs":"L1C","lli":0,"locktime":64500,"pseudorange":21313029.383827,"carrierphase":112000728.598730,"doppler":-1397.808838},{"gnssid":1,"svid":31,"snr":42,"obs":"L1C","lli":0,"locktime":64500,"pseudorange":35447116.912819,"carrierphase":186275855.598450,"doppler":13.861816},{"gnssid":1,"svid":35,"snr":44,"obs":"L1C","lli":0,"locktime":64500,"pseudorange":35527573.235734,"carrierphase":186698655.660336,"doppler":14.770264},{"gnssid":1,"svid":33,"snr":44,"obs":"L1C","lli":0,"locktime":64500,"pseudorange":35475490.984314,"carrierphase":186424954.294989,"doppler":14.949463},{"gnssid":0,"svid":11,"snr":27,"obs":"L1C","lli":0,"locktime":23920,"pseudorange":21125797.150437,"carrierphase":111016816.697949,"doppler":3259.051025},{"gnssid":0,"svid":21,"snr":39,"obs":"L1C","lli":0,"locktime":64500,"pseudorange":21542807.185040,"carrierphase":113208209.841193,"doppler":-3019.799805},{"gnssid":0,"svid":4,"snr":38,"obs":"L1C","lli":0,"locktime":64500,"pseudorange":21488797.940975,"carrierphase":112924398.898281,"doppler":-3287.157959}]}
$GPZDA,205603.00,25,10,2018,00,00*69
$GPGGA,205603.00,4404.1286,N,12118.8586,W,1,11,0.82,1132.83,M,-22.155,M,,*61
$GPRMC,205603.00,A,4404.1286,N,12118.8586,W,0.0080,54.668,251018,14.4,E*76
$GPGSA,A,3,8,10,11,14,20,21,24,27,,,,,1.7,0.8,1.5*06
$GPGBS,205603.00,8.416,10.773,34.040,,,,*49
{"class":"TPV","mode":3,"time":"2018-10-25T20:56:03.000Z","leapseconds":18,"ept":0.005,"lat":44.068809596,"lon":-121.314309171,"altHAE":1110.675,"altMSL":1132.830,"epx":8.416,"epy":10.773,"epv":34.040,"track":54.6684,"magtrack":69.0869,"magvar":14.4,"speed":0.004,"climb":-0.017,"eps":0.01,"epc":68.08,"ecefx":-2386071.01,"ecefy":-3922190.76,"ecefz":4414360.64,"ecefvx":0.01,"ecefvy":0.01,"ecefvz":-0.01,"ecefpAcc":1.60,"ecefvAcc":0.01,"velN":0.002,"velE":0.003,"velD":0.017,"geoidSep":-22.155,"eph":17.290,"sep":32.870}
