$GPZDA,172236.00,01,12,2017,00,00*63
$GPGGA,172236,4513.1125,N,00548.4306,E,2,06,,230.30,M,48.583,M,,*56
$GPRMC,172236,A,4513.1125,N,00548.4306,E,0.0911,158.924,011217,,*2C
$GPGSA,A,2,,,,,,,,,,,,,,,*1D
{"class":"TPV","status":2,"mode":2,"time":"2017-12-01T17:22:36.000Z","ept":0.005,"lat":45.218541146,"lon":5.807177490,"track":158.9240,"speed":0.047,"eps":0.01}
$GPZDA,172238.00,01,12,2017,00,00*6D
$GPGGA,172238,4513.1125,N,00548.4307,E,2,06,1.36,230.30,M,48.583,M,,*43
$GPRMC,172238,A,4513.1125,N,00548.4307,E,0.0911,158.924,011217,,*23
$GPGSA,A,2,,,,,,,,,,,,,1.7,1.4,1.0*31
{"class":"TPV","status":2,"mode":2,"time":"2017-12-01T17:22:38.000Z","ept":0.005,"lat":45.218542098,"lon":5.807177580,"track":158.9240,"speed":0.047,"eps":0.01}
$GPZDA,172239.00,01,12,2017,00,00*6C
$GPGGA,172239,4513.1126,N,00548.4307,E,2,05,1.36,230.30,M,48.583,M,,*42
$GPRMC,172239,A,4513.1126,N,00548.4307,E,0.0911,158.924,011217,,*21
$GPGSA,A,2,,,,,,,,,,,,,1.7,1.4,1.0*31
{"class":"TPV","status":2,"mode":2,"time":"2017-12-01T17:22:39.000Z","ept":0.005,"lat":45.218543056,"lon":5.807177557,"track":158.9240,"speed":0.047,"eps":0.01}
$GPZDA,172240.00,01,12,2017,00,00*62
$GPGGA,172240,4513.1126,N,00548.4307,E,2,06,1.61,230.30,M,48.583,M,,*4D
$GPRMC,172240,A,4513.1126,N,00548.4307,E,0.0911,158.924,011217,,*2F
$GPGSA,A,2,,,,,,,,,,,,,1.9,1.6,1.0*3D
{"class":"TPV","status":2,"mode":2,"time":"2017-12-01T17:22:40.000Z","ept":0.005,"lat":45.218544008,"lon":5.807177647,"track":158.9240,"speed":0.047,"eps":0.01}
$GPZDA,172241.00,01,12,2017,00,00*63
$GPGGA,172241,4513.1127,N,00548.4307,E,2,06,1.36,230.29,M,48.583,M,,*47
$GPRMC,172241,A,4513.1127,N,00548.4307,E,0.0911,158.924,011217,,*2F
$GPGSA,A,2,,,,,,,,,,,,,1.7,1.4,1.0*31
{"class":"TPV","status":2,"mode":2,"time":"2017-12-01T17:22:41.000Z","ept":0.005,"lat":45.218545658,"lon":5.807177827,"track":158.9240,"speed":0.047,"eps":0.01}
$GPZDA,172242.00,01,12,2017,00,00*60
$GPGGA,172242,4513.1128,N,00548.4307,E,2,06,1.36,230.29,M,48.583,M,,*4B
$GPRMC,172242,A,4513.1128,N,00548.4307,E,0.0911,158.924,011217,,*23
$GPGSA,A,2,,,,,,,,,,,,,1.7,1.4,1.0*31
{"class":"TPV","status":2,"mode":2,"time":"2017-12-01T17:22:42.000Z","ept":0.005,"lat":45.218547245,"lon":5.807177994,"track":158.9240,"speed":0.047,"eps":0.01}
$GPZDA,172243.00,01,12,2017,00,00*61
$GPGGA,172243,4513.1129,N,00548.4307,E,2,06,1.36,230.28,M,48.583,M,,*4A
$GPRMC,172243,A,4513.1129,N,00548.4307,E,0.0911,158.924,011217,,*23
$GPGSA,A,2,,,,,,,,,,,,,1.7,1.4,1.0*31
{"class":"TPV","status":2,"mode":2,"time":"2017-12-01T17:22:43.000Z","ept":0.005,"lat":45.218548704,"lon":5.807178149,"track":158.9240,"speed":0.047,"eps":0.01}
$GPGSV,7,1,26,05,44,201,37,07,10,065,00,08,05,028,00,13,72,321,30*7F
$GPGSV,7,2,26,15,40,301,27,17,02,130,00,18,02,326,00,20,44,281,29*77
$GPGSV,7,3,26,21,06,304,00,24,08,253,21,28,56,087,35,30,38,061,19*75
$GPGSV,7,4,26,120,34,209,00,123,32,146,45,124,36,158,00,193,-91,000,00*52
$GPGSV,7,5,26,194,-91,000,00,197,-91,000,00,70,48,155,33,71,74,308,23*79
$GPGSV,7,6,26,72,22,324,00,73,76,251,30,74,21,228,13,80,44,037,29*71
$GPGSV,7,7,26,81,07,032,25,88,04,346,00*70
{"class":"SKY","xdop":0.76,"ydop":1.13,"vdop":0.96,"tdop":0.83,"hdop":1.36,"gdop":1.86,"pdop":1.67,"satellites":[{"PRN":5,"el":44,"az":201,"ss":37,"used":true,"gnssid":0,"svid":5},{"PRN":7,"el":10,"az":65,"ss":0,"used":false,"gnssid":0,"svid":7},{"PRN":8,"el":5,"az":28,"ss":0,"used":false,"gnssid":0,"svid":8},{"PRN":13,"el":72,"az":321,"ss":30,"used":true,"gnssid":0,"svid":13},{"PRN":15,"el":40,"az":301,"ss":27,"used":true,"gnssid":0,"svid":15},{"PRN":17,"el":2,"az":130,"ss":0,"used":false,"gnssid":0,"svid":17},{"PRN":18,"el":2,"az":326,"ss":0,"used":false,"gnssid":0,"svid":18},{"PRN":20,"el":44,"az":281,"ss":29,"used":true,"gnssid":0,"svid":20},{"PRN":21,"el":6,"az":304,"ss":0,"used":false,"gnssid":0,"svid":21},{"PRN":24,"el":8,"az":253,"ss":21,"used":false,"gnssid":0,"svid":24},{"PRN":28,"el":56,"az":87,"ss":35,"used":true,"gnssid":0,"svid":28},{"PRN":30,"el":38,"az":61,"ss":19,"used":true,"gnssid":0,"svid":30},{"PRN":120,"el":34,"az":209,"ss":0,"used":false,"gnssid":1,"svid":120},{"PRN":123,"el":32,"az":146,"ss":45,"used":false,"gnssid":1,"svid":123},{"PRN":124,"el":36,"az":158,"ss":0,"used":false,"gnssid":1,"svid":124},{"PRN":193,"el":-91,"az":0,"ss":0,"used":false,"gnssid":5,"svid":1},{"PRN":194,"el":-91,"az":0,"ss":0,"used":false,"gnssid":5,"svid":2},{"PRN":197,"el":-91,"az":0,"ss":0,"used":false,"gnssid":5,"svid":5},{"PRN":70,"el":48,"az":155,"ss":33,"used":false,"gnssid":6,"svid":6},{"PRN":71,"el":74,"az":308,"ss":23,"used":false,"gnssid":6,"svid":7},{"PRN":72,"el":22,"az":324,"ss":0,"used":false,"gnssid":6,"svid":8},{"PRN":73,"el":76,"az":251,"ss":30,"used":false,"gnssid":6,"svid":9},{"PRN":74,"el":21,"az":228,"ss":13,"used":false,"gnssid":6,"svid":10},{"PRN":80,"el":44,"az":37,"ss":29,"used":false,"gnssid":6,"svid":16},{"PRN":81,"el":7,"az":32,"ss":25,"used":false,"gnssid":6,"svid":17},{"PRN":88,"el":4,"az":346,"ss":0,"used":false,"gnssid":6,"svid":24}]}
$GPZDA,172244.00,01,12,2017,00,00*66
$GPGGA,172244,4513.1130,N,00548.4307,E,2,06,1.36,230.29,M,48.583,M,,*44
$GPRMC,172244,A,4513.1130,N,00548.4307,E,0.0911,158.924,011217,,*2C
$GPGSA,A,2,5,13,15,20,28,30,,,,,,,1.7,1.4,1.0*09
{"class":"TPV","status":2,"mode":2,"time":"2017-12-01T17:22:44.000Z","ept":0.005,"lat":45.218550177,"lon":5.807178037,"epx":2.840,"epy":4.246,"track":158.9240,"speed":0.047,"eps":0.01}
$GPZDA,172245.00,01,12,2017,00,00*67
$GPGGA,172245,4513.1131,N,00548.4307,E,2,06,1.36,230.29,M,48.583,M,,*44
$GPRMC,172245,A,4513.1131,N,00548.4307,E,0.0911,158.924,011217,,*2C
$GPGSA,A,2,5,13,15,20,28,30,,,,,,,1.7,1.4,1.0*09
{"class":"TPV","status":2,"mode":2,"time":"2017-12-01T17:22:45.000Z","ept":0.005,"lat":45.218551713,"lon":5.807177939,"epx":2.840,"epy":4.246,"track":158.9240,"speed":0.047,"eps":0.01}
$GPZDA,172246.00,01,12,2017,00,00*64
$GPGGA,172246,4513.1132,N,00548.4307,E,2,06,1.36,230.29,M,48.583,M,,*44
$GPRMC,172246,A,4513.1132,N,00548.4307,E,0.0911,158.924,011217,,*2C
$GPGSA,A,2,5,13,15,20,28,30,,,,,,,1.7,1.4,1.0*09
{"class":"TPV","status":2,"mode":2,"time":"2017-12-01T17:22:46.000Z","ept":0.005,"lat":45.218553191,"lon":5.807177700,"epx":2.840,"epy":4.246,"track":158.9240,"speed":0.047,"eps":0.01}
$GPZDA,172247.00,01,12,2017,00,00*65
$GPGGA,172247,4513.1133,N,00548.4306,E,2,06,1.36,230.29,M,48.583,M,,*45
$GPRMC,172247,A,4513.1133,N,00548.4306,E,0.0911,158.924,011217,,*2D
$GPGSA,A,2,5,13,15,20,28,30,,,,,,,1.7,1.4,1.0*09
{"class":"TPV","status":2,"mode":2,"time":"2017-12-01T17:22:47.000Z","ept":0.005,"lat":45.218554353,"lon":5.807177436,"epx":2.840,"epy":4.246,"track":158.9240,"speed":0.047,"eps":0.01}
$GPZDA,172248.00,01,12,2017,00,00*6A
$GPGGA,172248,4513.1133,N,00548.4306,E,2,06,1.36,230.30,M,48.583,M,,*42
$GPRMC,172248,A,4513.1133,N,00548.4306,E,0.0911,158.924,011217,,*22
$GPGSA,A,2,5,13,15,20,28,30,,,,,,,1.7,1.4,1.0*09
{"class":"TPV","status":2,"mode":2,"time":"2017-12-01T17:22:48.000Z","ept":0.005,"lat":45.218555578,"lon":5.807177172,"epx":2.840,"epy":4.246,"track":158.9240,"speed":0.047,"eps":0.01}
$GPZDA,172249.00,01,12,2017,00,00*6B
$GPGGA,172249,4513.1134,N,00548.4306,E,2,06,1.36,230.29,M,48.583,M,,*4C
$GPRMC,172249,A,4513.1134,N,00548.4306,E,0.0716,167.576,011217,,*2A
$GPGSA,A,2,5,13,15,20,28,30,,,,,,,1.7,1.4,1.0*09
{"class":"TPV","status":2,"mode":2,"time":"2017-12-01T17:22:49.000Z","ept":0.005,"lat":45.218556873,"lon":5.807176795,"epx":2.840,"epy":4.246,"track":167.5760,"speed":0.037,"eps":0.01}
$GPZDA,172250.00,01,12,2017,00,00*63
$GPGGA,172250,4513.1135,N,00548.4306,E,2,06,1.36,230.30,M,48.583,M,,*4D
$GPRMC,172250,A,4513.1135,N,00548.4306,E,0.0716,167.576,011217,,*23
$GPGSA,A,2,5,13,15,20,28,30,,,,,,,1.7,1.4,1.0*09
{"class":"TPV","status":2,"mode":2,"time":"2017-12-01T17:22:50.000Z","ept":0.005,"lat":45.218558105,"lon":5.807176404,"epx":2.840,"epy":4.246,"track":167.5760,"speed":0.037,"eps":0.01}
$GPZDA,172251.00,01,12,2017,00,00*62
$GPGGA,172251,4513.1136,N,00548.4306,E,2,06,1.36,230.30,M,48.583,M,,*4F
$GPRMC,172251,A,4513.1136,N,00548.4306,E,0.0583,164.680,011217,,*26
$GPGSA,A,2,5,13,15,20,28,30,,,,,,,1.7,1.4,1.0*09
{"class":"TPV","status":2,"mode":2,"time":"2017-12-01T17:22:51.000Z","ept":0.005,"lat":45.218559406,"lon":5.807175899,"epx":2.840,"epy":4.246,"track":164.6800,"speed":0.030,"eps":0.01}
$GPZDA,172252.00,01,12,2017,00,00*61
$GPGGA,172252,4513.1136,N,00548.4305,E,2,06,1.36,230.29,M,48.583,M,,*47
$GPRMC,172252,A,4513.1136,N,00548.4305,E,0.0583,164.680,011217,,*26
$GPGSA,A,2,5,13,15,20,28,30,,,,,,,1.7,1.4,1.0*09
{"class":"TPV","status":2,"mode":2,"time":"2017-12-01T17:22:52.000Z","ept":0.005,"lat":45.218560447,"lon":5.807175496,"epx":2.840,"epy":4.246,"track":164.6800,"speed":0.030,"eps":0.01}
$GPZDA,172253.00,01,12,2017,00,00*60
$GPGGA,172253,4513.1137,N,00548.4305,E,2,06,1.36,230.29,M,48.583,M,,*47
$GPRMC,172253,A,4513.1137,N,00548.4305,E,0.0583,164.680,011217,,*26
$GPGSA,A,2,5,13,15,20,28,30,,,,,,,1.7,1.4,1.0*09
{"class":"TPV","status":2,"mode":2,"time":"2017-12-01T17:22:53.000Z","ept":0.005,"lat":45.218561495,"lon":5.807174966,"epx":2.840,"epy":4.246,"track":164.6800,"speed":0.030,"eps":0.01}
$GPGSV,7,1,26,05,44,201,37,07,10,065,00,08,05,028,00,13,72,321,30*7F
$GPGSV,7,2,26,15,40,301,26,17,02,130,00,18,03,326,00,20,44,281,25*7B
$GPGSV,7,3,26,21,06,304,00,24,09,253,21,28,56,087,35,30,38,061,22*7C
$GPGSV,7,4,26,120,34,209,00,123,32,146,44,124,36,158,00,193,-91,000,00*53
$GPGSV,7,5,26,195,-91,000,00,197,-91,000,00,70,48,155,34,71,74,308,22*7E
$GPGSV,7,6,26,72,22,324,00,73,76,251,30,74,21,228,16,80,44,037,28*75
$GPGSV,7,7,26,81,07,032,24,88,04,346,00*71
{"class":"SKY","xdop":0.71,"ydop":0.93,"vdop":0.96,"tdop":0.83,"hdop":1.36,"gdop":1.86,"pdop":1.67,"satellites":[{"PRN":5,"el":44,"az":201,"ss":37,"used":true,"gnssid":0,"svid":5},{"PRN":7,"el":10,"az":65,"ss":0,"used":false,"gnssid":0,"svid":7},{"PRN":8,"el":5,"az":28,"ss":0,"used":false,"gnssid":0,"svid":8},{"PRN":13,"el":72,"az":321,"ss":30,"used":true,"gnssid":0,"svid":13},{"PRN":15,"el":40,"az":301,"ss":26,"used":true,"gnssid":0,"svid":15},{"PRN":17,"el":2,"az":130,"ss":0,"used":false,"gnssid":0,"svid":17},{"PRN":18,"el":3,"az":326,"ss":0,"used":false,"gnssid":0,"svid":18},{"PRN":20,"el":44,"az":281,"ss":25,"used":true,"gnssid":0,"svid":20},{"PRN":21,"el":6,"az":304,"ss":0,"used":false,"gnssid":0,"svid":21},{"PRN":24,"el":9,"az":253,"ss":21,"used":false,"gnssid":0,"svid":24},{"PRN":28,"el":56,"az":87,"ss":35,"used":true,"gnssid":0,"svid":28},{"PRN":30,"el":38,"az":61,"ss":22,"used":true,"gnssid":0,"svid":30},{"PRN":120,"el":34,"az":209,"ss":0,"used":false,"gnssid":1,"svid":120},{"PRN":123,"el":32,"az":146,"ss":44,"used":true,"gnssid":1,"svid":123},{"PRN":124,"el":36,"az":158,"ss":0,"used":false,"gnssid":1,"svid":124},{"PRN":193,"el":-91,"az":0,"ss":0,"used":false,"gnssid":5,"svid":1},{"PRN":195,"el":-91,"az":0,"ss":0,"used":false,"gnssid":5,"svid":3},{"PRN":197,"el":-91,"az":0,"ss":0,"used":false,"gnssid":5,"svid":5},{"PRN":70,"el":48,"az":155,"ss":34,"used":false,"gnssid":6,"svid":6},{"PRN":71,"el":74,"az":308,"ss":22,"used":false,"gnssid":6,"svid":7},{"PRN":72,"el":22,"az":324,"ss":0,"used":false,"gnssid":6,"svid":8},{"PRN":73,"el":76,"az":251,"ss":30,"used":false,"gnssid":6,"svid":9},{"PRN":74,"el":21,"az":228,"ss":16,"used":false,"gnssid":6,"svid":10},{"PRN":80,"el":44,"az":37,"ss":28,"used":false,"gnssid":6,"svid":16},{"PRN":81,"el":7,"az":32,"ss":24,"used":false,"gnssid":6,"svid":17},{"PRN":88,"el":4,"az":346,"ss":0,"used":false,"gnssid":6,"svid":24}]}
$GPZDA,172254.00,01,12,2017,00,00*67
$GPGGA,172254,4513.1138,N,00548.4305,E,2,06,1.36,230.29,M,48.583,M,,*4F
$GPRMC,172254,A,4513.1138,N,00548.4305,E,0.0583,164.680,011217,,*2E
$GPGSA,A,2,5,13,15,20,28,30,,,,,,,1.7,1.4,1.0*09
{"class":"TPV","status":2,"mode":2,"time":"2017-12-01T17:22:54.000Z","ept":0.005,"lat":45.218562536,"lon":5.807174562,"epx":2.840,"epy":4.246,"track":164.6800,"speed":0.030,"eps":0.01}
$GPZDA,172255.00,01,12,2017,00,00*66
$GPGGA,172255,4513.1139,N,00548.4305,E,2,06,1.36,230.28,M,48.583,M,,*4E
$GPRMC,172255,A,4513.1139,N,00548.4305,E,0.0583,164.680,011217,,*2E
$GPGSA,A,2,5,13,15,20,28,30,,,,,,,1.7,1.4,1.0*09
{"class":"TPV","status":2,"mode":2,"time":"2017-12-01T17:22:55.000Z","ept":0.005,"lat":45.218564275,"lon":5.807174236,"epx":2.840,"epy":4.246,"track":164.6800,"speed":0.030,"eps":0.01}
$GPZDA,172256.00,01,12,2017,00,00*65
$GPGGA,172256,4513.1140,N,00548.4304,E,2,06,1.36,230.28,M,48.583,M,,*42
$GPRMC,172256,A,4513.1140,N,00548.4304,E,0.0583,164.680,011217,,*22
$GPGSA,A,2,5,13,15,20,28,30,,,,,,,1.7,1.4,1.0*09
{"class":"TPV","status":2,"mode":2,"time":"2017-12-01T17:22:56.000Z","ept":0.005,"lat":45.218565958,"lon":5.807173770,"epx":2.840,"epy":4.246,"track":164.6800,"speed":0.030,"eps":0.01}
$GPZDA,172257.00,01,12,2017,00,00*64
$GPGGA,172257,4513.1141,N,00548.4304,E,2,06,1.36,230.29,M,48.583,M,,*43
$GPRMC,172257,A,4513.1141,N,00548.4304,E,0.0583,164.680,011217,,*22
$GPGSA,A,2,5,13,15,20,28,30,,,,,,,1.7,1.4,1.0*09
{"class":"TPV","status":2,"mode":2,"time":"2017-12-01T17:22:57.000Z","ept":0.005,"lat":45.218567640,"lon":5.807173291,"epx":2.840,"epy":4.246,"track":164.6800,"speed":0.030,"eps":0.01}
$GPZDA,172258.00,01,12,2017,00,00*6B
$GPGGA,172258,4513.1141,N,00548.4304,E,2,06,1.36,230.28,M,48.583,M,,*4D
$GPRMC,172258,A,4513.1141,N,00548.4304,E,0.0583,164.680,011217,,*2D
$GPGSA,A,2,5,13,15,20,28,30,,,,,,,1.7,1.4,1.0*09
{"class":"TPV","status":2,"mode":2,"time":"2017-12-01T17:22:58.000Z","ept":0.005,"lat":45.218569125,"lon":5.807172939,"epx":2.840,"epy":4.246,"track":164.6800,"speed":0.030,"eps":0.01}
$GPZDA,172259.00,01,12,2017,00,00*6A
$GPGGA,172259,4513.1142,N,00548.4303,E,2,06,1.36,230.28,M,48.583,M,,*48
$GPRMC,172259,A,4513.1142,N,00548.4303,E,0.0583,164.680,011217,,*28
$GPGSA,A,2,5,13,15,20,28,30,,,,,,,1.7,1.4,1.0*09
{"class":"TPV","status":2,"mode":2,"time":"2017-12-01T17:22:59.000Z","ept":0.005,"lat":45.218570427,"lon":5.807172435,"epx":2.840,"epy":4.246,"track":164.6800,"speed":0.030,"eps":0.01}
$GPZDA,172300.00,01,12,2017,00,00*67
$GPGGA,172300,4513.1143,N,00548.4303,E,2,06,1.36,230.28,M,48.583,M,,*44
$GPRMC,172300,A,4513.1143,N,00548.4303,E,0.0583,164.680,011217,,*24
$GPGSA,A,2,5,13,15,20,28,30,,,,,,,1.7,1.4,1.0*09
{"class":"TPV","status":2,"mode":2,"time":"2017-12-01T17:23:00.000Z","ept":0.005,"lat":45.218571664,"lon":5.807171917,"epx":2.840,"epy":4.246,"track":164.6800,"speed":0.030,"eps":0.01}
$GPZDA,172301.00,01,12,2017,00,00*66
$GPGGA,172301,4513.1144,N,00548.4303,E,2,06,1.36,230.29,M,48.583,M,,*43
$GPRMC,172301,A,4513.1144,N,00548.4303,E,0.0583,164.680,011217,,*22
$GPGSA,A,2,5,13,15,20,28,30,,,,,,,1.7,1.4,1.0*09
{"class":"TPV","status":2,"mode":2,"time":"2017-12-01T17:23:01.000Z","ept":0.005,"lat":45.218572776,"lon":5.807171387,"epx":2.840,"epy":4.246,"track":164.6800,"speed":0.030,"eps":0.01}
$GPZDA,172302.00,01,12,2017,00,00*65
$GPGGA,172302,4513.1144,N,00548.4302,E,2,06,1.36,230.29,M,48.583,M,,*41
$GPRMC,172302,A,4513.1144,N,00548.4302,E,0.0583,164.680,011217,,*20
$GPGSA,A,2,5,13,15,20,28,30,,,,,,,1.7,1.4,1.0*09
{"class":"TPV","status":2,"mode":2,"time":"2017-12-01T17:23:02.000Z","ept":0.005,"lat":45.218573899,"lon":5.807170604,"epx":2.840,"epy":4.246,"track":164.6800,"speed":0.030,"eps":0.01}
$GPZDA,172303.00,01,12,2017,00,00*64
$GPGGA,172303,4513.1145,N,00548.4302,E,2,07,1.36,230.29,M,48.583,M,,*40
$GPRMC,172303,A,4513.1145,N,00548.4302,E,0.0583,164.680,011217,,*20
$GPGSA,A,2,5,13,15,20,28,30,,,,,,,1.7,1.4,1.0*09
{"class":"TPV","status":2,"mode":2,"time":"2017-12-01T17:23:03.000Z","ept":0.005,"lat":45.218574896,"lon":5.807169807,"epx":2.840,"epy":4.246,"track":164.6800,"speed":0.030,"eps":0.01}
$GPGSV,7,1,26,05,44,201,38,07,10,065,25,08,05,028,00,13,72,321,31*76
$GPGSV,7,2,26,15,40,301,25,17,02,130,00,18,03,326,00,20,44,281,22*7F
$GPGSV,7,3,26,21,06,304,00,24,09,253,20,28,56,086,35,30,37,061,23*72
$GPGSV,7,4,26,120,34,209,00,123,32,146,45,124,36,158,00,193,-91,000,00*52
$GPGSV,7,5,26,195,-91,000,00,197,-91,000,00,70,48,155,35,71,74,308,21*7C
$GPGSV,7,6,26,72,22,324,00,73,76,251,31,74,21,228,20,80,44,037,27*7E
$GPGSV,7,7,26,81,07,032,25,88,04,346,00*70
{"class":"SKY","xdop":0.69,"ydop":0.82,"vdop":0.96,"tdop":0.83,"hdop":1.36,"gdop":1.86,"pdop":1.67,"satellites":[{"PRN":5,"el":44,"az":201,"ss":38,"used":true,"gnssid":0,"svid":5},{"PRN":7,"el":10,"az":65,"ss":25,"used":true,"gnssid":0,"svid":7},{"PRN":8,"el":5,"az":28,"ss":0,"used":false,"gnssid":0,"svid":8},{"PRN":13,"el":72,"az":321,"ss":31,"used":true,"gnssid":0,"svid":13},{"PRN":15,"el":40,"az":301,"ss":25,"used":true,"gnssid":0,"svid":15},{"PRN":17,"el":2,"az":130,"ss":0,"used":false,"gnssid":0,"svid":17},{"PRN":18,"el":3,"az":326,"ss":0,"used":false,"gnssid":0,"svid":18},{"PRN":20,"el":44,"az":281,"ss":22,"used":true,"gnssid":0,"svid":20},{"PRN":21,"el":6,"az":304,"ss":0,"used":false,"gnssid":0,"svid":21},{"PRN":24,"el":9,"az":253,"ss":20,"used":false,"gnssid":0,"svid":24},{"PRN":28,"el":56,"az":86,"ss":35,"used":true,"gnssid":0,"svid":28},{"PRN":30,"el":37,"az":61,"ss":23,"used":true,"gnssid":0,"svid":30},{"PRN":120,"el":34,"az":209,"ss":0,"used":false,"gnssid":1,"svid":120},{"PRN":123,"el":32,"az":146,"ss":45,"used":true,"gnssid":1,"svid":123},{"PRN":124,"el":36,"az":158,"ss":0,"used":false,"gnssid":1,"svid":124},{"PRN":193,"el":-91,"az":0,"ss":0,"used":false,"gnssid":5,"svid":1},{"PRN":195,"el":-91,"az":0,"ss":0,"used":false,"gnssid":5,"svid":3},{"PRN":197,"el":-91,"az":0,"ss":0,"used":false,"gnssid":5,"svid":5},{"PRN":70,"el":48,"az":155,"ss":35,"used":false,"gnssid":6,"svid":6},{"PRN":71,"el":74,"az":308,"ss":21,"used":false,"gnssid":6,"svid":7},{"PRN":72,"el":22,"az":324,"ss":0,"used":false,"gnssid":6,"svid":8},{"PRN":73,"el":76,"az":251,"ss":31,"used":false,"gnssid":6,"svid":9},{"PRN":74,"el":21,"az":228,"ss":20,"used":false,"gnssid":6,"svid":10},{"PRN":80,"el":44,"az":37,"ss":27,"used":false,"gnssid":6,"svid":16},{"PRN":81,"el":7,"az":32,"ss":25,"used":false,"gnssid":6,"svid":17},{"PRN":88,"el":4,"az":346,"ss":0,"used":false,"gnssid":6,"svid":24}]}
$GPZDA,172304.00,01,12,2017,00,00*63
$GPGGA,172304,4513.1146,N,00548.4301,E,2,07,1.29,230.30,M,48.583,M,,*41
$GPRMC,172304,A,4513.1146,N,00548.4301,E,0.0583,164.680,011217,,*27
$GPGSA,A,2,5,7,13,15,20,28,30,,,,,,1.6,1.3,0.9*30
{"class":"TPV","status":2,"mode":2,"time":"2017-12-01T17:23:04.000Z","ept":0.005,"lat":45.218575836,"lon":5.807168871,"epx":2.840,"epy":4.246,"track":164.6800,"speed":0.030,"eps":0.01}
$GPZDA,172305.00,01,12,2017,00,00*62
$GPGGA,172305,4513.1146,N,00548.4301,E,2,07,1.29,230.30,M,48.583,M,,*40
$GPRMC,172305,A,4513.1146,N,00548.4301,E,0.0583,164.680,011217,,*26
$GPGSA,A,2,5,7,13,15,20,28,30,,,,,,1.6,1.3,0.9*30
{"class":"TPV","status":2,"mode":2,"time":"2017-12-01T17:23:05.000Z","ept":0.005,"lat":45.218576713,"lon":5.807167935,"epx":2.840,"epy":4.246,"track":164.6800,"speed":0.030,"eps":0.01}
$GPZDA,172306.00,01,12,2017,00,00*61
$GPGGA,172306,4513.1147,N,00548.4300,E,2,07,1.29,230.29,M,48.583,M,,*4B
$GPRMC,172306,A,4513.1147,N,00548.4300,E,0.0459,157.771,011217,,*2C
$GPGSA,A,2,5,7,13,15,20,28,30,,,,,,1.6,1.3,0.9*30
{"class":"TPV","status":2,"mode":2,"time":"2017-12-01T17:23:06.000Z","ept":0.005,"lat":45.218577717,"lon":5.807167025,"epx":2.840,"epy":4.246,"track":157.7713,"speed":0.024,"eps":0.01}
$GPZDA,172307.00,01,12,2017,00,00*60
$GPGGA,172307,4513.1147,N,00548.4300,E,2,07,1.29,230.29,M,48.583,M,,*4A
$GPRMC,172307,A,4513.1147,N,00548.4300,E,0.0459,157.771,011217,,*2D
$GPGSA,A,2,5,7,13,15,20,28,30,,,,,,1.6,1.3,0.9*30
{"class":"TPV","status":2,"mode":2,"time":"2017-12-01T17:23:07.000Z","ept":0.005,"lat":45.218578657,"lon":5.807166102,"epx":2.840,"epy":4.246,"track":157.7713,"speed":0.024,"eps":0.01}
$GPZDA,172308.00,01,12,2017,00,00*6F
$GPGGA,172308,4513.1148,N,00548.4299,E,2,07,1.29,230.25,M,48.583,M,,*47
$GPRMC,172308,A,4513.1148,N,00548.4299,E,0.0336,148.915,011217,,*20
$GPGSA,A,2,5,7,13,15,20,28,30,,,,,,1.6,1.3,0.9*30
{"class":"TPV","status":2,"mode":2,"time":"2017-12-01T17:23:08.000Z","ept":0.005,"lat":45.218580352,"lon":5.807165409,"epx":2.840,"epy":4.246,"track":148.9153,"speed":0.017,"eps":0.01}
$GPZDA,172309.00,01,12,2017,00,00*6E
$GPGGA,172309,4513.1149,N,00548.4299,E,2,07,1.29,230.25,M,48.583,M,,*47
$GPRMC,172309,A,4513.1149,N,00548.4299,E,0.0336,148.915,011217,,*20
$GPGSA,A,2,5,7,13,15,20,28,30,,,,,,1.6,1.3,0.9*30
{"class":"TPV","status":2,"mode":2,"time":"2017-12-01T17:23:09.000Z","ept":0.005,"lat":45.218581787,"lon":5.807164790,"epx":2.840,"epy":4.246,"track":148.9153,"speed":0.017,"eps":0.01}
$GPZDA,172310.00,01,12,2017,00,00*66
$GPGGA,172310,4513.1150,N,00548.4298,E,2,07,1.29,230.26,M,48.583,M,,*45
$GPRMC,172310,A,4513.1150,N,00548.4298,E,0.0336,148.915,011217,,*21
$GPGSA,A,2,5,7,13,15,20,28,30,,,,,,1.6,1.3,0.9*30
{"class":"TPV","status":2,"mode":2,"time":"2017-12-01T17:23:10.000Z","ept":0.005,"lat":45.218583108,"lon":5.807163893,"epx":2.840,"epy":4.246,"track":148.9153,"speed":0.017,"eps":0.01}
$GPZDA,172311.00,01,12,2017,00,00*67
$GPGGA,172311,4513.1151,N,00548.4298,E,2,07,1.29,230.26,M,48.583,M,,*45
$GPRMC,172311,A,4513.1151,N,00548.4298,E,0.0336,148.915,011217,,*21
$GPGSA,A,2,5,7,13,15,20,28,30,,,,,,1.6,1.3,0.9*30
{"class":"TPV","status":2,"mode":2,"time":"2017-12-01T17:23:11.000Z","ept":0.005,"lat":45.218584225,"lon":5.807163236,"epx":2.840,"epy":4.246,"track":148.9153,"speed":0.017,"eps":0.01}
$GPZDA,172312.00,01,12,2017,00,00*64
$GPGGA,172312,4513.1151,N,00548.4298,E,2,07,1.29,230.27,M,48.583,M,,*47
$GPRMC,172312,A,4513.1151,N,00548.4298,E,0.0336,148.915,011217,,*22
$GPGSA,A,2,5,7,13,15,20,28,30,,,,,,1.6,1.3,0.9*30
{"class":"TPV","status":2,"mode":2,"time":"2017-12-01T17:23:12.000Z","ept":0.005,"lat":45.218585025,"lon":5.807162541,"epx":2.840,"epy":4.246,"track":148.9153,"speed":0.017,"eps":0.01}
$GPZDA,172313.00,01,12,2017,00,00*65
$GPGGA,172313,4513.1152,N,00548.4297,E,2,07,1.29,230.29,M,48.583,M,,*44
$GPRMC,172313,A,4513.1152,N,00548.4297,E,0.0336,148.915,011217,,*2F
$GPGSA,A,2,5,7,13,15,20,28,30,,,,,,1.6,1.3,0.9*30
{"class":"TPV","status":2,"mode":2,"time":"2017-12-01T17:23:13.000Z","ept":0.005,"lat":45.218586022,"lon":5.807161732,"epx":2.840,"epy":4.246,"track":148.9153,"speed":0.017,"eps":0.01}
$GPGSV,7,1,26,05,44,201,39,07,10,065,26,08,05,028,00,13,72,321,31*74
$GPGSV,7,2,26,15,40,301,27,17,02,130,00,18,03,326,00,20,44,281,23*7C
$GPGSV,7,3,26,21,06,304,00,24,09,253,19,28,56,086,34,30,37,061,21*7B
$GPGSV,7,4,26,120,34,209,00,123,32,146,45,124,36,158,00,193,-91,000,00*52
$GPGSV,7,5,26,195,-91,000,00,197,-91,000,00,70,48,155,35,71,74,308,18*76
$GPGSV,7,6,26,72,22,324,00,73,76,251,32,74,21,228,23,80,44,037,27*7E
$GPGSV,7,7,26,81,07,032,23,88,04,346,00*76
{"class":"SKY","xdop":0.69,"ydop":0.82,"vdop":0.89,"tdop":0.73,"hdop":1.29,"gdop":1.73,"pdop":1.57,"satellites":[{"PRN":5,"el":44,"az":201,"ss":39,"used":true,"gnssid":0,"svid":5},{"PRN":7,"el":10,"az":65,"ss":26,"used":true,"gnssid":0,"svid":7},{"PRN":8,"el":5,"az":28,"ss":0,"used":false,"gnssid":0,"svid":8},{"PRN":13,"el":72,"az":321,"ss":31,"used":true,"gnssid":0,"svid":13},{"PRN":15,"el":40,"az":301,"ss":27,"used":true,"gnssid":0,"svid":15},{"PRN":17,"el":2,"az":130,"ss":0,"used":false,"gnssid":0,"svid":17},{"PRN":18,"el":3,"az":326,"ss":0,"used":false,"gnssid":0,"svid":18},{"PRN":20,"el":44,"az":281,"ss":23,"used":true,"gnssid":0,"svid":20},{"PRN":21,"el":6,"az":304,"ss":0,"used":false,"gnssid":0,"svid":21},{"PRN":24,"el":9,"az":253,"ss":19,"used":false,"gnssid":0,"svid":24},{"PRN":28,"el":56,"az":86,"ss":34,"used":true,"gnssid":0,"svid":28},{"PRN":30,"el":37,"az":61,"ss":21,"used":true,"gnssid":0,"svid":30},{"PRN":120,"el":34,"az":209,"ss":0,"used":false,"gnssid":1,"svid":120},{"PRN":123,"el":32,"az":146,"ss":45,"used":true,"gnssid":1,"svid":123},{"PRN":124,"el":36,"az":158,"ss":0,"used":false,"gnssid":1,"svid":124},{"PRN":193,"el":-91,"az":0,"ss":0,"used":false,"gnssid":5,"svid":1},{"PRN":195,"el":-91,"az":0,"ss":0,"used":false,"gnssid":5,"svid":3},{"PRN":197,"el":-91,"az":0,"ss":0,"used":false,"gnssid":5,"svid":5},{"PRN":70,"el":48,"az":155,"ss":35,"used":false,"gnssid":6,"svid":6},{"PRN":71,"el":74,"az":308,"ss":18,"used":false,"gnssid":6,"svid":7},{"PRN":72,"el":22,"az":324,"ss":0,"used":false,"gnssid":6,"svid":8},{"PRN":73,"el":76,"az":251,"ss":32,"used":false,"gnssid":6,"svid":9},{"PRN":74,"el":21,"az":228,"ss":23,"used":false,"gnssid":6,"svid":10},{"PRN":80,"el":44,"az":37,"ss":27,"used":false,"gnssid":6,"svid":16},{"PRN":81,"el":7,"az":32,"ss":23,"used":false,"gnssid":6,"svid":17},{"PRN":88,"el":4,"az":346,"ss":0,"used":false,"gnssid":6,"svid":24}]}
$GPZDA,172314.00,01,12,2017,00,00*62
$GPGGA,172314,4513.1152,N,00548.4297,E,2,07,1.29,230.29,M,48.583,M,,*43
$GPRMC,172314,A,4513.1152,N,00548.4297,E,0.0336,148.915,011217,,*28
$GPGSA,A,2,5,7,13,15,20,28,30,,,,,,1.6,1.3,0.9*30
{"class":"TPV","status":2,"mode":2,"time":"2017-12-01T17:23:14.000Z","ept":0.005,"lat":45.218587216,"lon":5.807160834,"epx":2.840,"epy":4.246,"track":148.9153,"speed":0.017,"eps":0.01}
$GPZDA,172315.00,01,12,2017,00,00*63
$GPGGA,172315,4513.1153,N,00548.4296,E,2,07,1.29,230.28,M,48.583,M,,*43
$GPRMC,172315,A,4513.1153,N,00548.4296,E,0.0336,148.915,011217,,*29
$GPGSA,A,2,5,7,13,15,20,28,30,,,,,,1.6,1.3,0.9*30
{"class":"TPV","status":2,"mode":2,"time":"2017-12-01T17:23:15.000Z","ept":0.005,"lat":45.218588023,"lon":5.807160025,"epx":2.840,"epy":4.246,"track":148.9153,"speed":0.017,"eps":0.01}
$GPZDA,172316.00,01,12,2017,00,00*60
$GPGGA,172316,4513.1153,N,00548.4295,E,2,07,1.29,230.28,M,48.583,M,,*43
$GPRMC,172316,A,4513.1153,N,00548.4295,E,0.0275,184.103,011217,,*20
$GPGSA,A,2,5,7,13,15,20,28,30,,,,,,1.6,1.3,0.9*30
{"class":"TPV","status":2,"mode":2,"time":"2017-12-01T17:23:16.000Z","ept":0.005,"lat":45.218589090,"lon":5.807159115,"epx":2.840,"epy":4.246,"track":184.1028,"speed":0.014,"eps":0.01}
$GPZDA,172317.00,01,12,2017,00,00*61
$GPGGA,172317,4513.1154,N,00548.4295,E,2,07,1.29,230.27,M,48.583,M,,*4A
$GPRMC,172317,A,4513.1154,N,00548.4295,E,0.0275,184.103,011217,,*26
$GPGSA,A,2,5,7,13,15,20,28,30,,,,,,1.6,1.3,0.9*30
{"class":"TPV","status":2,"mode":2,"time":"2017-12-01T17:23:17.000Z","ept":0.005,"lat":45.218590024,"lon":5.807158318,"epx":2.840,"epy":4.246,"track":184.1028,"speed":0.014,"eps":0.01}
$GPZDA,172318.00,01,12,2017,00,00*6E
$GPGGA,172318,4513.1154,N,00548.4295,E,2,07,1.29,230.26,M,48.583,M,,*44
$GPRMC,172318,A,4513.1154,N,00548.4295,E,0.0275,184.103,011217,,*29
$GPGSA,A,2,5,7,13,15,20,28,30,,,,,,1.6,1.3,0.9*30
{"class":"TPV","status":2,"mode":2,"time":"2017-12-01T17:23:18.000Z","ept":0.005,"lat":45.218590760,"lon":5.807157636,"epx":2.840,"epy":4.246,"track":184.1028,"speed":0.014,"eps":0.03}
$GPZDA,172319.00,01,12,2017,00,00*6F
$GPGGA,172319,4513.1155,N,00548.4294,E,2,07,1.29,230.27,M,48.583,M,,*44
$GPRMC,172319,A,4513.1155,N,00548.4294,E,0.0275,184.103,011217,,*28
$GPGSA,A,2,5,7,13,15,20,28,30,,,,,,1.6,1.3,0.9*30
{"class":"TPV","status":2,"mode":2,"time":"2017-12-01T17:23:19.000Z","ept":0.005,"lat":45.218591821,"lon":5.807156839,"epx":2.840,"epy":4.246,"track":184.1028,"speed":0.014,"eps":0.03}
$GPZDA,172320.00,01,12,2017,00,00*65
$GPGGA,172320,4513.1156,N,00548.4294,E,2,07,1.29,230.27,M,48.583,M,,*4D
$GPRMC,172320,A,4513.1156,N,00548.4294,E,0.0275,184.103,011217,,*21
$GPGSA,A,2,5,7,13,15,20,28,30,,,,,,1.6,1.3,0.9*30
{"class":"TPV","status":2,"mode":2,"time":"2017-12-01T17:23:20.000Z","ept":0.005,"lat":45.218592748,"lon":5.807156169,"epx":2.840,"epy":4.246,"track":184.1028,"speed":0.014,"eps":0.03}
$GPZDA,172321.00,01,12,2017,00,00*64
$GPGGA,172321,4513.1156,N,00548.4293,E,2,07,1.29,230.26,M,48.583,M,,*4A
$GPRMC,172321,A,4513.1156,N,00548.4293,E,0.0275,184.103,011217,,*27
$GPGSA,A,2,5,7,13,15,20,28,30,,,,,,1.6,1.3,0.9*30
{"class":"TPV","status":2,"mode":2,"time":"2017-12-01T17:23:21.000Z","ept":0.005,"lat":45.218593415,"lon":5.807155601,"epx":2.840,"epy":4.246,"track":184.1028,"speed":0.014,"eps":0.03}
$GPZDA,172322.00,01,12,2017,00,00*67
$GPGGA,172322,4513.1156,N,00548.4293,E,2,07,1.29,230.28,M,48.583,M,,*47
$GPRMC,172322,A,4513.1156,N,00548.4293,E,0.0275,184.103,011217,,*24
$GPGSA,A,2,5,7,13,15,20,28,30,,,,,,1.6,1.3,0.9*30
{"class":"TPV","status":2,"mode":2,"time":"2017-12-01T17:23:22.000Z","ept":0.005,"lat":45.218593828,"lon":5.807154993,"epx":2.840,"epy":4.246,"track":184.1028,"speed":0.014,"eps":0.03}
$GPZDA,172323.00,01,12,2017,00,00*66
$GPGGA,172323,4513.1157,N,00548.4293,E,2,07,1.29,230.28,M,48.583,M,,*47
$GPRMC,172323,A,4513.1157,N,00548.4293,E,0.0275,184.103,011217,,*24
$GPGSA,A,2,5,7,13,15,20,28,30,,,,,,1.6,1.3,0.9*30
{"class":"TPV","status":2,"mode":2,"time":"2017-12-01T17:23:23.000Z","ept":0.005,"lat":45.218594304,"lon":5.807154398,"epx":2.840,"epy":4.246,"track":184.1028,"speed":0.014,"eps":0.03}
$GPGSV,7,1,26,05,44,201,39,07,10,065,27,08,05,028,00,13,72,321,32*76
$GPGSV,7,2,26,15,40,301,28,17,02,130,00,18,03,326,00,20,44,281,27*77
$GPGSV,7,3,26,21,06,304,00,24,09,253,18,28,56,086,34,30,37,061,16*7E
$GPGSV,7,4,26,120,34,209,00,123,32,146,45,124,36,158,00,193,-91,000,00*52
$GPGSV,7,5,26,194,-91,000,00,196,-91,000,00,70,48,156,34,71,74,307,17*74
$GPGSV,7,6,26,72,22,324,00,73,77,253,32,74,21,228,23,80,44,037,26*7C
$GPGSV,7,7,26,81,07,032,20,88,04,346,00*75
{"class":"SKY","xdop":0.69,"ydop":0.82,"vdop":0.89,"tdop":0.73,"hdop":1.29,"gdop":1.73,"pdop":1.57,"satellites":[{"PRN":5,"el":44,"az":201,"ss":39,"used":true,"gnssid":0,"svid":5},{"PRN":7,"el":10,"az":65,"ss":27,"used":true,"gnssid":0,"svid":7},{"PRN":8,"el":5,"az":28,"ss":0,"used":false,"gnssid":0,"svid":8},{"PRN":13,"el":72,"az":321,"ss":32,"used":true,"gnssid":0,"svid":13},{"PRN":15,"el":40,"az":301,"ss":28,"used":true,"gnssid":0,"svid":15},{"PRN":17,"el":2,"az":130,"ss":0,"used":false,"gnssid":0,"svid":17},{"PRN":18,"el":3,"az":326,"ss":0,"used":false,"gnssid":0,"svid":18},{"PRN":20,"el":44,"az":281,"ss":27,"used":true,"gnssid":0,"svid":20},{"PRN":21,"el":6,"az":304,"ss":0,"used":false,"gnssid":0,"svid":21},{"PRN":24,"el":9,"az":253,"ss":18,"used":false,"gnssid":0,"svid":24},{"PRN":28,"el":56,"az":86,"ss":34,"used":true,"gnssid":0,"svid":28},{"PRN":30,"el":37,"az":61,"ss":16,"used":true,"gnssid":0,"svid":30},{"PRN":120,"el":34,"az":209,"ss":0,"used":false,"gnssid":1,"svid":120},{"PRN":123,"el":32,"az":146,"ss":45,"used":true,"gnssid":1,"svid":123},{"PRN":124,"el":36,"az":158,"ss":0,"used":false,"gnssid":1,"svid":124},{"PRN":193,"el":-91,"az":0,"ss":0,"used":false,"gnssid":5,"svid":1},{"PRN":194,"el":-91,"az":0,"ss":0,"used":false,"gnssid":5,"svid":2},{"PRN":196,"el":-91,"az":0,"ss":0,"used":false,"gnssid":5,"svid":4},{"PRN":70,"el":48,"az":156,"ss":34,"used":false,"gnssid":6,"svid":6},{"PRN":71,"el":74,"az":307,"ss":17,"used":false,"gnssid":6,"svid":7},{"PRN":72,"el":22,"az":324,"ss":0,"used":false,"gnssid":6,"svid":8},{"PRN":73,"el":77,"az":253,"ss":32,"used":false,"gnssid":6,"svid":9},{"PRN":74,"el":21,"az":228,"ss":23,"used":false,"gnssid":6,"svid":10},{"PRN":80,"el":44,"az":37,"ss":26,"used":false,"gnssid":6,"svid":16},{"PRN":81,"el":7,"az":32,"ss":20,"used":false,"gnssid":6,"svid":17},{"PRN":88,"el":4,"az":346,"ss":0,"used":false,"gnssid":6,"svid":24}]}
$GPZDA,172324.00,01,12,2017,00,00*61
$GPGGA,172324,4513.1157,N,00548.4293,E,2,07,1.29,230.29,M,48.583,M,,*41
$GPRMC,172324,A,4513.1157,N,00548.4293,E,0.0275,184.103,011217,,*23
$GPGSA,A,2,5,7,13,15,20,28,30,,,,,,1.6,1.3,0.9*30
{"class":"TPV","status":2,"mode":2,"time":"2017-12-01T17:23:24.000Z","ept":0.005,"lat":45.218594634,"lon":5.807154171,"epx":2.840,"epy":4.246,"track":184.1028,"speed":0.014,"eps":0.03}
$GPZDA,172325.00,01,12,2017,00,00*60
$GPGGA,172325,4513.1157,N,00548.4292,E,2,07,1.29,230.29,M,48.583,M,,*41
$GPRMC,172325,A,4513.1157,N,00548.4292,E,0.0275,184.103,011217,,*23
$GPGSA,A,2,5,7,13,15,20,28,30,,,,,,1.6,1.3,0.9*30
{"class":"TPV","status":2,"mode":2,"time":"2017-12-01T17:23:25.000Z","ept":0.005,"lat":45.218594971,"lon":5.807153817,"epx":2.840,"epy":4.246,"track":184.1028,"speed":0.014,"eps":0.03}
$GPZDA,172326.00,01,12,2017,00,00*63
$GPGGA,172326,4513.1157,N,00548.4292,E,2,07,1.29,230.28,M,48.583,M,,*43
$GPRMC,172326,A,4513.1157,N,00548.4292,E,0.0275,184.103,011217,,*20
$GPGSA,A,2,5,7,13,15,20,28,30,,,,,,1.6,1.3,0.9*30
{"class":"TPV","status":2,"mode":2,"time":"2017-12-01T17:23:26.000Z","ept":0.005,"lat":45.218595295,"lon":5.807153729,"epx":2.840,"epy":4.246,"track":184.1028,"speed":0.014,"eps":0.03}
$GPZDA,172327.00,01,12,2017,00,00*62
$GPGGA,172327,4513.1157,N,00548.4292,E,2,07,1.29,230.30,M,48.583,M,,*4B
$GPRMC,172327,A,4513.1157,N,00548.4292,E,0.0275,184.103,011217,,*21
$GPGSA,A,2,5,7,13,15,20,28,30,,,,,,1.6,1.3,0.9*30
{"class":"TPV","status":2,"mode":2,"time":"2017-12-01T17:23:27.000Z","ept":0.005,"lat":45.218595555,"lon":5.807153615,"epx":2.840,"epy":4.246,"track":184.1028,"speed":0.014,"eps":0.03}
$GPZDA,172328.00,01,12,2017,00,00*6D
$GPGGA,172328,4513.1157,N,00548.4292,E,2,07,1.29,230.31,M,48.583,M,,*45
$GPRMC,172328,A,4513.1157,N,00548.4292,E,0.0275,184.103,011217,,*2E
$GPGSA,A,2,5,7,13,15,20,28,30,,,,,,1.6,1.3,0.9*30
{"class":"TPV","status":2,"mode":2,"time":"2017-12-01T17:23:28.000Z","ept":0.005,"lat":45.218595828,"lon":5.807153248,"epx":2.840,"epy":4.246,"track":184.1028,"speed":0.014,"eps":0.03}
$GPZDA,172329.00,01,12,2017,00,00*6C
$GPGGA,172329,4513.1158,N,00548.4292,E,2,07,1.29,230.32,M,48.583,M,,*48
$GPRMC,172329,A,4513.1158,N,00548.4292,E,0.0275,184.103,011217,,*20
$GPGSA,A,2,5,7,13,15,20,28,30,,,,,,1.6,1.3,0.9*30
{"class":"TPV","status":2,"mode":2,"time":"2017-12-01T17:23:29.000Z","ept":0.005,"lat":45.218596101,"lon":5.807152881,"epx":2.840,"epy":4.246,"track":184.1028,"speed":0.014,"eps":0.03}
$GPZDA,172330.00,01,12,2017,00,00*64
$GPGGA,172330,4513.1158,N,00548.4291,E,2,07,1.29,230.33,M,48.583,M,,*42
$GPRMC,172330,A,4513.1158,N,00548.4291,E,0.0275,184.103,011217,,*2B
$GPGSA,A,2,5,7,13,15,20,28,30,,,,,,1.6,1.3,0.9*30
{"class":"TPV","status":2,"mode":2,"time":"2017-12-01T17:23:30.000Z","ept":0.005,"lat":45.218596254,"lon":5.807152374,"epx":2.840,"epy":4.246,"track":184.1028,"speed":0.014,"eps":0.03}
$GPZDA,172331.00,01,12,2017,00,00*65
$GPGGA,172331,4513.1158,N,00548.4291,E,2,07,1.29,230.33,M,48.583,M,,*43
$GPRMC,172331,A,4513.1158,N,00548.4291,E,0.0275,184.103,011217,,*2A
$GPGSA,A,2,5,7,13,15,20,28,30,,,,,,1.6,1.3,0.9*30
{"class":"TPV","status":2,"mode":2,"time":"2017-12-01T17:23:31.000Z","ept":0.005,"lat":45.218596394,"lon":5.807152134,"epx":2.840,"epy":4.246,"track":184.1028,"speed":0.014,"eps":0.03}
$GPZDA,172332.00,01,12,2017,00,00*66
$GPGGA,172332,4513.1158,N,00548.4291,E,2,07,1.29,230.32,M,48.583,M,,*41
$GPRMC,172332,A,4513.1158,N,00548.4291,E,0.0275,184.103,011217,,*29
$GPGSA,A,2,5,7,13,15,20,28,30,,,,,,1.6,1.3,0.9*30
{"class":"TPV","status":2,"mode":2,"time":"2017-12-01T17:23:32.000Z","ept":0.005,"lat":45.218596590,"lon":5.807152033,"epx":2.840,"epy":4.246,"track":184.1028,"speed":0.014,"eps":0.03}
$GPZDA,172333.00,01,12,2017,00,00*67
$GPGGA,172333,4513.1158,N,00548.4291,E,2,07,1.29,230.32,M,48.583,M,,*40
$GPRMC,172333,A,4513.1158,N,00548.4291,E,0.0275,184.103,011217,,*28
$GPGSA,A,2,5,7,13,15,20,28,30,,,,,,1.6,1.3,0.9*30
{"class":"TPV","status":2,"mode":2,"time":"2017-12-01T17:23:33.000Z","ept":0.005,"lat":45.218596914,"lon":5.807151945,"epx":2.840,"epy":4.246,"track":184.1028,"speed":0.014,"eps":0.03}
$GPGSV,7,1,26,05,44,201,38,07,10,065,29,08,05,028,00,13,72,321,31*7A
$GPGSV,7,2,26,15,40,301,30,17,02,130,00,18,03,326,00,20,44,281,27*7E
$GPGSV,7,3,26,21,06,304,00,24,09,253,18,28,56,086,32,30,37,061,16*78
$GPGSV,7,4,26,120,34,209,00,123,32,146,44,124,36,158,00,193,-91,000,00*53
$GPGSV,7,5,26,194,-91,000,00,196,-91,000,00,70,48,156,33,71,74,307,21*76
$GPGSV,7,6,26,72,22,324,00,73,77,253,32,74,21,228,23,80,43,038,25*77
$GPGSV,7,7,26,81,07,032,21,88,04,346,00*74
{"class":"SKY","xdop":0.69,"ydop":0.82,"vdop":0.89,"tdop":0.73,"hdop":1.29,"gdop":1.73,"pdop":1.57,"satellites":[{"PRN":5,"el":44,"az":201,"ss":38,"used":true,"gnssid":0,"svid":5},{"PRN":7,"el":10,"az":65,"ss":29,"used":true,"gnssid":0,"svid":7},{"PRN":8,"el":5,"az":28,"ss":0,"used":false,"gnssid":0,"svid":8},{"PRN":13,"el":72,"az":321,"ss":31,"used":true,"gnssid":0,"svid":13},{"PRN":15,"el":40,"az":301,"ss":30,"used":true,"gnssid":0,"svid":15},{"PRN":17,"el":2,"az":130,"ss":0,"used":false,"gnssid":0,"svid":17},{"PRN":18,"el":3,"az":326,"ss":0,"used":false,"gnssid":0,"svid":18},{"PRN":20,"el":44,"az":281,"ss":27,"used":true,"gnssid":0,"svid":20},{"PRN":21,"el":6,"az":304,"ss":0,"used":false,"gnssid":0,"svid":21},{"PRN":24,"el":9,"az":253,"ss":18,"used":false,"gnssid":0,"svid":24},{"PRN":28,"el":56,"az":86,"ss":32,"used":true,"gnssid":0,"svid":28},{"PRN":30,"el":37,"az":61,"ss":16,"used":true,"gnssid":0,"svid":30},{"PRN":120,"el":34,"az":209,"ss":0,"used":false,"gnssid":1,"svid":120},{"PRN":123,"el":32,"az":146,"ss":44,"used":true,"gnssid":1,"svid":123},{"PRN":124,"el":36,"az":158,"ss":0,"used":false,"gnssid":1,"svid":124},{"PRN":193,"el":-91,"az":0,"ss":0,"used":false,"gnssid":5,"svid":1},{"PRN":194,"el":-91,"az":0,"ss":0,"used":false,"gnssid":5,"svid":2},{"PRN":196,"el":-91,"az":0,"ss":0,"used":false,"gnssid":5,"svid":4},{"PRN":70,"el":48,"az":156,"ss":33,"used":false,"gnssid":6,"svid":6},{"PRN":71,"el":74,"az":307,"ss":21,"used":false,"gnssid":6,"svid":7},{"PRN":72,"el":22,"az":324,"ss":0,"used":false,"gnssid":6,"svid":8},{"PRN":73,"el":77,"az":253,"ss":32,"used":false,"gnssid":6,"svid":9},{"PRN":74,"el":21,"az":228,"ss":23,"used":false,"gnssid":6,"svid":10},{"PRN":80,"el":43,"az":38,"ss":25,"used":false,"gnssid":6,"svid":16},{"PRN":81,"el":7,"az":32,"ss":21,"used":false,"gnssid":6,"svid":17},{"PRN":88,"el":4,"az":346,"ss":0,"used":false,"gnssid":6,"svid":24}]}
$GPZDA,172334.00,01,12,2017,00,00*60
$GPGGA,172334,4513.1158,N,00548.4291,E,2,07,1.29,230.32,M,48.583,M,,*47
$GPRMC,172334,A,4513.1158,N,00548.4291,E,0.0000,0.000,011217,,*20
$GPGSA,A,2,5,7,13,15,20,28,30,,,,,,1.6,1.3,0.9*30
{"class":"TPV","status":2,"mode":2,"time":"2017-12-01T17:23:34.000Z","ept":0.005,"lat":45.218597244,"lon":5.807151717,"epx":2.840,"epy":4.246,"track":0.0000,"speed":0.000,"eps":0.03}
$GPZDA,172335.00,01,12,2017,00,00*61
$GPGGA,172335,4513.1158,N,00548.4291,E,2,07,1.29,230.32,M,48.583,M,,*46
$GPRMC,172335,A,4513.1158,N,00548.4291,E,0.0000,0.000,011217,,*21
$GPGSA,A,2,5,7,13,15,20,28,30,,,,,,1.6,1.3,0.9*30
{"class":"TPV","status":2,"mode":2,"time":"2017-12-01T17:23:35.000Z","ept":0.005,"lat":45.218597251,"lon":5.807151591,"epx":2.840,"epy":4.246,"track":0.0000,"speed":0.000,"eps":0.03}
$GPZDA,172336.00,01,12,2017,00,00*62
$GPGGA,172336,4513.1158,N,00548.4291,E,2,07,1.29,230.32,M,48.583,M,,*45
$GPRMC,172336,A,4513.1158,N,00548.4291,E,0.0000,0.000,011217,,*22
$GPGSA,A,2,5,7,13,15,20,28,30,,,,,,1.6,1.3,0.9*30
{"class":"TPV","status":2,"mode":2,"time":"2017-12-01T17:23:36.000Z","ept":0.005,"lat":45.218597397,"lon":5.807151224,"epx":2.840,"epy":4.246,"track":0.0000,"speed":0.000,"eps":0.03}
$GPZDA,172337.00,01,12,2017,00,00*63
$GPGGA,172337,4513.1159,N,00548.4291,E,2,07,1.29,230.33,M,48.583,M,,*44
$GPRMC,172337,A,4513.1159,N,00548.4291,E,0.0000,0.000,011217,,*22
$GPGSA,A,2,5,7,13,15,20,28,30,,,,,,1.6,1.3,0.9*30
{"class":"TPV","status":2,"mode":2,"time":"2017-12-01T17:23:37.000Z","ept":0.005,"lat":45.218597581,"lon":5.807151363,"epx":2.840,"epy":4.246,"track":0.0000,"speed":0.000,"eps":0.03}
$GPZDA,172338.00,01,12,2017,00,00*6C
$GPGGA,172338,4513.1158,N,00548.4291,E,2,07,1.29,230.33,M,48.583,M,,*4A
$GPRMC,172338,A,4513.1158,N,00548.4291,E,0.0000,0.000,011217,,*2C
$GPGSA,A,2,5,7,13,15,20,28,30,,,,,,1.6,1.3,0.9*30
{"class":"TPV","status":2,"mode":2,"time":"2017-12-01T17:23:38.000Z","ept":0.005,"lat":45.218597467,"lon":5.807151097,"epx":2.840,"epy":4.246,"track":0.0000,"speed":0.000,"eps":0.03}
$GPZDA,172339.00,01,12,2017,00,00*6D
$GPGGA,172339,4513.1158,N,00548.4291,E,2,07,1.29,230.33,M,48.583,M,,*4B
$GPRMC,172339,A,4513.1158,N,00548.4291,E,0.0000,0.000,011217,,*2D
$GPGSA,A,2,5,7,13,15,20,28,30,,,,,,1.6,1.3,0.9*30
{"class":"TPV","status":2,"mode":2,"time":"2017-12-01T17:23:39.000Z","ept":0.005,"lat":45.218597334,"lon":5.807151211,"epx":2.840,"epy":4.246,"track":0.0000,"speed":0.000,"eps":0.03}
$GPZDA,172340.00,01,12,2017,00,00*63
$GPGGA,172340,4513.1158,N,00548.4291,E,2,07,1.29,230.32,M,48.583,M,,*44
$GPRMC,172340,A,4513.1158,N,00548.4291,E,0.0000,0.000,011217,,*23
$GPGSA,A,2,5,7,13,15,20,28,30,,,,,,1.6,1.3,0.9*30
{"class":"TPV","status":2,"mode":2,"time":"2017-12-01T17:23:40.000Z","ept":0.005,"lat":45.218597264,"lon":5.807151337,"epx":2.840,"epy":4.246,"track":0.0000,"speed":0.000,"eps":0.03}
$GPZDA,172341.00,01,12,2017,00,00*62
$GPGGA,172341,4513.1158,N,00548.4291,E,2,07,1.29,230.33,M,48.583,M,,*44
$GPRMC,172341,A,4513.1158,N,00548.4291,E,0.0000,0.000,011217,,*22
$GPGSA,A,2,5,7,13,15,20,28,30,,,,,,1.6,1.3,0.9*30
{"class":"TPV","status":2,"mode":2,"time":"2017-12-01T17:23:41.000Z","ept":0.005,"lat":45.218597334,"lon":5.807151211,"epx":2.840,"epy":4.246,"track":0.0000,"speed":0.000,"eps":0.03}
$GPZDA,172342.00,01,12,2017,00,00*61
$GPGGA,172342,4513.1158,N,00548.4291,E,2,07,1.29,230.33,M,48.583,M,,*47
$GPRMC,172342,A,4513.1158,N,00548.4291,E,0.0000,0.000,011217,,*21
$GPGSA,A,2,5,7,13,15,20,28,30,,,,,,1.6,1.3,0.9*30
{"class":"TPV","status":2,"mode":2,"time":"2017-12-01T17:23:42.000Z","ept":0.005,"lat":45.218597187,"lon":5.807151578,"epx":2.840,"epy":4.246,"track":0.0000,"speed":0.000,"eps":0.03}
$GPZDA,172343.00,01,12,2017,00,00*60
$GPGGA,172343,4513.1158,N,00548.4291,E,2,07,1.29,230.33,M,48.583,M,,*46
$GPRMC,172343,A,4513.1158,N,00548.4291,E,0.0000,0.000,011217,,*20
$GPGSA,A,2,5,7,13,15,20,28,30,,,,,,1.6,1.3,0.9*30
{"class":"TPV","status":2,"mode":2,"time":"2017-12-01T17:23:43.000Z","ept":0.005,"lat":45.218596914,"lon":5.807151932,"epx":2.840,"epy":4.246,"track":0.0000,"speed":0.000,"eps":0.03}
$GPGSV,7,1,26,05,44,201,38,07,10,065,30,08,04,028,00,13,72,321,31*73
$GPGSV,7,2,26,15,40,301,31,17,02,130,00,18,03,326,00,20,44,281,28*70
$GPGSV,7,3,26,21,06,304,00,24,09,253,19,28,56,086,31,30,37,061,21*7E
$GPGSV,7,4,26,120,34,209,00,123,32,146,44,124,36,158,00,193,-91,000,00*53
$GPGSV,7,5,26,194,-91,000,00,196,-91,000,00,70,48,156,32,71,74,307,24*72
$GPGSV,7,6,26,72,22,324,00,73,77,253,31,74,21,228,23,80,43,038,26*77
$GPGSV,7,7,26,81,07,032,19,88,04,346,00*7F
{"class":"SKY","xdop":0.69,"ydop":0.82,"vdop":0.89,"tdop":0.73,"hdop":1.29,"gdop":1.73,"pdop":1.57,"satellites":[{"PRN":5,"el":44,"az":201,"ss":38,"used":true,"gnssid":0,"svid":5},{"PRN":7,"el":10,"az":65,"ss":30,"used":true,"gnssid":0,"svid":7},{"PRN":8,"el":4,"az":28,"ss":0,"used":false,"gnssid":0,"svid":8},{"PRN":13,"el":72,"az":321,"ss":31,"used":true,"gnssid":0,"svid":13},{"PRN":15,"el":40,"az":301,"ss":31,"used":true,"gnssid":0,"svid":15},{"PRN":17,"el":2,"az":130,"ss":0,"used":false,"gnssid":0,"svid":17},{"PRN":18,"el":3,"az":326,"ss":0,"used":false,"gnssid":0,"svid":18},{"PRN":20,"el":44,"az":281,"ss":28,"used":true,"gnssid":0,"svid":20},{"PRN":21,"el":6,"az":304,"ss":0,"used":false,"gnssid":0,"svid":21},{"PRN":24,"el":9,"az":253,"ss":19,"used":false,"gnssid":0,"svid":24},{"PRN":28,"el":56,"az":86,"ss":31,"used":true,"gnssid":0,"svid":28},{"PRN":30,"el":37,"az":61,"ss":21,"used":true,"gnssid":0,"svid":30},{"PRN":120,"el":34,"az":209,"ss":0,"used":false,"gnssid":1,"svid":120},{"PRN":123,"el":32,"az":146,"ss":44,"used":true,"gnssid":1,"svid":123},{"PRN":124,"el":36,"az":158,"ss":0,"used":false,"gnssid":1,"svid":124},{"PRN":193,"el":-91,"az":0,"ss":0,"used":false,"gnssid":5,"svid":1},{"PRN":194,"el":-91,"az":0,"ss":0,"used":false,"gnssid":5,"svid":2},{"PRN":196,"el":-91,"az":0,"ss":0,"used":false,"gnssid":5,"svid":4},{"PRN":70,"el":48,"az":156,"ss":32,"used":false,"gnssid":6,"svid":6},{"PRN":71,"el":74,"az":307,"ss":24,"used":false,"gnssid":6,"svid":7},{"PRN":72,"el":22,"az":324,"ss":0,"used":false,"gnssid":6,"svid":8},{"PRN":73,"el":77,"az":253,"ss":31,"used":false,"gnssid":6,"svid":9},{"PRN":74,"el":21,"az":228,"ss":23,"used":false,"gnssid":6,"svid":10},{"PRN":80,"el":43,"az":38,"ss":26,"used":false,"gnssid":6,"svid":16},{"PRN":81,"el":7,"az":32,"ss":19,"used":false,"gnssid":6,"svid":17},{"PRN":88,"el":4,"az":346,"ss":0,"used":false,"gnssid":6,"svid":24}]}
$GPZDA,172344.00,01,12,2017,00,00*67
$GPGGA,172344,4513.1158,N,00548.4291,E,2,07,1.29,230.32,M,48.583,M,,*40
$GPRMC,172344,A,4513.1158,N,00548.4291,E,0.0137,180.000,011217,,*2B
$GPGSA,A,2,5,7,13,15,20,28,30,,,,,,1.6,1.3,0.9*30
{"class":"TPV","status":2,"mode":2,"time":"2017-12-01T17:23:44.000Z","ept":0.005,"lat":45.218596635,"lon":5.807152426,"epx":2.840,"epy":4.246,"track":180.0000,"speed":0.007,"eps":0.03}
$GPZDA,172345.00,01,12,2017,00,00*66
$GPGGA,172345,4513.1158,N,00548.4292,E,2,07,1.29,230.32,M,48.583,M,,*42
$GPRMC,172345,A,4513.1158,N,00548.4292,E,0.0000,0.000,011217,,*25
$GPGSA,A,2,5,7,13,15,20,28,30,,,,,,1.6,1.3,0.9*30
{"class":"TPV","status":2,"mode":2,"time":"2017-12-01T17:23:45.000Z","ept":0.005,"lat":45.218596736,"lon":5.807152945,"epx":2.840,"epy":4.246,"track":0.0000,"speed":0.000,"eps":0.03}
$GPZDA,172346.00,01,12,2017,00,00*65
$GPGGA,172346,4513.1158,N,00548.4292,E,2,07,1.29,230.32,M,48.583,M,,*41
$GPRMC,172346,A,4513.1158,N,00548.4292,E,0.0000,0.000,011217,,*26
$GPGSA,A,2,5,7,13,15,20,28,30,,,,,,1.6,1.3,0.9*30
{"class":"TPV","status":2,"mode":2,"time":"2017-12-01T17:23:46.000Z","ept":0.005,"lat":45.218596703,"lon":5.807153578,"epx":2.840,"epy":4.246,"track":0.0000,"speed":0.000,"eps":0.03}
$GPZDA,172347.00,01,12,2017,00,00*64
$GPGGA,172347,4513.1158,N,00548.4293,E,2,07,1.29,230.33,M,48.583,M,,*40
$GPRMC,172347,A,4513.1158,N,00548.4293,E,0.0000,0.000,011217,,*26
$GPGSA,A,2,5,7,13,15,20,28,30,,,,,,1.6,1.3,0.9*30
{"class":"TPV","status":2,"mode":2,"time":"2017-12-01T17:23:47.000Z","ept":0.005,"lat":45.218596665,"lon":5.807154338,"epx":2.840,"epy":4.246,"track":0.0000,"speed":0.000,"eps":0.03}
$GPZDA,172348.00,01,12,2017,00,00*6B
$GPGGA,172348,4513.1158,N,00548.4293,E,2,07,1.29,230.33,M,48.583,M,,*4F
$GPRMC,172348,A,4513.1158,N,00548.4293,E,0.0000,0.000,011217,,*29
$GPGSA,A,2,5,7,13,15,20,28,30,,,,,,1.6,1.3,0.9*30
{"class":"TPV","status":2,"mode":2,"time":"2017-12-01T17:23:48.000Z","ept":0.005,"lat":45.218596518,"lon":5.807154705,"epx":2.840,"epy":4.246,"track":0.0000,"speed":0.000,"eps":0.03}
$GPZDA,172349.00,01,12,2017,00,00*6A
$GPGGA,172349,4513.1158,N,00548.4293,E,2,07,1.29,230.33,M,48.583,M,,*4E
$GPRMC,172349,A,4513.1158,N,00548.4293,E,0.0137,180.000,011217,,*24
$GPGSA,A,2,5,7,13,15,20,28,30,,,,,,1.6,1.3,0.9*30
{"class":"TPV","status":2,"mode":2,"time":"2017-12-01T17:23:49.000Z","ept":0.005,"lat":45.218596372,"lon":5.807155073,"epx":2.840,"epy":4.246,"track":180.0000,"speed":0.007,"eps":0.03}
$GPZDA,172350.00,01,12,2017,00,00*62
$GPGGA,172350,4513.1158,N,00548.4293,E,2,07,1.29,230.34,M,48.583,M,,*41
$GPRMC,172350,A,4513.1158,N,00548.4293,E,0.0137,180.000,011217,,*2C
$GPGSA,A,2,5,7,13,15,20,28,30,,,,,,1.6,1.3,0.9*30
{"class":"TPV","status":2,"mode":2,"time":"2017-12-01T17:23:50.000Z","ept":0.005,"lat":45.218596270,"lon":5.807155820,"epx":2.840,"epy":4.246,"track":180.0000,"speed":0.007,"eps":0.03}
$GPZDA,172351.00,01,12,2017,00,00*63
$GPGGA,172351,4513.1158,N,00548.4294,E,2,07,1.29,230.34,M,48.583,M,,*47
$GPRMC,172351,A,4513.1158,N,00548.4294,E,0.0137,180.000,011217,,*2A
$GPGSA,A,2,5,7,13,15,20,28,30,,,,,,1.6,1.3,0.9*30
{"class":"TPV","status":2,"mode":2,"time":"2017-12-01T17:23:51.000Z","ept":0.005,"lat":45.218596041,"lon":5.807156567,"epx":2.840,"epy":4.246,"track":180.0000,"speed":0.007,"eps":0.03}
$GPZDA,172352.00,01,12,2017,00,00*60
$GPGGA,172352,4513.1157,N,00548.4294,E,2,07,1.29,230.34,M,48.583,M,,*4B
$GPRMC,172352,A,4513.1157,N,00548.4294,E,0.0137,180.000,011217,,*26
$GPGSA,A,2,5,7,13,15,20,28,30,,,,,,1.6,1.3,0.9*30
{"class":"TPV","status":2,"mode":2,"time":"2017-12-01T17:23:52.000Z","ept":0.005,"lat":45.218595812,"lon":5.807157314,"epx":2.840,"epy":4.246,"track":180.0000,"speed":0.007,"eps":0.03}
$GPZDA,172353.00,01,12,2017,00,00*61
$GPGGA,172353,4513.1157,N,00548.4295,E,2,07,1.29,230.34,M,48.583,M,,*4B
$GPRMC,172353,A,4513.1157,N,00548.4295,E,0.0245,127.962,011217,,*20
$GPGSA,A,2,5,7,13,15,20,28,30,,,,,,1.6,1.3,0.9*30
{"class":"TPV","status":2,"mode":2,"time":"2017-12-01T17:23:53.000Z","ept":0.005,"lat":45.218595773,"lon":5.807158074,"epx":2.840,"epy":4.246,"track":127.9623,"speed":0.013,"eps":0.03}
$GPGSV,7,1,26,05,44,201,37,07,10,065,31,08,04,028,00,13,72,321,31*7D
$GPGSV,7,2,26,15,40,301,32,17,02,130,00,18,03,326,00,20,44,280,26*7C
$GPGSV,7,3,26,21,06,304,00,24,09,253,19,28,56,086,29,30,37,061,23*75
$GPGSV,7,4,26,120,34,209,00,123,32,146,44,124,36,158,00,193,-91,000,00*53
$GPGSV,7,5,26,194,-91,000,00,197,-91,000,00,70,48,156,32,71,74,307,25*72
$GPGSV,7,6,26,72,22,324,00,73,77,253,29,74,21,228,23,80,43,038,26*7E
$GPGSV,7,7,26,81,07,032,21,88,04,346,00*74
{"class":"SKY","xdop":0.69,"ydop":0.82,"vdop":0.89,"tdop":0.73,"hdop":1.29,"gdop":1.73,"pdop":1.57,"satellites":[{"PRN":5,"el":44,"az":201,"ss":37,"used":true,"gnssid":0,"svid":5},{"PRN":7,"el":10,"az":65,"ss":31,"used":true,"gnssid":0,"svid":7},{"PRN":8,"el":4,"az":28,"ss":0,"used":false,"gnssid":0,"svid":8},{"PRN":13,"el":72,"az":321,"ss":31,"used":true,"gnssid":0,"svid":13},{"PRN":15,"el":40,"az":301,"ss":32,"used":true,"gnssid":0,"svid":15},{"PRN":17,"el":2,"az":130,"ss":0,"used":false,"gnssid":0,"svid":17},{"PRN":18,"el":3,"az":326,"ss":0,"used":false,"gnssid":0,"svid":18},{"PRN":20,"el":44,"az":280,"ss":26,"used":true,"gnssid":0,"svid":20},{"PRN":21,"el":6,"az":304,"ss":0,"used":false,"gnssid":0,"svid":21},{"PRN":24,"el":9,"az":253,"ss":19,"used":false,"gnssid":0,"svid":24},{"PRN":28,"el":56,"az":86,"ss":29,"used":true,"gnssid":0,"svid":28},{"PRN":30,"el":37,"az":61,"ss":23,"used":true,"gnssid":0,"svid":30},{"PRN":120,"el":34,"az":209,"ss":0,"used":false,"gnssid":1,"svid":120},{"PRN":123,"el":32,"az":146,"ss":44,"used":true,"gnssid":1,"svid":123},{"PRN":124,"el":36,"az":158,"ss":0,"used":false,"gnssid":1,"svid":124},{"PRN":193,"el":-91,"az":0,"ss":0,"used":false,"gnssid":5,"svid":1},{"PRN":194,"el":-91,"az":0,"ss":0,"used":false,"gnssid":5,"svid":2},{"PRN":197,"el":-91,"az":0,"ss":0,"used":false,"gnssid":5,"svid":5},{"PRN":70,"el":48,"az":156,"ss":32,"used":false,"gnssid":6,"svid":6},{"PRN":71,"el":74,"az":307,"ss":25,"used":false,"gnssid":6,"svid":7},{"PRN":72,"el":22,"az":324,"ss":0,"used":false,"gnssid":6,"svid":8},{"PRN":73,"el":77,"az":253,"ss":29,"used":false,"gnssid":6,"svid":9},{"PRN":74,"el":21,"az":228,"ss":23,"used":false,"gnssid":6,"svid":10},{"PRN":80,"el":43,"az":38,"ss":26,"used":false,"gnssid":6,"svid":16},{"PRN":81,"el":7,"az":32,"ss":21,"used":false,"gnssid":6,"svid":17},{"PRN":88,"el":4,"az":346,"ss":0,"used":false,"gnssid":6,"svid":24}]}
$GPZDA,172354.00,01,12,2017,00,00*66
$GPGGA,172354,4513.1157,N,00548.4295,E,2,07,1.29,230.34,M,48.583,M,,*4C
$GPRMC,172354,A,4513.1157,N,00548.4295,E,0.0336,148.915,011217,,*2B
$GPGSA,A,2,5,7,13,15,20,28,30,,,,,,1.6,1.3,0.9*30
{"class":"TPV","status":2,"mode":2,"time":"2017-12-01T17:23:54.000Z","ept":0.005,"lat":45.218595296,"lon":5.807158668,"epx":2.840,"epy":4.246,"track":148.9153,"speed":0.017,"eps":0.03}
$GPZDA,172355.00,01,12,2017,00,00*67
$GPGGA,172355,4513.1157,N,00548.4295,E,2,07,1.29,230.33,M,48.583,M,,*4A
$GPRMC,172355,A,4513.1157,N,00548.4295,E,0.0336,148.915,011217,,*2A
$GPGSA,A,2,5,7,13,15,20,28,30,,,,,,1.6,1.3,0.9*30
{"class":"TPV","status":2,"mode":2,"time":"2017-12-01T17:23:55.000Z","ept":0.005,"lat":45.218594960,"lon":5.807159022,"epx":2.840,"epy":4.246,"track":148.9153,"speed":0.017,"eps":0.03}
$GPZDA,172356.00,01,12,2017,00,00*64
$GPGGA,172356,4513.1157,N,00548.4296,E,2,07,1.29,230.33,M,48.583,M,,*4A
$GPRMC,172356,A,4513.1157,N,00548.4296,E,0.0336,148.915,011217,,*2A
$GPGSA,A,2,5,7,13,15,20,28,30,,,,,,1.6,1.3,0.9*30
{"class":"TPV","status":2,"mode":2,"time":"2017-12-01T17:23:56.000Z","ept":0.005,"lat":45.218594623,"lon":5.807159377,"epx":2.840,"epy":4.246,"track":148.9153,"speed":0.017,"eps":0.03}
$GPZDA,172357.00,01,12,2017,00,00*65
$GPGGA,172357,4513.1156,N,00548.4296,E,2,07,1.29,230.34,M,48.583,M,,*4D
$GPRMC,172357,A,4513.1156,N,00548.4296,E,0.0336,148.915,011217,,*2A
$GPGSA,A,2,5,7,13,15,20,28,30,,,,,,1.6,1.3,0.9*30
{"class":"TPV","status":2,"mode":2,"time":"2017-12-01T17:23:57.000Z","ept":0.005,"lat":45.218594160,"lon":5.807159705,"epx":2.840,"epy":4.246,"track":148.9153,"speed":0.017,"eps":0.03}
$GPZDA,172358.00,01,12,2017,00,00*6A
$GPGGA,172358,4513.1156,N,00548.4296,E,2,07,1.29,230.33,M,48.583,M,,*45
$GPRMC,172358,A,4513.1156,N,00548.4296,E,0.0336,148.915,011217,,*25
$GPGSA,A,2,5,7,13,15,20,28,30,,,,,,1.6,1.3,0.9*30
{"class":"TPV","status":2,"mode":2,"time":"2017-12-01T17:23:58.000Z","ept":0.005,"lat":45.218593702,"lon":5.807159920,"epx":2.840,"epy":4.246,"track":148.9153,"speed":0.017,"eps":0.03}
$GPZDA,172359.00,01,12,2017,00,00*6B
$GPGGA,172359,4513.1156,N,00548.4296,E,2,07,1.29,230.33,M,48.583,M,,*44
$GPRMC,172359,A,4513.1156,N,00548.4296,E,0.0336,148.915,011217,,*24
$GPGSA,A,2,5,7,13,15,20,28,30,,,,,,1.6,1.3,0.9*30
{"class":"TPV","status":2,"mode":2,"time":"2017-12-01T17:23:59.000Z","ept":0.005,"lat":45.218593182,"lon":5.807160122,"epx":2.840,"epy":4.246,"track":148.9153,"speed":0.017,"eps":0.03}
$GPZDA,172400.00,01,12,2017,00,00*60
$GPGGA,172400,4513.1156,N,00548.4296,E,2,07,1.29,230.33,M,48.583,M,,*4F
$GPRMC,172400,A,4513.1156,N,00548.4296,E,0.0336,148.915,011217,,*2F
$GPGSA,A,2,5,7,13,15,20,28,30,,,,,,1.6,1.3,0.9*30
{"class":"TPV","status":2,"mode":2,"time":"2017-12-01T17:24:00.000Z","ept":0.005,"lat":45.218592788,"lon":5.807160336,"epx":2.840,"epy":4.246,"track":148.9153,"speed":0.017,"eps":0.03}
$GPZDA,172401.00,01,12,2017,00,00*61
$GPGGA,172401,4513.1155,N,00548.4296,E,2,07,1.29,230.33,M,48.583,M,,*4D
$GPRMC,172401,A,4513.1155,N,00548.4296,E,0.0336,148.915,011217,,*2D
$GPGSA,A,2,5,7,13,15,20,28,30,,,,,,1.6,1.3,0.9*30
{"class":"TPV","status":2,"mode":2,"time":"2017-12-01T17:24:01.000Z","ept":0.005,"lat":45.218592211,"lon":5.807160411,"epx":2.840,"epy":4.246,"track":148.9153,"speed":0.017,"eps":0.03}
$GPZDA,172402.00,01,12,2017,00,00*62
$GPGGA,172402,4513.1155,N,00548.4296,E,2,07,1.29,230.33,M,48.583,M,,*4E
$GPRMC,172402,A,4513.1155,N,00548.4296,E,0.0336,148.915,011217,,*2E
$GPGSA,A,2,5,7,13,15,20,28,30,,,,,,1.6,1.3,0.9*30
{"class":"TPV","status":2,"mode":2,"time":"2017-12-01T17:24:02.000Z","ept":0.005,"lat":45.218591817,"lon":5.807160626,"epx":2.840,"epy":4.246,"track":148.9153,"speed":0.017,"eps":0.03}
$GPZDA,172403.00,01,12,2017,00,00*63
$GPGGA,172403,4513.1155,N,00548.4296,E,2,07,1.29,230.33,M,48.583,M,,*4F
$GPRMC,172403,A,4513.1155,N,00548.4296,E,0.0336,148.915,011217,,*2F
$GPGSA,A,2,5,7,13,15,20,28,30,,,,,,1.6,1.3,0.9*30
{"class":"TPV","status":2,"mode":2,"time":"2017-12-01T17:24:03.000Z","ept":0.005,"lat":45.218591309,"lon":5.807160574,"epx":2.840,"epy":4.246,"track":148.9153,"speed":0.017,"eps":0.03}
$GPGSV,7,1,26,05,44,201,37,07,10,065,31,08,04,028,00,13,72,321,31*7D
$GPGSV,7,2,26,15,40,301,33,17,02,130,00,18,03,326,00,20,44,280,22*79
$GPGSV,7,3,26,21,06,304,00,24,09,253,15,28,56,085,29,30,37,061,25*7C
$GPGSV,7,4,26,120,34,209,00,123,32,146,44,124,36,158,00,193,-91,000,00*53
$GPGSV,7,5,26,194,-91,000,00,197,-91,000,00,70,48,156,30,71,74,307,26*73
$GPGSV,7,6,26,72,22,324,00,73,77,253,29,74,21,228,25,80,43,038,26*78
$GPGSV,7,7,26,81,07,032,22,88,04,346,00*77
{"class":"SKY","xdop":0.69,"ydop":0.82,"vdop":0.89,"tdop":0.73,"hdop":1.29,"gdop":1.73,"pdop":1.57,"satellites":[{"PRN":5,"el":44,"az":201,"ss":37,"used":true,"gnssid":0,"svid":5},{"PRN":7,"el":10,"az":65,"ss":31,"used":true,"gnssid":0,"svid":7},{"PRN":8,"el":4,"az":28,"ss":0,"used":false,"gnssid":0,"svid":8},{"PRN":13,"el":72,"az":321,"ss":31,"used":true,"gnssid":0,"svid":13},{"PRN":15,"el":40,"az":301,"ss":33,"used":true,"gnssid":0,"svid":15},{"PRN":17,"el":2,"az":130,"ss":0,"used":false,"gnssid":0,"svid":17},{"PRN":18,"el":3,"az":326,"ss":0,"used":false,"gnssid":0,"svid":18},{"PRN":20,"el":44,"az":280,"ss":22,"used":true,"gnssid":0,"svid":20},{"PRN":21,"el":6,"az":304,"ss":0,"used":false,"gnssid":0,"svid":21},{"PRN":24,"el":9,"az":253,"ss":15,"used":false,"gnssid":0,"svid":24},{"PRN":28,"el":56,"az":85,"ss":29,"used":true,"gnssid":0,"svid":28},{"PRN":30,"el":37,"az":61,"ss":25,"used":true,"gnssid":0,"svid":30},{"PRN":120,"el":34,"az":209,"ss":0,"used":false,"gnssid":1,"svid":120},{"PRN":123,"el":32,"az":146,"ss":44,"used":true,"gnssid":1,"svid":123},{"PRN":124,"el":36,"az":158,"ss":0,"used":false,"gnssid":1,"svid":124},{"PRN":193,"el":-91,"az":0,"ss":0,"used":false,"gnssid":5,"svid":1},{"PRN":194,"el":-91,"az":0,"ss":0,"used":false,"gnssid":5,"svid":2},{"PRN":197,"el":-91,"az":0,"ss":0,"used":false,"gnssid":5,"svid":5},{"PRN":70,"el":48,"az":156,"ss":30,"used":false,"gnssid":6,"svid":6},{"PRN":71,"el":74,"az":307,"ss":26,"used":false,"gnssid":6,"svid":7},{"PRN":72,"el":22,"az":324,"ss":0,"used":false,"gnssid":6,"svid":8},{"PRN":73,"el":77,"az":253,"ss":29,"used":false,"gnssid":6,"svid":9},{"PRN":74,"el":21,"az":228,"ss":25,"used":false,"gnssid":6,"svid":10},{"PRN":80,"el":43,"az":38,"ss":26,"used":false,"gnssid":6,"svid":16},{"PRN":81,"el":7,"az":32,"ss":22,"used":false,"gnssid":6,"svid":17},{"PRN":88,"el":4,"az":346,"ss":0,"used":false,"gnssid":6,"svid":24}]}
$GPZDA,172404.00,01,12,2017,00,00*64
$GPGGA,172404,4513.1154,N,00548.4296,E,2,07,1.29,230.33,M,48.583,M,,*49
$GPRMC,172404,A,4513.1154,N,00548.4296,E,0.0336,148.915,011217,,*29
$GPGSA,A,2,5,7,13,15,20,28,30,,,,,,1.6,1.3,0.9*30
{"class":"TPV","status":2,"mode":2,"time":"2017-12-01T17:24:04.000Z","ept":0.005,"lat":45.218590802,"lon":5.807160523,"epx":2.840,"epy":4.246,"track":148.9153,"speed":0.017,"eps":0.03}
$GPZDA,172405.00,01,12,2017,00,00*65
$GPGGA,172405,4513.1154,N,00548.4296,E,2,07,1.29,230.32,M,48.583,M,,*49
$GPRMC,172405,A,4513.1154,N,00548.4296,E,0.0336,148.915,011217,,*28
$GPGSA,A,2,5,7,13,15,20,28,30,,,,,,1.6,1.3,0.9*30
{"class":"TPV","status":2,"mode":2,"time":"2017-12-01T17:24:05.000Z","ept":0.005,"lat":45.218590104,"lon":5.807160459,"epx":2.840,"epy":4.246,"track":148.9153,"speed":0.017,"eps":0.03}
