# Name: ZED-F9P NMEA
# Chipset: u-blox  ZED-F9P, firmware hpg1.11
# Submitter: Luke Reid <luke@geocam.xyz>
# Date: 2019-April 12
# Location: 45.877591500S 170.500124833E
#           Dunedin, New Zealand
#
# Note: NMEA Only
#
# This file is Copyright (c) 2010 by the GPSD project
# BSD terms apply: see the file COPYING in the distribution root for details.
#
$GNRMC,003956.00,A,4552.65403,S,17030.00668,E,0.025,,120419,,,A,V*07
$GNVTG,,T,,M,0.025,N,0.045,K,A*3B
$GNGGA,003956.00,4552.65403,S,17030.00668,E,1,12,0.64,14.2,M,1.8,M,,*56
$GNGSA,A,3,13,16,21,15,10,29,27,20,,,,,1.05,0.64,0.83,1*03
$GNGSA,A,3,82,66,81,,,,,,,,,,1.05,0.64,0.83,2*0C
$GNGSA,A,3,07,12,33,,,,,,,,,,1.05,0.64,0.83,3*0A
$GNGSA,A,3,13,12,22,19,08,21,,,,,,,1.05,0.64,0.83,4*0B
$GPGSV,3,1,12,05,06,110,19,10,24,284,34,13,37,124,29,15,63,083,11,1*60
$GPGSV,3,2,12,16,11,248,10,20,52,273,34,21,79,231,30,24,07,045,,1*64
$GPGSV,3,3,12,26,04,276,,27,15,218,31,29,24,004,13,30,00,159,,1*69
$GPGSV,3,1,12,05,06,110,,10,24,284,,13,37,124,,15,63,083,,6*63
$GPGSV,3,2,12,16,11,248,,20,52,273,,21,79,231,,24,07,045,,6*66
$GPGSV,3,3,12,26,04,276,,27,15,218,29,29,24,004,,30,00,159,,6*65
$GLGSV,3,1,10,65,53,144,,66,58,305,32,67,06,313,,72,09,137,,1*7A
$GLGSV,3,2,10,73,06,174,,74,05,132,,81,64,223,35,82,13,214,33,1*7F
$GLGSV,3,3,10,87,14,030,17,88,62,024,,1*74
$GLGSV,3,1,10,65,53,144,,66,58,305,32,67,06,313,,72,09,137,,3*78
$GLGSV,3,2,10,73,06,174,,74,05,132,,81,64,223,35,82,13,214,34,3*7A
$GLGSV,3,3,10,87,14,030,,88,62,024,,3*70
$GAGSV,3,1,09,02,00,179,,04,09,322,,07,11,134,11,11,09,227,,7*74
$GAGSV,3,2,09,12,61,237,31,18,50,265,32,19,63,342,,26,11,044,,7*7B
$GAGSV,3,3,09,33,62,034,08,7*41
$GAGSV,3,1,09,02,00,179,,04,09,322,,07,11,134,,11,09,227,,2*71
$GAGSV,3,2,09,12,61,237,35,18,50,265,31,19,63,342,,26,11,044,,2*79
$GAGSV,3,3,09,33,62,034,,2*4C
$GBGSV,3,1,10,01,29,321,,03,12,292,,04,37,345,,08,49,229,27,1*7D
$GBGSV,3,2,10,10,00,282,,12,66,330,23,13,23,233,17,19,28,123,16,1*7F
$GBGSV,3,3,10,21,41,301,35,22,82,135,17,1*7E
$GBGSV,3,1,10,01,29,321,,03,12,292,,04,37,345,,08,49,229,,*49
$GBGSV,3,2,10,10,00,282,,12,66,330,,13,23,233,,19,28,123,,*4E
$GBGSV,3,3,10,21,41,301,,22,82,135,,*4F
$GNGLL,4552.65403,S,17030.00668,E,003956.00,A,A*6C
$GNGST,003956.00,235111,,,,2.3,3.5,4.0*46
$GNZDA,003956.00,12,04,2019,00,00*7C
$GNGBS,003956.00,2.3,3.5,4.0,,,,,,*55
$GNRMC,003957.00,A,4552.65403,S,17030.00673,E,0.061,,120419,,,A,V*0C
$GNVTG,,T,,M,0.061,N,0.113,K,A*39
$GNGGA,003957.00,4552.65403,S,17030.00673,E,1,12,0.64,14.2,M,1.8,M,,*5D
$GNGSA,A,3,13,16,21,15,10,29,27,20,,,,,1.05,0.64,0.83,1*03
$GNGSA,A,3,82,66,81,,,,,,,,,,1.05,0.64,0.83,2*0C
$GNGSA,A,3,07,12,33,,,,,,,,,,1.05,0.64,0.83,3*0A
$GNGSA,A,3,13,12,22,19,08,21,,,,,,,1.05,0.64,0.83,4*0B
$GPGSV,3,1,12,05,06,110,18,10,24,284,34,13,37,124,29,15,63,083,10,1*60
$GPGSV,3,2,12,16,11,248,07,20,52,273,34,21,80,232,30,24,07,045,,1*67
$GPGSV,3,3,12,26,04,276,,27,15,218,31,29,24,004,12,30,00,159,,1*68
$GPGSV,3,1,12,05,06,110,,10,24,284,,13,37,124,,15,63,083,,6*63
$GPGSV,3,2,12,16,11,248,,20,52,273,,21,80,232,,24,07,045,,6*63
$GPGSV,3,3,12,26,04,276,,27,15,218,29,29,24,004,,30,00,159,,6*65
$GLGSV,3,1,10,65,53,144,,66,58,305,32,67,06,313,,72,09,137,,1*7A
$GLGSV,3,2,10,73,06,174,,74,05,132,,81,64,223,35,82,13,214,33,1*7F
$GLGSV,3,3,10,87,14,030,15,88,62,024,,1*76
$GLGSV,3,1,10,65,53,144,,66,58,305,32,67,06,313,,72,09,137,,3*78
$GLGSV,3,2,10,73,06,174,,74,05,132,,81,64,223,35,82,13,214,34,3*7A
$GLGSV,3,3,10,87,14,030,,88,62,024,,3*70
$GAGSV,3,1,09,02,00,179,,04,09,322,,07,11,134,11,11,09,227,,7*74
$GAGSV,3,2,09,12,61,237,31,18,50,265,32,19,63,342,,26,11,044,,7*7B
$GAGSV,3,3,09,33,62,034,09,7*40
$GAGSV,3,1,09,02,00,179,,04,09,322,,07,11,134,,11,09,227,,2*71
$GAGSV,3,2,09,12,61,237,35,18,50,265,31,19,63,342,,26,11,044,,2*79
$GAGSV,3,3,09,33,62,034,,2*4C
$GBGSV,3,1,10,01,29,321,,03,12,292,,04,37,345,,08,49,229,27,1*7D
$GBGSV,3,2,10,10,00,282,,12,66,330,23,13,23,233,18,19,28,123,15,1*73
$GBGSV,3,3,10,21,41,301,35,22,82,135,17,1*7E
$GBGSV,3,1,10,01,29,321,,03,12,292,,04,37,345,,08,49,229,,*49
$GBGSV,3,2,10,10,00,282,,12,66,330,,13,23,233,,19,28,123,,*4E
$GBGSV,3,3,10,21,41,301,,22,82,135,,*4F
$GNGLL,4552.65403,S,17030.00673,E,003957.00,A,A*67
$GNGST,003957.00,348874,,,,2.3,3.5,4.0*46
$GNZDA,003957.00,12,04,2019,00,00*7D
$GNGBS,003957.00,2.3,3.5,4.0,,,,,,*54
$GNRMC,003958.00,A,4552.65403,S,17030.00672,E,0.020,,120419,,,A,V*07
$GNVTG,,T,,M,0.020,N,0.037,K,A*3B
$GNGGA,003958.00,4552.65403,S,17030.00672,E,1,12,0.71,14.2,M,1.8,M,,*57
$GNGSA,A,3,13,16,21,15,10,29,27,20,,,,,1.19,0.71,0.96,1*0E
$GNGSA,A,3,82,66,81,,,,,,,,,,1.19,0.71,0.96,2*01
$GNGSA,A,3,07,12,33,,,,,,,,,,1.19,0.71,0.96,3*07
$GNGSA,A,3,13,12,22,19,08,21,,,,,,,1.19,0.71,0.96,4*06
$GPGSV,3,1,12,05,06,110,17,10,24,284,34,13,37,124,29,15,63,083,08,1*66
$GPGSV,3,2,12,16,11,248,11,20,52,273,34,21,80,232,30,24,07,045,,1*60
$GPGSV,3,3,12,26,04,276,,27,15,218,31,29,24,004,14,30,00,159,,1*6E
$GPGSV,3,1,12,05,06,110,,10,24,284,,13,37,124,,15,63,083,,6*63
$GPGSV,3,2,12,16,11,248,,20,52,273,,21,80,232,,24,07,045,,6*63
$GPGSV,3,3,12,26,04,276,,27,15,218,29,29,24,004,,30,00,159,,6*65
$GLGSV,3,1,10,65,53,144,,66,58,305,32,67,06,313,,72,09,137,,1*7A
$GLGSV,3,2,10,73,06,174,,74,05,132,,81,64,223,35,82,13,214,33,1*7F
$GLGSV,3,3,10,87,14,030,13,88,62,024,,1*70
$GLGSV,3,1,10,65,53,144,,66,58,305,32,67,06,313,,72,09,137,,3*78
$GLGSV,3,2,10,73,06,174,,74,05,132,,81,64,223,35,82,13,214,34,3*7A
$GLGSV,3,3,10,87,14,030,,88,62,024,,3*70
$GAGSV,3,1,09,02,00,179,,04,09,322,,07,11,134,11,11,09,227,,7*74
$GAGSV,3,2,09,12,61,237,31,18,50,265,32,19,63,342,,26,11,044,,7*7B
$GAGSV,3,3,09,33,62,034,14,7*4C
$GAGSV,3,1,09,02,00,179,,04,09,322,,07,11,134,,11,09,227,,2*71
$GAGSV,3,2,09,12,61,237,35,18,50,265,31,19,63,342,,26,11,044,,2*79
$GAGSV,3,3,09,33,62,034,,2*4C
$GBGSV,3,1,10,01,29,321,,03,12,292,,04,37,345,,08,49,229,27,1*7D
$GBGSV,3,2,10,10,00,282,,12,66,330,23,13,23,233,18,19,28,123,15,1*73
$GBGSV,3,3,10,21,41,301,35,22,82,135,16,1*7F
$GBGSV,3,1,10,01,29,321,,03,12,292,,04,37,345,,08,49,229,,*49
$GBGSV,3,2,10,10,00,282,,12,66,330,,13,23,233,,19,28,123,,*4E
$GBGSV,3,3,10,21,41,301,,22,82,135,,*4F
$GNGLL,4552.65403,S,17030.00672,E,003958.00,A,A*69
$GNGST,003958.00,43,,,,2.3,3.5,4.0*4A
$GNZDA,003958.00,12,04,2019,00,00*72
$GNGBS,003958.00,2.3,3.5,4.0,,,,,,*5B
$GNRMC,003959.00,A,4552.65402,S,17030.00673,E,0.042,,120419,,,A,V*02
$GNVTG,,T,,M,0.042,N,0.077,K,A*3B
$GNGGA,003959.00,4552.65402,S,17030.00673,E,1,12,0.65,14.2,M,1.8,M,,*53
$GNGSA,A,3,13,16,21,15,10,29,27,20,,,,,1.06,0.65,0.84,1*06
$GNGSA,A,3,82,66,81,,,,,,,,,,1.06,0.65,0.84,2*09
$GNGSA,A,3,07,12,33,,,,,,,,,,1.06,0.65,0.84,3*0F
$GNGSA,A,3,13,12,22,19,08,21,,,,,,,1.06,0.65,0.84,4*0E
$GPGSV,3,1,12,05,06,110,16,10,24,284,34,13,37,124,30,15,63,083,13,1*65
$GPGSV,3,2,12,16,11,248,09,20,52,273,34,21,80,232,30,24,07,045,,1*69
$GPGSV,3,3,12,26,04,276,,27,15,218,31,29,24,004,14,30,00,159,,1*6E
$GPGSV,3,1,12,05,06,110,,10,24,284,,13,37,124,,15,63,083,,6*63
$GPGSV,3,2,12,16,11,248,,20,52,273,,21,80,232,,24,07,045,,6*63
$GPGSV,3,3,12,26,04,276,,27,15,218,29,29,24,004,,30,00,159,,6*65
$GLGSV,3,1,10,65,53,144,,66,58,305,32,67,06,313,,72,09,137,,1*7A
$GLGSV,3,2,10,73,06,174,,74,05,132,,81,64,223,35,82,13,214,32,1*7E
$GLGSV,3,3,10,87,14,030,10,88,62,024,,1*73
$GLGSV,3,1,10,65,53,144,,66,58,305,32,67,06,313,,72,09,137,,3*78
$GLGSV,3,2,10,73,06,174,,74,05,132,,81,64,223,35,82,13,214,34,3*7A
$GLGSV,3,3,10,87,14,030,,88,62,024,,3*70
$GAGSV,3,1,09,02,00,179,,04,09,322,,07,11,134,10,11,09,227,,7*75
$GAGSV,3,2,09,12,61,237,31,18,50,265,32,19,63,342,,26,11,044,,7*7B
$GAGSV,3,3,09,33,62,034,11,7*49
$GAGSV,3,1,09,02,00,179,,04,09,322,,07,11,134,,11,09,227,,2*71
$GAGSV,3,2,09,12,61,237,35,18,50,265,31,19,63,342,,26,11,044,,2*79
$GAGSV,3,3,09,33,62,034,,2*4C
$GBGSV,3,1,10,01,29,321,,03,12,292,,04,37,345,,08,49,229,27,1*7D
$GBGSV,3,2,10,10,00,282,,12,66,330,22,13,23,233,17,19,28,123,14,1*7C
$GBGSV,3,3,10,21,41,301,35,22,82,135,17,1*7E
$GBGSV,3,1,10,01,29,321,,03,12,292,,04,37,345,,08,49,229,,*49
$GBGSV,3,2,10,10,00,282,,12,66,330,,13,23,233,,19,28,123,,*4E
$GBGSV,3,3,10,21,41,301,,22,82,135,,*4F
$GNGLL,4552.65402,S,17030.00673,E,003959.00,A,A*68
$GNGST,003959.00,239130,,,,2.3,3.5,4.1*47
$GNZDA,003959.00,12,04,2019,00,00*73
$GNGBS,003959.00,2.3,3.5,4.1,,,,,,*5B
$GNRMC,004000.00,A,4552.65403,S,17030.00673,E,0.044,,120419,,,A,V*07
$GNVTG,,T,,M,0.044,N,0.081,K,A*34
$GNGGA,004000.00,4552.65403,S,17030.00673,E,1,12,0.65,14.2,M,1.8,M,,*50
$GNGSA,A,3,13,16,21,15,10,29,27,20,,,,,1.06,0.65,0.84,1*06
$GNGSA,A,3,82,66,81,,,,,,,,,,1.06,0.65,0.84,2*09
$GNGSA,A,3,07,12,33,,,,,,,,,,1.06,0.65,0.84,3*0F
$GNGSA,A,3,13,12,22,19,08,21,,,,,,,1.06,0.65,0.84,4*0E
$GPGSV,3,1,12,05,06,110,15,10,24,284,34,13,37,124,30,15,63,083,15,1*60
$GPGSV,3,2,12,16,11,248,11,20,52,273,34,21,80,232,30,24,08,046,,1*6C
$GPGSV,3,3,12,26,04,276,,27,15,218,31,29,24,004,14,30,00,159,,1*6E
$GPGSV,3,1,12,05,06,110,,10,24,284,,13,37,124,,15,63,083,,6*63
$GPGSV,3,2,12,16,11,248,,20,52,273,,21,80,232,,24,08,046,,6*6F
$GPGSV,3,3,12,26,04,276,,27,15,218,29,29,24,004,,30,00,159,,6*65
$GLGSV,3,1,10,65,53,144,,66,58,305,32,67,06,313,,72,09,137,,1*7A
$GLGSV,3,2,10,73,06,174,,74,05,132,,81,64,223,35,82,13,214,33,1*7F
$GLGSV,3,3,10,87,14,030,08,88,62,024,,1*7A
$GLGSV,3,1,10,65,53,144,,66,58,305,32,67,06,313,,72,09,137,,3*78
$GLGSV,3,2,10,73,06,174,,74,05,132,,81,64,223,35,82,13,214,34,3*7A
$GLGSV,3,3,10,87,14,030,,88,62,024,,3*70
$GAGSV,3,1,09,02,00,179,,04,09,322,,07,11,134,10,11,09,227,,7*75
$GAGSV,3,2,09,12,61,237,31,18,50,265,32,19,63,342,,26,11,044,,7*7B
$GAGSV,3,3,09,33,62,034,09,7*40
$GAGSV,3,1,09,02,00,179,,04,09,322,,07,11,134,,11,09,227,,2*71
$GAGSV,3,2,09,12,61,237,35,18,50,265,31,19,63,342,,26,11,044,,2*79
$GAGSV,3,3,09,33,62,034,,2*4C
$GBGSV,3,1,10,01,29,321,,03,12,292,,04,37,345,,08,49,229,27,1*7D
$GBGSV,3,2,10,10,00,282,,12,66,330,22,13,23,233,17,19,28,123,14,1*7C
$GBGSV,3,3,10,21,41,301,35,22,82,135,18,1*71
$GBGSV,3,1,10,01,29,321,,03,12,292,,04,37,345,,08,49,229,,*49
$GBGSV,3,2,10,10,00,282,,12,66,330,,13,23,233,,19,28,123,,*4E
$GBGSV,3,3,10,21,41,301,,22,82,135,,*4F
$GNGLL,4552.65403,S,17030.00673,E,004000.00,A,A*6B
$GNGST,004000.00,354838,,,,2.3,3.5,4.1*4E
$GNZDA,004000.00,12,04,2019,00,00*71
$GNGBS,004000.00,2.3,3.5,4.1,,,,,,*59
$GNRMC,004001.00,A,4552.65403,S,17030.00677,E,0.068,,120419,,,A,V*0C
$GNVTG,,T,,M,0.068,N,0.126,K,A*36
$GNGGA,004001.00,4552.65403,S,17030.00677,E,1,12,0.66,14.2,M,1.8,M,,*56
$GNGSA,A,3,13,16,21,15,10,29,27,20,,,,,1.10,0.66,0.88,1*0E
$GNGSA,A,3,82,66,81,,,,,,,,,,1.10,0.66,0.88,2*01
$GNGSA,A,3,07,12,33,,,,,,,,,,1.10,0.66,0.88,3*07
$GNGSA,A,3,13,12,22,19,08,21,,,,,,,1.10,0.66,0.88,4*06
$GPGSV,3,1,12,05,06,110,14,10,24,284,34,13,37,124,30,15,63,083,13,1*67
$GPGSV,3,2,12,16,11,248,09,20,52,273,34,21,80,232,30,24,08,046,,1*65
$GPGSV,3,3,12,26,04,276,,27,15,218,31,29,24,004,13,30,00,159,,1*69
$GPGSV,3,1,12,05,06,110,,10,24,284,,13,37,124,,15,63,083,,6*63
$GPGSV,3,2,12,16,11,248,,20,52,273,,21,80,232,,24,08,046,,6*6F
$GPGSV,3,3,12,26,04,276,,27,15,218,29,29,24,004,,30,00,159,,6*65
$GLGSV,3,1,10,65,53,144,,66,58,305,32,67,06,313,,72,09,137,,1*7A
$GLGSV,3,2,10,73,06,174,,74,05,132,,81,64,223,35,82,13,214,33,1*7F
$GLGSV,3,3,10,87,14,030,08,88,62,024,,1*7A
$GLGSV,3,1,10,65,53,144,,66,58,305,32,67,06,313,,72,09,137,,3*78
$GLGSV,3,2,10,73,06,174,,74,05,132,,81,64,223,35,82,13,214,34,3*7A
$GLGSV,3,3,10,87,14,030,,88,62,024,,3*70
$GAGSV,3,1,09,02,00,179,,04,09,322,,07,11,134,08,11,09,227,,7*7C
$GAGSV,3,2,09,12,61,237,31,18,50,265,32,19,63,342,,26,11,044,,7*7B
$GAGSV,3,3,09,33,62,034,10,7*48
$GAGSV,3,1,09,02,00,179,,04,09,322,,07,11,134,,11,09,227,,2*71
$GAGSV,3,2,09,12,61,237,35,18,50,265,31,19,63,342,,26,11,044,,2*79
$GAGSV,3,3,09,33,62,034,,2*4C
$GBGSV,3,1,10,01,29,321,,03,12,292,,04,37,345,,08,49,229,27,1*7D
$GBGSV,3,2,10,10,00,282,,12,66,330,22,13,23,233,15,19,28,123,15,1*7F
$GBGSV,3,3,10,21,41,301,35,22,82,135,18,1*71
$GBGSV,3,1,10,01,29,321,,03,12,292,,04,37,345,,08,49,229,,*49
$GBGSV,3,2,10,10,00,282,,12,66,330,,13,23,233,,19,28,123,,*4E
$GBGSV,3,3,10,21,41,301,,22,82,135,,*4F
$GNGLL,4552.65403,S,17030.00677,E,004001.00,A,A*6E
$GNGST,004001.00,50,,,,2.3,3.5,4.1*4B
$GNZDA,004001.00,12,04,2019,00,00*70
$GNGBS,004001.00,2.3,3.5,4.1,,,,,,*58
$GNRMC,004002.00,A,4552.65403,S,17030.00678,E,0.075,,120419,,,A,V*0C
$GNVTG,,T,,M,0.075,N,0.139,K,A*34
$GNGGA,004002.00,4552.65403,S,17030.00678,E,1,12,0.68,14.2,M,1.8,M,,*54
$GNGSA,A,3,13,16,21,15,10,29,27,20,,,,,1.14,0.68,0.92,1*0F
$GNGSA,A,3,82,66,81,,,,,,,,,,1.14,0.68,0.92,2*00
$GNGSA,A,3,12,33,,,,,,,,,,,1.14,0.68,0.92,3*01
$GNGSA,A,3,13,12,22,19,08,21,,,,,,,1.14,0.68,0.92,4*07
$GPGSV,3,1,12,05,06,110,15,10,24,284,34,13,37,124,30,15,63,083,13,1*66
$GPGSV,3,2,12,16,11,248,13,20,52,273,34,21,80,232,30,24,08,046,,1*6E
$GPGSV,3,3,12,26,03,276,,27,15,218,31,29,24,004,12,30,00,159,,1*6F
$GPGSV,3,1,12,05,06,110,,10,24,284,,13,37,124,,15,63,083,,6*63
$GPGSV,3,2,12,16,11,248,,20,52,273,,21,80,232,,24,08,046,,6*6F
$GPGSV,3,3,12,26,03,276,,27,15,218,29,29,24,004,,30,00,159,,6*62
$GLGSV,3,1,10,65,53,144,,66,58,305,33,67,06,313,,72,09,137,,1*7B
$GLGSV,3,2,10,73,06,174,,74,05,132,,81,64,223,35,82,13,214,32,1*7E
$GLGSV,3,3,10,87,14,030,,88,62,024,,1*72
$GLGSV,3,1,10,65,53,144,,66,58,305,32,67,06,313,,72,09,137,,3*78
$GLGSV,3,2,10,73,06,174,,74,05,132,,81,64,223,36,82,13,214,34,3*79
$GLGSV,3,3,10,87,14,030,,88,62,024,,3*70
$GAGSV,3,1,09,02,00,179,,04,09,322,,07,11,134,07,11,09,227,,7*73
$GAGSV,3,2,09,12,61,237,31,18,50,265,32,19,63,342,,26,11,044,,7*7B
$GAGSV,3,3,09,33,62,034,11,7*49
$GAGSV,3,1,09,02,00,179,,04,09,322,,07,11,134,,11,09,227,,2*71
$GAGSV,3,2,09,12,61,237,35,18,50,265,31,19,63,342,,26,11,044,,2*79
$GAGSV,3,3,09,33,62,034,,2*4C
$GBGSV,3,1,10,01,29,321,,03,12,292,,04,37,345,,08,49,229,27,1*7D
$GBGSV,3,2,10,10,00,282,,12,66,330,22,13,23,233,17,19,28,123,15,1*7D
$GBGSV,3,3,10,21,41,301,35,22,82,135,19,1*70
$GBGSV,3,1,10,01,29,321,,03,12,292,,04,37,345,,08,49,229,,*49
$GBGSV,3,2,10,10,00,282,,12,66,330,,13,23,233,,19,28,123,,*4E
$GBGSV,3,3,10,21,41,301,,22,82,135,,*4F
$GNGLL,4552.65403,S,17030.00678,E,004002.00,A,A*62
$GNGST,004002.00,138062,,,,2.3,3.5,4.1*43
$GNZDA,004002.00,12,04,2019,00,00*73
$GNGBS,004002.00,2.3,3.5,4.1,,,,,,*5B
$GNRMC,004003.00,A,4552.65404,S,17030.00676,E,0.012,,120419,,,A,V*05
$GNVTG,,T,,M,0.012,N,0.022,K,A*3E
$GNGGA,004003.00,4552.65404,S,17030.00676,E,1,12,0.64,14.2,M,1.8,M,,*50
$GNGSA,A,3,13,16,21,15,10,29,27,20,,,,,1.05,0.64,0.83,1*03
$GNGSA,A,3,82,66,81,,,,,,,,,,1.05,0.64,0.83,2*0C
$GNGSA,A,3,07,12,33,,,,,,,,,,1.05,0.64,0.83,3*0A
$GNGSA,A,3,13,12,22,19,08,21,,,,,,,1.05,0.64,0.83,4*0B
$GPGSV,3,1,12,05,06,110,16,10,24,284,34,13,37,124,30,15,63,083,18,1*6E
$GPGSV,3,2,12,16,11,248,14,20,52,273,34,21,80,232,30,24,08,046,,1*69
$GPGSV,3,3,12,26,03,276,,27,16,218,31,29,24,004,14,30,00,159,,1*6A
$GPGSV,3,1,12,05,06,110,,10,24,284,,13,37,124,,15,63,083,,6*63
$GPGSV,3,2,12,16,11,248,,20,52,273,,21,80,232,,24,08,046,,6*6F
$GPGSV,3,3,12,26,03,276,,27,16,218,29,29,24,004,,30,00,159,,6*61
$GLGSV,3,1,10,65,53,144,,66,58,305,32,67,06,313,,72,09,137,,1*7A
$GLGSV,3,2,10,73,06,174,,74,05,132,,81,64,223,35,82,13,214,32,1*7E
$GLGSV,3,3,10,87,14,030,,88,62,024,,1*72
$GLGSV,3,1,10,65,53,144,,66,58,305,32,67,06,313,,72,09,137,,3*78
$GLGSV,3,2,10,73,06,174,,74,05,132,,81,64,223,36,82,13,214,34,3*79
$GLGSV,3,3,10,87,14,030,,88,62,024,,3*70
$GAGSV,3,1,09,02,00,179,,04,09,322,,07,11,134,13,11,09,227,,7*76
$GAGSV,3,2,09,12,61,237,31,18,50,265,32,19,63,342,,26,11,044,,7*7B
$GAGSV,3,3,09,33,62,034,10,7*48
$GAGSV,3,1,09,02,00,179,,04,09,322,,07,11,134,,11,09,227,,2*71
$GAGSV,3,2,09,12,61,237,35,18,50,265,31,19,63,342,,26,11,044,,2*79
$GAGSV,3,3,09,33,62,034,,2*4C
$GBGSV,3,1,10,01,29,321,,03,12,292,,04,37,345,,08,49,229,28,1*72
$GBGSV,3,2,10,10,00,282,,12,66,330,22,13,23,233,17,19,28,123,15,1*7D
$GBGSV,3,3,10,21,41,301,35,22,82,135,19,1*70
$GBGSV,3,1,10,01,29,321,,03,12,292,,04,37,345,,08,49,229,,*49
$GBGSV,3,2,10,10,00,282,,12,66,330,,13,23,233,,19,28,123,,*4E
$GBGSV,3,3,10,21,41,301,,22,82,135,,*4F
$GNGLL,4552.65404,S,17030.00676,E,004003.00,A,A*6A
$GNGST,004003.00,201423,,,,2.3,3.5,4.1*4A
$GNZDA,004003.00,12,04,2019,00,00*72
$GNGBS,004003.00,2.3,3.5,4.1,,,,,,*5A
$GNRMC,004004.00,A,4552.65404,S,17030.00672,E,0.095,,120419,,,A,V*09
$GNVTG,,T,,M,0.095,N,0.176,K,A*31
$GNGGA,004004.00,4552.65404,S,17030.00672,E,1,12,0.68,14.3,M,1.8,M,,*5E
$GNGSA,A,3,13,16,21,10,29,27,20,,,,,,1.12,0.68,0.89,1*07
$GNGSA,A,3,82,66,81,,,,,,,,,,1.12,0.68,0.89,2*0C
$GNGSA,A,3,07,12,33,,,,,,,,,,1.12,0.68,0.89,3*0A
$GNGSA,A,3,13,12,22,19,08,21,,,,,,,1.12,0.68,0.89,4*0B
$GPGSV,3,1,12,05,06,110,16,10,24,284,34,13,37,124,30,15,63,083,09,1*6E
$GPGSV,3,2,12,16,11,248,17,20,52,273,35,21,80,232,29,24,08,046,,1*63
$GPGSV,3,3,12,26,03,276,,27,16,218,31,29,24,004,14,30,00,159,,1*6A
$GPGSV,3,1,12,05,06,110,,10,24,284,,13,37,124,,15,63,083,,6*63
$GPGSV,3,2,12,16,11,248,,20,52,273,,21,80,232,,24,08,046,,6*6F
$GPGSV,3,3,12,26,03,276,,27,16,218,29,29,24,004,,30,00,159,,6*61
$GLGSV,3,1,10,65,53,144,,66,58,305,33,67,06,313,,72,09,137,,1*7B
$GLGSV,3,2,10,73,06,174,,74,05,132,,81,64,223,34,82,13,214,33,1*7E
$GLGSV,3,3,10,87,14,030,,88,62,024,,1*72
$GLGSV,3,1,10,65,53,144,,66,58,305,32,67,06,313,,72,09,137,,3*78
$GLGSV,3,2,10,73,06,174,,74,05,132,,81,64,223,36,82,13,214,33,3*7E
$GLGSV,3,3,10,87,14,030,,88,62,024,,3*70
$GAGSV,3,1,09,02,00,179,,04,09,322,,07,11,134,10,11,09,227,,7*75
$GAGSV,3,2,09,12,61,237,30,18,50,265,31,19,63,342,,26,11,044,,7*79
$GAGSV,3,3,09,33,62,034,10,7*48
$GAGSV,3,1,09,02,00,179,,04,09,322,,07,11,134,,11,09,227,,2*71
$GAGSV,3,2,09,12,61,237,35,18,50,265,31,19,63,342,,26,11,044,,2*79
$GAGSV,3,3,09,33,62,034,,2*4C
$GBGSV,3,1,10,01,29,321,,03,12,292,,04,37,345,,08,49,229,27,1*7D
$GBGSV,3,2,10,10,00,282,,12,66,330,22,13,23,233,17,19,28,123,14,1*7C
$GBGSV,3,3,10,21,41,301,35,22,82,135,18,1*71
$GBGSV,3,1,10,01,29,321,,03,12,292,,04,37,345,,08,49,229,,*49
$GBGSV,3,2,10,10,00,282,,12,66,330,,13,23,233,,19,28,123,,*4E
$GBGSV,3,3,10,21,41,301,,22,82,135,,*4F
$GNGLL,4552.65404,S,17030.00672,E,004004.00,A,A*69
$GNGST,004004.00,46,,,,2.3,3.5,4.1*49
$GNZDA,004004.00,12,04,2019,00,00*75
$GNGBS,004004.00,2.3,3.5,4.1,,,,,,*5D
$GNRMC,004005.00,A,4552.65404,S,17030.00669,E,0.043,,120419,,,A,V*09
$GNVTG,,T,,M,0.043,N,0.080,K,A*32
$GNGGA,004005.00,4552.65404,S,17030.00669,E,1,12,0.64,14.3,M,1.8,M,,*59
$GNGSA,A,3,13,16,21,15,10,29,27,20,,,,,1.05,0.64,0.83,1*03
$GNGSA,A,3,82,66,81,,,,,,,,,,1.05,0.64,0.83,2*0C
$GNGSA,A,3,07,12,33,,,,,,,,,,1.05,0.64,0.83,3*0A
$GNGSA,A,3,13,12,22,19,08,21,,,,,,,1.05,0.64,0.83,4*0B
$GPGSV,3,1,12,05,06,110,16,10,24,284,34,13,37,124,31,15,63,083,14,1*63
$GPGSV,3,2,12,16,11,248,16,20,52,273,35,21,80,232,30,24,08,046,,1*6A
$GPGSV,3,3,12,26,03,276,,27,16,218,31,29,23,004,15,30,00,159,,1*6C
$GPGSV,3,1,12,05,06,110,,10,24,284,,13,37,124,,15,63,083,,6*63
$GPGSV,3,2,12,16,11,248,,20,52,273,,21,80,232,,24,08,046,,6*6F
$GPGSV,3,3,12,26,03,276,,27,16,218,29,29,23,004,,30,00,159,,6*66
$GLGSV,3,1,10,65,53,144,,66,58,305,33,67,06,313,,72,09,137,,1*7B
$GLGSV,3,2,10,73,06,174,,74,05,132,,81,64,223,35,82,13,214,33,1*7F
$GLGSV,3,3,10,87,14,030,,88,62,024,,1*72
$GLGSV,3,1,10,65,53,144,,66,58,305,32,67,06,313,,72,09,137,,3*78
$GLGSV,3,2,10,73,06,174,,74,05,132,,81,64,223,36,82,13,214,33,3*7E
$GLGSV,3,3,10,87,14,030,,88,62,024,,3*70
$GAGSV,3,1,09,02,00,179,,04,09,322,,07,11,134,10,11,09,227,,7*75
$GAGSV,3,2,09,12,61,237,30,18,50,265,32,19,63,342,,26,11,044,,7*7A
$GAGSV,3,3,09,33,62,034,10,7*48
$GAGSV,3,1,09,02,00,179,,04,09,322,,07,11,134,,11,09,227,,2*71
$GAGSV,3,2,09,12,61,237,35,18,50,265,31,19,63,342,,26,11,044,,2*79
$GAGSV,3,3,09,33,62,034,,2*4C
$GBGSV,3,1,10,01,29,321,,03,12,292,,04,37,345,,08,49,229,27,1*7D
$GBGSV,3,2,10,10,00,282,,12,66,330,22,13,23,233,17,19,28,123,18,1*70
$GBGSV,3,3,10,21,41,301,35,22,82,135,17,1*7E
$GBGSV,3,1,10,01,29,321,,03,12,292,,04,37,345,,08,49,229,,*49
$GBGSV,3,2,10,10,00,282,,12,66,330,,13,23,233,,19,28,123,,*4E
$GBGSV,3,3,10,21,41,301,,22,82,135,,*4F
$GNGLL,4552.65404,S,17030.00669,E,004005.00,A,A*62
$GNGST,004005.00,235111,,,,2.3,3.5,4.1*4F
$GNZDA,004005.00,12,04,2019,00,00*74
$GNGBS,004005.00,2.3,3.5,4.1,,,,,,*5C
$GNRMC,004006.00,A,4552.65402,S,17030.00675,E,0.060,,120419,,,A,V*00
$GNVTG,,T,,M,0.060,N,0.110,K,A*3B
$GNGGA,004006.00,4552.65402,S,17030.00675,E,1,12,0.64,14.3,M,1.8,M,,*51
$GNGSA,A,3,13,16,21,15,10,29,27,20,,,,,1.05,0.64,0.83,1*03
$GNGSA,A,3,82,66,81,,,,,,,,,,1.05,0.64,0.83,2*0C
$GNGSA,A,3,07,12,33,,,,,,,,,,1.05,0.64,0.83,3*0A
$GNGSA,A,3,13,12,22,19,08,21,,,,,,,1.05,0.64,0.83,4*0B
$GPGSV,3,1,12,05,06,110,17,10,24,284,34,13,37,124,31,15,63,083,17,1*61
$GPGSV,3,2,12,16,11,248,17,20,52,273,35,21,80,232,30,24,08,046,,1*6B
$GPGSV,3,3,12,26,03,276,,27,16,218,31,29,23,004,14,30,00,160,,1*67
$GPGSV,3,1,12,05,06,110,,10,24,284,,13,37,124,,15,63,083,,6*63
$GPGSV,3,2,12,16,11,248,,20,52,273,,21,80,232,,24,08,046,,6*6F
$GPGSV,3,3,12,26,03,276,,27,16,218,29,29,23,004,,30,00,160,,6*6C
$GLGSV,3,1,10,65,53,144,,66,58,305,33,67,06,313,,72,09,137,,1*7B
$GLGSV,3,2,10,73,06,174,,74,05,132,,81,64,223,35,82,13,214,33,1*7F
$GLGSV,3,3,10,87,14,030,,88,62,024,,1*72
$GLGSV,3,1,10,65,53,144,,66,58,305,32,67,06,313,,72,09,137,,3*78
$GLGSV,3,2,10,73,06,174,,74,05,132,,81,64,223,36,82,13,214,33,3*7E
$GLGSV,3,3,10,87,14,030,,88,62,024,,3*70
$GAGSV,3,1,09,02,00,179,,04,09,322,,07,11,134,07,11,09,227,,7*73
$GAGSV,3,2,09,12,61,237,30,18,50,265,32,19,63,342,,26,11,044,,7*7A
$GAGSV,3,3,09,33,62,034,10,7*48
$GAGSV,3,1,09,02,00,179,,04,09,322,,07,11,134,,11,09,227,,2*71
$GAGSV,3,2,09,12,61,237,35,18,50,265,31,19,63,342,,26,11,044,,2*79
$GAGSV,3,3,09,33,62,034,,2*4C
$GBGSV,3,1,10,01,29,321,,03,12,292,,04,37,345,,08,49,229,27,1*7D
$GBGSV,3,2,10,10,00,282,,12,66,330,22,13,23,233,18,19,28,123,20,1*74
$GBGSV,3,3,10,21,41,301,35,22,82,135,17,1*7E
$GBGSV,3,1,10,01,29,321,,03,12,292,,04,37,345,,08,49,229,,*49
$GBGSV,3,2,10,10,00,282,,12,66,330,,13,23,233,,19,28,123,,*4E
$GBGSV,3,3,10,21,41,301,,22,82,135,,*4F
$GNGLL,4552.65402,S,17030.00675,E,004006.00,A,A*6A
$GNGST,004006.00,348874,,,,2.3,3.5,4.1*4D
$GNZDA,004006.00,12,04,2019,00,00*77
$GNGBS,004006.00,2.3,3.5,4.1,,,,,,*5F
$GNRMC,004007.00,A,4552.65401,S,17030.00678,E,0.092,,120419,,,A,V*02
$GNVTG,,T,,M,0.092,N,0.171,K,A*31
$GNGGA,004007.00,4552.65401,S,17030.00678,E,1,12,0.71,14.3,M,1.8,M,,*5A
$GNGSA,A,3,13,21,15,10,29,27,20,,,,,,1.19,0.71,0.96,1*09
$GNGSA,A,3,82,66,81,,,,,,,,,,1.19,0.71,0.96,2*01
$GNGSA,A,3,07,12,33,,,,,,,,,,1.19,0.71,0.96,3*07
$GNGSA,A,3,13,12,22,19,08,21,,,,,,,1.19,0.71,0.96,4*06
$GPGSV,3,1,12,05,06,110,18,10,24,284,34,13,37,124,30,15,63,083,15,1*6D
$GPGSV,3,2,12,16,11,248,06,20,52,273,34,21,80,232,30,24,08,046,,1*6A
$GPGSV,3,3,12,26,03,276,,27,16,218,31,29,23,004,15,30,00,160,,1*66
$GPGSV,3,1,12,05,06,110,,10,24,284,,13,37,124,,15,63,083,,6*63
$GPGSV,3,2,12,16,11,248,,20,52,273,,21,80,232,,24,08,046,,6*6F
$GPGSV,3,3,12,26,03,276,,27,16,218,29,29,23,004,,30,00,160,,6*6C
$GLGSV,3,1,10,65,53,144,,66,58,305,33,67,06,313,,72,09,137,,1*7B
$GLGSV,3,2,10,73,06,174,,74,05,132,,81,64,223,35,82,13,214,33,1*7F
$GLGSV,3,3,10,87,14,030,,88,62,024,,1*72
$GLGSV,3,1,10,65,53,144,,66,58,305,32,67,06,313,,72,09,137,,3*78
$GLGSV,3,2,10,73,06,174,,74,05,132,,81,64,223,36,82,13,214,33,3*7E
$GLGSV,3,3,10,87,14,030,,88,62,024,,3*70
$GAGSV,3,1,09,02,00,179,,04,09,322,,07,11,134,08,11,09,227,,7*7C
$GAGSV,3,2,09,12,61,237,31,18,50,265,32,19,63,342,,26,11,044,,7*7B
$GAGSV,3,3,09,33,62,034,13,7*4B
$GAGSV,3,1,09,02,00,179,,04,09,322,,07,11,134,,11,09,227,,2*71
$GAGSV,3,2,09,12,61,237,35,18,50,265,31,19,63,342,,26,11,044,,2*79
$GAGSV,3,3,09,33,62,034,,2*4C
$GBGSV,3,1,10,01,29,321,,03,12,292,,04,37,345,,08,49,229,27,1*7D
$GBGSV,3,2,10,10,00,282,,12,66,330,21,13,23,233,18,19,28,123,21,1*76
$GBGSV,3,3,10,21,41,301,35,22,82,135,17,1*7E
$GBGSV,3,1,10,01,29,321,,03,12,292,,04,37,345,,08,49,229,,*49
$GBGSV,3,2,10,10,00,282,,12,66,330,,13,23,233,,19,28,123,,*4E
$GBGSV,3,3,10,21,41,301,,22,82,135,,*4F
$GNGLL,4552.65401,S,17030.00678,E,004007.00,A,A*65
$GNGST,004007.00,41,,,,2.3,3.5,4.1*4D
$GNZDA,004007.00,12,04,2019,00,00*76
$GNGBS,004007.00,2.3,3.5,4.1,,,,,,*5E
$GNRMC,004008.00,A,4552.65401,S,17030.00675,E,0.042,,120419,,,A,V*0D
$GNVTG,,T,,M,0.042,N,0.079,K,A*35
$GNGGA,004008.00,4552.65401,S,17030.00675,E,1,12,0.65,14.4,M,1.8,M,,*5A
$GNGSA,A,3,13,21,15,10,29,27,20,,,,,,1.08,0.65,0.86,1*0D
$GNGSA,A,3,82,66,81,,,,,,,,,,1.08,0.65,0.86,2*05
$GNGSA,A,3,07,12,33,,,,,,,,,,1.08,0.65,0.86,3*03
$GNGSA,A,3,13,12,22,19,08,21,,,,,,,1.08,0.65,0.86,4*02
$GPGSV,3,1,12,05,06,110,19,10,24,284,34,13,37,124,31,15,63,083,11,1*69
$GPGSV,3,2,12,16,11,248,08,20,52,273,34,21,80,232,30,24,08,046,,1*64
$GPGSV,3,3,12,26,03,276,,27,16,218,31,29,23,004,16,30,00,160,,1*65
$GPGSV,3,1,12,05,06,110,,10,24,284,,13,37,124,,15,63,083,,6*63
$GPGSV,3,2,12,16,11,248,,20,52,273,,21,80,232,,24,08,046,,6*6F
$GPGSV,3,3,12,26,03,276,,27,16,218,29,29,23,004,,30,00,160,,6*6C
$GLGSV,3,1,10,65,53,144,,66,58,305,33,67,06,313,,72,09,137,,1*7B
$GLGSV,3,2,10,73,06,174,,74,05,132,,81,64,223,35,82,13,214,33,1*7F
$GLGSV,3,3,10,87,14,030,,88,62,024,,1*72
$GLGSV,3,1,10,65,53,144,,66,58,305,32,67,06,313,,72,09,137,,3*78
$GLGSV,3,2,10,73,06,174,,74,05,132,,81,64,223,36,82,13,214,33,3*7E
$GLGSV,3,3,10,87,14,030,,88,62,024,,3*70
$GAGSV,3,1,09,02,00,179,,04,09,322,,07,11,134,09,11,09,227,,7*7D
$GAGSV,3,2,09,12,61,237,31,18,50,265,31,19,63,342,,26,11,044,,7*78
$GAGSV,3,3,09,33,62,034,07,7*4E
$GAGSV,3,1,09,02,00,179,,04,09,322,,07,11,134,,11,09,227,,2*71
$GAGSV,3,2,09,12,61,237,35,18,50,265,31,19,63,342,,26,11,044,,2*79
$GAGSV,3,3,09,33,62,034,,2*4C
$GBGSV,3,1,10,01,29,321,,03,12,292,,04,37,345,,08,49,229,27,1*7D
$GBGSV,3,2,10,10,00,282,,12,66,330,22,13,23,233,18,19,28,123,19,1*7E
$GBGSV,3,3,10,21,41,301,35,22,82,135,17,1*7E
$GBGSV,3,1,10,01,29,321,,03,12,292,,04,37,345,,08,49,229,,*49
$GBGSV,3,2,10,10,00,282,,12,66,330,,13,23,233,,19,28,123,,*4E
$GBGSV,3,3,10,21,41,301,,22,82,135,,*4F
$GNGLL,4552.65401,S,17030.00675,E,004008.00,A,A*67
$GNGST,004008.00,191967,,,,2.3,3.5,4.1*46
$GNZDA,004008.00,12,04,2019,00,00*79
$GNGBS,004008.00,2.3,3.5,4.1,,,,,,*51
$GNRMC,004009.00,A,4552.65401,S,17030.00669,E,0.101,,120419,,,A,V*07
$GNVTG,,T,,M,0.101,N,0.187,K,A*33
$GNGGA,004009.00,4552.65401,S,17030.00669,E,1,12,0.70,14.5,M,1.8,M,,*53
$GNGSA,A,3,13,16,21,10,29,27,20,,,,,,1.16,0.70,0.92,1*00
$GNGSA,A,3,82,66,81,,,,,,,,,,1.16,0.70,0.92,2*0B
$GNGSA,A,3,12,33,,,,,,,,,,,1.16,0.70,0.92,3*0A
$GNGSA,A,3,13,12,22,19,08,21,,,,,,,1.16,0.70,0.92,4*0C
$GPGSV,3,1,12,05,06,110,19,10,24,284,34,13,37,124,31,15,63,083,09,1*60
$GPGSV,3,2,12,16,11,248,12,20,52,273,34,21,80,232,30,24,08,046,,1*6F
$GPGSV,3,3,12,26,03,276,,27,16,218,31,29,23,004,15,30,00,160,,1*66
$GPGSV,3,1,12,05,06,110,,10,24,284,,13,37,124,,15,63,083,,6*63
$GPGSV,3,2,12,16,11,248,,20,52,273,,21,80,232,,24,08,046,,6*6F
$GPGSV,3,3,12,26,03,276,,27,16,218,29,29,23,004,,30,00,160,,6*6C
$GLGSV,3,1,10,65,53,144,,66,58,305,33,67,06,313,,72,09,137,,1*7B
$GLGSV,3,2,10,73,06,174,,74,05,132,,81,64,223,35,82,13,214,33,1*7F
$GLGSV,3,3,10,87,14,030,,88,62,024,,1*72
$GLGSV,3,1,10,65,53,144,,66,58,305,32,67,06,313,,72,09,137,,3*78
$GLGSV,3,2,10,73,06,174,,74,05,132,,81,64,223,36,82,13,214,33,3*7E
$GLGSV,3,3,10,87,14,030,,88,62,024,,3*70
$GAGSV,3,1,09,02,00,179,,04,09,322,,07,11,134,07,11,09,227,,7*73
$GAGSV,3,2,09,12,61,237,31,18,50,265,32,19,63,342,,26,11,044,,7*7B
$GAGSV,3,3,09,33,62,034,13,7*4B
$GAGSV,3,1,09,02,00,179,,04,09,322,,07,11,134,,11,09,227,,2*71
$GAGSV,3,2,09,12,61,237,35,18,50,265,31,19,63,342,,26,11,044,,2*79
$GAGSV,3,3,09,33,62,034,,2*4C
$GBGSV,3,1,10,01,29,321,,03,12,292,,04,37,345,,08,49,229,27,1*7D
$GBGSV,3,2,10,10,00,282,,12,66,330,22,13,23,233,18,19,28,123,17,1*70
$GBGSV,3,3,10,21,41,301,35,22,82,135,16,1*7F
$GBGSV,3,1,10,01,29,321,,03,12,292,,04,37,345,,08,49,229,,*49
$GBGSV,3,2,10,10,00,282,,12,66,330,,13,23,233,,19,28,123,,*4E
$GBGSV,3,3,10,21,41,301,,22,82,135,,*4F
$GNGLL,4552.65401,S,17030.00669,E,004009.00,A,A*6B
$GNGST,004009.00,204866,,,,2.3,3.5,4.1*48
$GNZDA,004009.00,12,04,2019,00,00*78
$GNGBS,004009.00,2.3,3.5,4.1,,,,,,*50
$GNRMC,004010.00,A,4552.65401,S,17030.00667,E,0.015,,120419,,,A,V*05
$GNVTG,,T,,M,0.015,N,0.029,K,A*32
$GNGGA,004010.00,4552.65401,S,17030.00667,E,1,12,0.72,14.5,M,1.8,M,,*57
$GNGSA,A,3,13,16,21,10,29,27,20,,,,,,1.17,0.72,0.93,1*02
$GNGSA,A,3,82,66,81,,,,,,,,,,1.17,0.72,0.93,2*09
$GNGSA,A,3,07,12,33,,,,,,,,,,1.17,0.72,0.93,3*0F
$GNGSA,A,3,13,12,22,19,08,21,,,,,,,1.17,0.72,0.93,4*0E
$GPGSV,3,1,12,05,06,110,19,10,24,284,34,13,37,124,30,15,63,083,08,1*60
$GPGSV,3,2,12,16,11,248,11,20,52,273,34,21,80,232,30,24,08,046,,1*6C
$GPGSV,3,3,12,26,03,276,,27,16,218,31,29,23,004,16,30,00,160,,1*65
$GPGSV,3,1,12,05,06,110,,10,24,284,,13,37,124,,15,63,083,,6*63
$GPGSV,3,2,12,16,11,248,,20,52,273,,21,80,232,,24,08,046,,6*6F
$GPGSV,3,3,12,26,03,276,,27,16,218,29,29,23,004,,30,00,160,,6*6C
$GLGSV,3,1,10,65,53,144,,66,58,305,33,67,06,313,,72,09,137,,1*7B
$GLGSV,3,2,10,73,06,174,,74,05,132,,81,64,223,35,82,13,214,32,1*7E
$GLGSV,3,3,10,87,14,030,,88,62,024,,1*72
$GLGSV,3,1,10,65,53,144,,66,58,305,33,67,06,313,,72,09,137,,3*79
$GLGSV,3,2,10,73,06,174,,74,05,132,,81,64,223,36,82,13,214,33,3*7E
$GLGSV,3,3,10,87,14,030,,88,62,024,,3*70
$GAGSV,3,1,09,02,00,179,,04,09,322,,07,11,134,10,11,09,227,,7*75
$GAGSV,3,2,09,12,61,237,30,18,50,265,31,19,63,342,,26,11,044,,7*79
$GAGSV,3,3,09,33,62,034,08,7*41
$GAGSV,3,1,09,02,00,179,,04,09,322,,07,11,134,,11,09,227,,2*71
$GAGSV,3,2,09,12,61,237,35,18,50,265,31,19,63,342,,26,11,044,,2*79
$GAGSV,3,3,09,33,62,034,,2*4C
$GBGSV,3,1,10,01,29,321,,03,12,292,,04,37,345,,08,49,229,27,1*7D
$GBGSV,3,2,10,10,00,282,,12,66,330,21,13,23,233,18,19,28,123,15,1*71
$GBGSV,3,3,10,21,41,301,35,22,82,135,15,1*7C
$GBGSV,3,1,10,01,29,321,,03,12,292,,04,37,345,,08,49,229,,*49
$GBGSV,3,2,10,10,00,282,,12,66,330,,13,23,233,,19,28,123,,*4E
$GBGSV,3,3,10,21,41,301,,22,82,135,,*4F
$GNGLL,4552.65401,S,17030.00667,E,004010.00,A,A*6D
$GNGST,004010.00,43,,,,2.3,3.5,4.1*49
$GNZDA,004010.00,12,04,2019,00,00*70
$GNGBS,004010.00,2.3,3.5,4.1,,,,,,*58
$GNRMC,004011.00,A,4552.65401,S,17030.00664,E,0.025,,120419,,,A,V*04
$GNVTG,,T,,M,0.025,N,0.046,K,A*38
$GNGGA,004011.00,4552.65401,S,17030.00664,E,1,12,0.65,14.6,M,1.8,M,,*50
$GNGSA,A,3,13,16,21,10,29,27,20,,,,,,1.06,0.65,0.84,1*02
$GNGSA,A,3,82,66,81,,,,,,,,,,1.06,0.65,0.84,2*09
$GNGSA,A,3,07,12,33,,,,,,,,,,1.06,0.65,0.84,3*0F
$GNGSA,A,3,13,12,22,19,08,21,,,,,,,1.06,0.65,0.84,4*0E
$GPGSV,3,1,12,05,06,110,19,10,24,284,34,13,37,124,31,15,63,083,08,1*61
$GPGSV,3,2,12,16,11,248,10,20,52,273,34,21,80,232,29,24,08,046,,1*65
$GPGSV,3,3,12,26,03,276,,27,16,218,32,29,23,004,17,30,00,160,,1*67
$GPGSV,3,1,12,05,06,110,,10,24,284,,13,37,124,,15,63,083,,6*63
$GPGSV,3,2,12,16,11,248,,20,52,273,,21,80,232,,24,08,046,,6*6F
$GPGSV,3,3,12,26,03,276,,27,16,218,30,29,23,004,,30,00,160,,6*64
$GLGSV,3,1,10,65,53,144,,66,58,305,33,67,06,313,,72,09,137,,1*7B
$GLGSV,3,2,10,73,06,174,,74,05,132,,81,64,223,35,82,13,214,32,1*7E
$GLGSV,3,3,10,87,14,030,,88,62,024,,1*72
$GLGSV,3,1,10,65,53,144,,66,58,305,33,67,06,313,,72,09,137,,3*79
$GLGSV,3,2,10,73,06,174,,74,05,132,,81,64,223,36,82,13,214,33,3*7E
$GLGSV,3,3,10,87,14,030,,88,62,024,,3*70
$GAGSV,3,1,09,02,00,179,,04,09,322,,07,11,134,10,11,09,227,,7*75
$GAGSV,3,2,09,12,61,237,30,18,50,265,31,19,63,342,,26,11,044,,7*79
$GAGSV,3,3,09,33,62,034,12,7*4A
$GAGSV,3,1,09,02,00,179,,04,09,322,,07,11,134,,11,09,227,,2*71
$GAGSV,3,2,09,12,61,237,35,18,50,265,31,19,63,342,,26,11,044,,2*79
$GAGSV,3,3,09,33,62,034,,2*4C
$GBGSV,3,1,10,01,29,321,,03,12,292,,04,37,345,,08,49,229,27,1*7D
$GBGSV,3,2,10,10,00,282,,12,66,330,21,13,23,233,18,19,28,123,14,1*70
$GBGSV,3,3,10,21,41,301,35,22,82,135,15,1*7C
$GBGSV,3,1,10,01,29,321,,03,12,292,,04,37,345,,08,49,229,,*49
$GBGSV,3,2,10,10,00,282,,12,66,330,,13,23,233,,19,28,123,,*4E
$GBGSV,3,3,10,21,41,301,,22,82,135,,*4F
$GNGLL,4552.65401,S,17030.00664,E,004011.00,A,A*6F
$GNGST,004011.00,199618,,,,2.3,3.5,4.1*41
$GNZDA,004011.00,12,04,2019,00,00*71
$GNGBS,004011.00,2.3,3.5,4.1,,,,,,*59
$GNRMC,004012.00,A,4552.65401,S,17030.00662,E,0.023,,120419,,,A,V*07
$GNVTG,,T,,M,0.023,N,0.042,K,A*3A
$GNGGA,004012.00,4552.65401,S,17030.00662,E,1,12,0.68,14.6,M,1.8,M,,*58
$GNGSA,A,3,13,16,21,15,10,29,27,20,,,,,1.14,0.68,0.92,1*0F
$GNGSA,A,3,82,66,81,,,,,,,,,,1.14,0.68,0.92,2*00
$GNGSA,A,3,07,12,33,,,,,,,,,,1.14,0.68,0.92,3*06
$GNGSA,A,3,13,12,22,19,08,21,,,,,,,1.14,0.68,0.92,4*07
$GPGSV,3,1,12,05,06,110,20,10,24,284,34,13,37,124,31,15,63,083,12,1*60
$GPGSV,3,2,12,16,11,248,12,20,52,273,34,21,80,232,30,24,08,046,,1*6F
$GPGSV,3,3,12,26,03,276,,27,16,218,31,29,23,004,17,30,00,160,,1*64
$GPGSV,3,1,12,05,06,110,,10,24,284,,13,37,124,,15,63,083,,6*63
$GPGSV,3,2,12,16,11,248,,20,52,273,,21,80,232,,24,08,046,,6*6F
$GPGSV,3,3,12,26,03,276,,27,16,218,30,29,23,004,,30,00,160,,6*64
$GLGSV,3,1,10,65,53,144,,66,58,305,33,67,06,313,,72,09,137,,1*7B
$GLGSV,3,2,10,73,06,174,,74,05,132,,81,64,223,35,82,13,214,32,1*7E
$GLGSV,3,3,10,87,14,030,,88,62,024,,1*72
$GLGSV,3,1,10,65,53,144,,66,58,305,33,67,06,313,,72,09,137,,3*79
$GLGSV,3,2,10,73,06,174,,74,05,132,,81,64,223,36,82,13,214,33,3*7E
$GLGSV,3,3,10,87,14,030,,88,62,024,,3*70
$GAGSV,3,1,09,02,00,179,,04,09,321,,07,11,134,10,11,09,227,,7*76
$GAGSV,3,2,09,12,61,237,31,18,50,265,31,19,63,342,,26,11,044,,7*78
$GAGSV,3,3,09,33,62,034,10,7*48
$GAGSV,3,1,09,02,00,179,,04,09,321,,07,11,134,,11,09,227,,2*72
$GAGSV,3,2,09,12,61,237,35,18,50,265,31,19,63,342,,26,11,044,,2*79
$GAGSV,3,3,09,33,62,034,,2*4C
$GBGSV,3,1,10,01,29,321,,03,12,292,,04,37,345,,08,49,229,27,1*7D
$GBGSV,3,2,10,10,00,282,,12,66,330,21,13,23,233,18,19,28,123,14,1*70
$GBGSV,3,3,10,21,41,301,35,22,82,135,15,1*7C
$GBGSV,3,1,10,01,29,321,,03,12,292,,04,37,345,,08,49,229,,*49
$GBGSV,3,2,10,10,00,282,,12,66,330,,13,23,233,,19,28,123,,*4E
$GBGSV,3,3,10,21,41,301,,22,82,135,,*4F
$GNGLL,4552.65401,S,17030.00662,E,004012.00,A,A*6A
$GNGST,004012.00,215784,,,,2.3,3.5,4.1*41
$GNZDA,004012.00,12,04,2019,00,00*72
$GNGBS,004012.00,2.3,3.5,4.1,,,,,,*5A
$GNRMC,004013.00,A,4552.65400,S,17030.00662,E,0.040,,120419,,,A,V*02
$GNVTG,,T,,M,0.040,N,0.074,K,A*3A
$GNGGA,004013.00,4552.65400,S,17030.00662,E,1,12,0.68,14.6,M,1.8,M,,*58
$GNGSA,A,3,13,16,21,15,10,29,27,20,,,,,1.12,0.68,0.89,1*03
$GNGSA,A,3,82,66,81,,,,,,,,,,1.12,0.68,0.89,2*0C
$GNGSA,A,3,07,12,33,,,,,,,,,,1.12,0.68,0.89,3*0A
$GNGSA,A,3,13,12,22,19,08,21,,,,,,,1.12,0.68,0.89,4*0B
$GPGSV,3,1,12,05,06,110,21,10,24,284,34,13,37,124,31,15,63,083,10,1*63
$GPGSV,3,2,12,16,11,248,13,20,52,273,34,21,80,232,30,24,08,046,,1*6E
$GPGSV,3,3,12,26,03,276,,27,16,218,31,29,23,004,17,30,00,160,,1*64
$GPGSV,3,1,12,05,06,110,,10,24,284,,13,37,124,,15,63,083,,6*63
$GPGSV,3,2,12,16,11,248,,20,52,273,,21,80,232,,24,08,046,,6*6F
$GPGSV,3,3,12,26,03,276,,27,16,218,30,29,23,004,,30,00,160,,6*64
$GLGSV,3,1,10,65,53,144,,66,58,305,33,67,06,313,,72,09,137,,1*7B
$GLGSV,3,2,10,73,06,174,,74,05,132,,81,64,223,35,82,13,214,32,1*7E
$GLGSV,3,3,10,87,14,030,,88,62,024,,1*72
$GLGSV,3,1,10,65,53,144,,66,58,305,33,67,06,313,,72,09,137,,3*79
$GLGSV,3,2,10,73,06,174,,74,05,132,,81,64,223,36,82,13,214,33,3*7E
$GLGSV,3,3,10,87,14,030,,88,62,024,,3*70
$GAGSV,3,1,09,02,00,179,,04,09,321,,07,11,134,10,11,09,227,,7*76
$GAGSV,3,2,09,12,61,237,30,18,50,265,31,19,63,342,,26,11,044,,7*79
$GAGSV,3,3,09,33,62,034,09,7*40
$GAGSV,3,1,09,02,00,179,,04,09,321,,07,11,134,,11,09,227,,2*72
$GAGSV,3,2,09,12,61,237,35,18,50,265,31,19,63,342,,26,11,044,,2*79
$GAGSV,3,3,09,33,62,034,,2*4C
$GBGSV,3,1,10,01,29,321,,03,12,292,,04,37,345,,08,49,229,27,1*7D
$GBGSV,3,2,10,10,00,282,,12,66,330,21,13,23,233,17,19,28,123,16,1*7D
$GBGSV,3,3,10,21,41,301,35,22,82,135,16,1*7F
$GBGSV,3,1,10,01,29,321,,03,12,292,,04,37,345,,08,49,229,,*49
$GBGSV,3,2,10,10,00,282,,12,66,330,,13,23,233,,19,28,123,,*4E
$GBGSV,3,3,10,21,41,301,,22,82,135,,*4F
$GNGLL,4552.65400,S,17030.00662,E,004013.00,A,A*6A
$GNGST,004013.00,45,,,,2.3,3.5,4.1*4C
$GNZDA,004013.00,12,04,2019,00,00*73
$GNGBS,004013.00,2.3,3.5,4.1,,,,,,*5B
$GNRMC,004014.00,A,4552.65400,S,17030.00662,E,0.041,,120419,,,A,V*04
$GNVTG,,T,,M,0.041,N,0.076,K,A*39
$GNGGA,004014.00,4552.65400,S,17030.00662,E,1,12,0.68,14.7,M,1.8,M,,*5E
$GNGSA,A,3,13,16,21,15,10,29,27,20,,,,,1.14,0.68,0.92,1*0F
$GNGSA,A,3,82,66,81,,,,,,,,,,1.14,0.68,0.92,2*00
$GNGSA,A,3,12,33,,,,,,,,,,,1.14,0.68,0.92,3*01
$GNGSA,A,3,13,12,22,19,08,21,,,,,,,1.14,0.68,0.92,4*07
$GPGSV,3,1,12,05,06,110,21,10,24,284,34,13,37,124,31,15,63,083,14,1*67
$GPGSV,3,2,12,16,11,248,08,20,52,273,34,21,80,232,30,24,08,046,,1*64
$GPGSV,3,3,12,26,03,276,,27,16,218,32,29,23,004,18,30,00,160,,1*68
$GPGSV,3,1,12,05,06,110,,10,24,284,,13,37,124,,15,63,083,,6*63
$GPGSV,3,2,12,16,11,248,,20,52,273,,21,80,232,,24,08,046,,6*6F
$GPGSV,3,3,12,26,03,276,,27,16,218,30,29,23,004,,30,00,160,,6*64
$GLGSV,3,1,10,65,53,144,,66,58,305,33,67,06,313,,72,09,137,,1*7B
$GLGSV,3,2,10,73,06,174,,74,05,132,,81,64,223,35,82,13,214,32,1*7E
$GLGSV,3,3,10,87,14,030,,88,62,024,,1*72
$GLGSV,3,1,10,65,53,144,,66,58,305,33,67,06,313,,72,09,137,,3*79
$GLGSV,3,2,10,73,06,174,,74,05,132,,81,64,223,36,82,13,214,33,3*7E
$GLGSV,3,3,10,87,14,030,,88,62,024,,3*70
$GAGSV,3,1,09,02,00,179,,04,09,321,,07,11,134,07,11,09,227,,7*70
$GAGSV,3,2,09,12,61,237,30,18,50,265,31,19,63,342,,26,11,044,,7*79
$GAGSV,3,3,09,33,62,034,10,7*48
$GAGSV,3,1,09,02,00,179,,04,09,321,,07,11,134,,11,09,227,,2*72
$GAGSV,3,2,09,12,61,237,35,18,50,265,31,19,63,342,,26,11,044,,2*79
$GAGSV,3,3,09,33,62,034,,2*4C
$GBGSV,3,1,10,01,29,321,,03,12,292,,04,37,345,,08,49,229,27,1*7D
$GBGSV,3,2,10,10,00,282,,12,66,330,21,13,23,233,17,19,28,123,17,1*7C
$GBGSV,3,3,10,21,41,301,35,22,82,135,17,1*7E
$GBGSV,3,1,10,01,29,321,,03,12,292,,04,37,345,,08,49,229,,*49
$GBGSV,3,2,10,10,00,282,,12,66,330,,13,23,233,,19,28,123,,*4E
$GBGSV,3,3,10,21,41,301,,22,82,135,,*4F
$GNGLL,4552.65400,S,17030.00662,E,004014.00,A,A*6D
$GNGST,004014.00,239130,,,,2.3,3.5,4.1*40
$GNZDA,004014.00,12,04,2019,00,00*74
$GNGBS,004014.00,2.3,3.5,4.1,,,,,,*5C
$GNRMC,004015.00,A,4552.65401,S,17030.00659,E,0.029,,120419,,,A,V*02
$GNVTG,,T,,M,0.029,N,0.053,K,A*30
$GNGGA,004015.00,4552.65401,S,17030.00659,E,1,12,0.64,14.8,M,1.8,M,,*55
$GNGSA,A,3,13,16,21,15,10,29,27,20,,,,,1.05,0.64,0.83,1*03
$GNGSA,A,3,82,66,81,,,,,,,,,,1.05,0.64,0.83,2*0C
$GNGSA,A,3,07,12,33,,,,,,,,,,1.05,0.64,0.83,3*0A
$GNGSA,A,3,13,12,22,19,08,21,,,,,,,1.05,0.64,0.83,4*0B
$GPGSV,3,1,12,05,06,110,22,10,24,284,34,13,37,124,31,15,63,083,17,1*67
$GPGSV,3,2,12,16,11,248,11,20,52,273,34,21,80,232,29,24,08,046,,1*64
$GPGSV,3,3,12,26,03,276,,27,16,218,32,29,23,004,18,30,00,160,,1*68
$GPGSV,3,1,12,05,06,110,,10,24,284,,13,37,124,,15,63,083,,6*63
$GPGSV,3,2,12,16,11,248,,20,52,273,,21,80,232,,24,08,046,,6*6F
$GPGSV,3,3,12,26,03,276,,27,16,218,29,29,23,004,,30,00,160,,6*6C
$GLGSV,3,1,10,65,53,144,,66,58,305,33,67,06,313,,72,09,137,,1*7B
$GLGSV,3,2,10,73,06,174,,74,05,132,,81,64,223,35,82,13,214,32,1*7E
$GLGSV,3,3,10,87,14,030,,88,62,024,,1*72
$GLGSV,3,1,10,65,53,144,,66,58,305,33,67,06,313,,72,09,137,20,3*7B
$GLGSV,3,2,10,73,06,174,,74,05,132,,81,64,223,36,82,13,214,33,3*7E
$GLGSV,3,3,10,87,14,030,,88,62,024,,3*70
$GAGSV,3,1,09,02,00,179,,04,09,321,,07,11,134,10,11,09,227,,7*76
$GAGSV,3,2,09,12,61,237,30,18,50,265,31,19,63,342,,26,11,044,,7*79
$GAGSV,3,3,09,33,62,034,08,7*41
$GAGSV,3,1,09,02,00,179,,04,09,321,,07,11,134,,11,09,227,,2*72
$GAGSV,3,2,09,12,61,237,35,18,50,265,31,19,63,342,,26,11,044,,2*79
$GAGSV,3,3,09,33,62,034,,2*4C
$GBGSV,3,1,10,01,29,321,,03,12,292,,04,37,345,,08,49,229,27,1*7D
$GBGSV,3,2,10,10,00,282,,12,66,330,21,13,23,233,17,19,28,123,16,1*7D
$GBGSV,3,3,10,21,41,301,35,22,82,135,18,1*71
$GBGSV,3,1,10,01,29,321,,03,12,292,,04,37,345,,08,49,229,,*49
$GBGSV,3,2,10,10,00,282,,12,66,330,,13,23,233,,19,28,123,,*4E
$GBGSV,3,3,10,21,41,301,,22,82,135,,*4F
$GNGLL,4552.65401,S,17030.00659,E,004015.00,A,A*65
$GNGST,004015.00,402845,,,,2.3,3.5,4.1*44
$GNZDA,004015.00,12,04,2019,00,00*75
$GNGBS,004015.00,2.3,3.5,4.1,,,,,,*5D
$GNRMC,004016.00,A,4552.65400,S,17030.00658,E,0.073,,120419,,,A,V*0E
$GNVTG,,T,,M,0.073,N,0.135,K,A*3E
$GNGGA,004016.00,4552.65400,S,17030.00658,E,1,12,0.74,14.8,M,1.8,M,,*57
$GNGSA,A,3,13,16,21,15,10,29,27,20,,,,,1.21,0.74,0.95,1*03
$GNGSA,A,3,82,66,81,,,,,,,,,,1.21,0.74,0.95,2*0C
$GNGSA,A,3,07,12,33,,,,,,,,,,1.21,0.74,0.95,3*0A
$GNGSA,A,3,13,12,22,19,08,21,,,,,,,1.21,0.74,0.95,4*0B
$GPGSV,3,1,12,05,06,110,22,10,24,284,34,13,37,124,30,15,63,083,12,1*63
$GPGSV,3,2,12,16,11,248,12,20,52,273,34,21,80,232,29,24,08,046,,1*67
$GPGSV,3,3,12,26,03,276,,27,16,218,32,29,23,004,18,30,00,160,,1*68
$GPGSV,3,1,12,05,06,110,,10,24,284,,13,37,124,,15,63,083,,6*63
$GPGSV,3,2,12,16,11,248,,20,52,273,,21,80,232,,24,08,046,,6*6F
$GPGSV,3,3,12,26,03,276,,27,16,218,30,29,23,004,,30,00,160,,6*64
$GLGSV,3,1,10,65,53,144,,66,58,305,33,67,06,313,,72,09,137,,1*7B
$GLGSV,3,2,10,73,06,174,,74,05,132,,81,64,223,35,82,13,214,32,1*7E
$GLGSV,3,3,10,87,14,030,,88,62,024,,1*72
$GLGSV,3,1,10,65,53,144,,66,58,305,33,67,06,313,,72,09,137,19,3*71
$GLGSV,3,2,10,73,06,174,,74,05,132,,81,64,223,36,82,13,214,33,3*7E
$GLGSV,3,3,10,87,14,030,,88,62,024,,3*70
$GAGSV,3,1,09,02,00,179,,04,09,321,,07,11,134,10,11,09,227,,7*76
$GAGSV,3,2,09,12,61,237,30,18,50,265,31,19,63,342,,26,11,044,,7*79
$GAGSV,3,3,09,33,62,034,12,7*4A
$GAGSV,3,1,09,02,00,179,,04,09,321,,07,11,134,,11,09,227,,2*72
$GAGSV,3,2,09,12,61,237,35,18,50,265,31,19,63,342,,26,11,044,,2*79
$GAGSV,3,3,09,33,62,034,,2*4C
$GBGSV,3,1,10,01,29,321,,03,12,292,,04,37,345,,08,49,229,27,1*7D
$GBGSV,3,2,10,10,00,282,,12,66,330,20,13,23,233,17,19,28,123,15,1*7F
$GBGSV,3,3,10,21,41,301,35,22,82,135,18,1*71
$GBGSV,3,1,10,01,29,321,,03,12,292,,04,37,345,,08,49,229,,*49
$GBGSV,3,2,10,10,00,282,,12,66,330,,13,23,233,,19,28,123,,*4E
$GBGSV,3,3,10,21,41,301,,22,82,135,,*4F
$GNGLL,4552.65400,S,17030.00658,E,004016.00,A,A*66
$GNGST,004016.00,54,,,,2.3,3.5,4.1*49
$GNZDA,004016.00,12,04,2019,00,00*76
$GNGBS,004016.00,2.3,3.5,4.1,,,,,,*5E
$GNRMC,004017.00,A,4552.65400,S,17030.00659,E,0.049,,120419,,,A,V*07
$GNVTG,,T,,M,0.049,N,0.090,K,A*39
$GNGGA,004017.00,4552.65400,S,17030.00659,E,1,12,0.73,14.8,M,1.8,M,,*50
$GNGSA,A,3,13,16,21,15,10,29,27,20,,,,,1.18,0.73,0.92,1*09
$GNGSA,A,3,82,66,81,,,,,,,,,,1.18,0.73,0.92,2*06
$GNGSA,A,3,07,12,33,,,,,,,,,,1.18,0.73,0.92,3*00
$GNGSA,A,3,13,12,22,19,08,21,,,,,,,1.18,0.73,0.92,4*01
$GPGSV,3,1,12,05,06,110,21,10,24,284,34,13,37,124,30,15,63,083,16,1*64
$GPGSV,3,2,12,16,11,248,14,20,52,273,34,21,80,232,29,24,08,046,,1*61
$GPGSV,3,3,12,26,03,276,,27,16,218,32,29,23,004,17,30,00,160,,1*67
$GPGSV,3,1,12,05,06,110,,10,24,284,,13,37,124,,15,63,083,,6*63
$GPGSV,3,2,12,16,11,248,,20,52,273,,21,80,232,,24,08,046,,6*6F
$GPGSV,3,3,12,26,03,276,,27,16,218,30,29,23,004,,30,00,160,,6*64
$GLGSV,3,1,10,65,53,144,,66,58,305,33,67,06,313,,72,09,137,,1*7B
$GLGSV,3,2,10,73,06,174,,74,05,132,,81,64,223,35,82,13,214,32,1*7E
$GLGSV,3,3,10,87,14,030,,88,62,024,,1*72
$GLGSV,3,1,10,65,53,144,,66,58,305,33,67,06,313,,72,09,137,18,3*70
$GLGSV,3,2,10,73,06,174,,74,05,132,,81,64,223,35,82,13,214,33,3*7D
$GLGSV,3,3,10,87,14,030,,88,62,024,,3*70
$GAGSV,3,1,09,02,00,179,,04,09,321,,07,11,134,08,11,10,227,,7*77
$GAGSV,3,2,09,12,61,237,30,18,50,265,31,19,63,342,,26,11,044,,7*79
$GAGSV,3,3,09,33,62,034,10,7*48
$GAGSV,3,1,09,02,00,179,,04,09,321,,07,11,134,,11,10,227,,2*7A
$GAGSV,3,2,09,12,61,237,35,18,50,265,31,19,63,342,,26,11,044,,2*79
$GAGSV,3,3,09,33,62,034,,2*4C
$GBGSV,3,1,10,01,29,321,,03,12,292,,04,37,345,,08,49,229,27,1*7D
$GBGSV,3,2,10,10,00,282,,12,66,330,20,13,23,233,17,19,28,123,15,1*7F
$GBGSV,3,3,10,21,41,301,35,22,82,135,17,1*7E
$GBGSV,3,1,10,01,29,321,,03,12,292,,04,37,345,,08,49,229,,*49
$GBGSV,3,2,10,10,00,282,,12,66,330,,13,23,233,,19,28,123,,*4E
$GBGSV,3,3,10,21,41,301,,22,82,135,,*4F
$GNGLL,4552.65400,S,17030.00659,E,004017.00,A,A*66
$GNGST,004017.00,191967,,,,2.3,3.5,4.1*48
$GNZDA,004017.00,12,04,2019,00,00*77
$GNGBS,004017.00,2.3,3.5,4.1,,,,,,*5F
$GNRMC,004018.00,A,4552.65399,S,17030.00659,E,0.015,,120419,,,A,V*06
$GNVTG,,T,,M,0.015,N,0.027,K,A*3C
$GNGGA,004018.00,4552.65399,S,17030.00659,E,1,12,0.76,14.8,M,1.8,M,,*5D
$GNGSA,A,3,13,16,21,15,10,29,27,20,,,,,1.20,0.76,0.92,1*07
$GNGSA,A,3,82,66,81,,,,,,,,,,1.20,0.76,0.92,2*08
$GNGSA,A,3,07,12,,,,,,,,,,,1.20,0.76,0.92,3*0E
$GNGSA,A,3,13,12,22,19,08,21,,,,,,,1.20,0.76,0.92,4*0F
$GPGSV,3,1,12,05,06,110,22,10,24,284,34,13,37,124,30,15,63,083,15,1*64
$GPGSV,3,2,12,16,11,248,17,20,52,273,34,21,80,232,29,24,08,046,,1*62
$GPGSV,3,3,12,26,03,276,,27,16,218,32,29,23,004,18,30,00,160,,1*68
$GPGSV,3,1,12,05,06,110,,10,24,284,,13,37,124,,15,63,083,,6*63
$GPGSV,3,2,12,16,11,248,,20,52,273,,21,80,232,,24,08,046,,6*6F
$GPGSV,3,3,12,26,03,276,,27,16,218,30,29,23,004,,30,00,160,,6*64
$GLGSV,3,1,10,65,53,144,,66,58,305,33,67,06,313,,72,09,137,,1*7B
$GLGSV,3,2,10,73,06,174,,74,05,132,,81,64,223,35,82,13,214,32,1*7E
$GLGSV,3,3,10,87,14,030,,88,62,024,,1*72
$GLGSV,3,1,10,65,53,144,,66,58,305,33,67,06,313,,72,09,137,17,3*7F
$GLGSV,3,2,10,73,06,174,,74,05,132,,81,64,223,35,82,13,214,33,3*7D
$GLGSV,3,3,10,87,14,030,,88,62,024,,3*70
$GAGSV,3,1,09,02,00,179,,04,09,321,,07,11,134,09,11,10,227,,7*76
$GAGSV,3,2,09,12,62,237,30,18,50,265,31,19,63,342,,26,11,044,,7*7A
$GAGSV,3,3,09,33,62,034,06,7*4F
$GAGSV,3,1,09,02,00,179,,04,09,321,,07,11,134,,11,10,227,,2*7A
$GAGSV,3,2,09,12,62,237,35,18,50,265,31,19,63,342,,26,11,044,,2*7A
$GAGSV,3,3,09,33,62,034,,2*4C
$GBGSV,3,1,10,01,29,321,,03,12,292,,04,37,345,,08,49,229,27,1*7D
$GBGSV,3,2,10,10,00,282,,12,66,330,21,13,23,233,17,19,28,123,16,1*7D
$GBGSV,3,3,10,21,41,301,35,22,82,135,17,1*7E
$GBGSV,3,1,10,01,29,321,,03,12,292,,04,37,345,,08,49,229,,*49
$GBGSV,3,2,10,10,00,282,,12,66,330,,13,23,233,,19,28,123,,*4E
$GBGSV,3,3,10,21,41,301,,22,82,135,,*4F
$GNGLL,4552.65399,S,17030.00659,E,004018.00,A,A*6E
$GNGST,004018.00,289724,,,,2.4,3.5,4.1*43
$GNZDA,004018.00,12,04,2019,00,00*78
$GNGBS,004018.00,2.4,3.5,4.1,,,,,,*57
$GNRMC,004019.00,A,4552.65399,S,17030.00660,E,0.031,,120419,,,A,V*0B
$GNVTG,,T,,M,0.031,N,0.057,K,A*3D
$GNGGA,004019.00,4552.65399,S,17030.00660,E,1,12,0.86,14.8,M,1.8,M,,*59
$GNGSA,A,3,13,21,10,29,27,20,,,,,,,1.38,0.86,1.08,1*00
$GNGSA,A,3,82,66,81,,,,,,,,,,1.38,0.86,1.08,2*0C
$GNGSA,A,3,07,12,33,,,,,,,,,,1.38,0.86,1.08,3*0A
$GNGSA,A,3,13,12,22,19,08,21,,,,,,,1.38,0.86,1.08,4*0B
$GPGSV,3,1,12,05,06,110,20,10,24,284,34,13,37,124,30,15,63,083,06,1*64
$GPGSV,3,2,12,16,11,248,09,20,52,273,34,21,80,232,29,24,08,046,,1*6D
$GPGSV,3,3,12,26,03,276,,27,16,218,32,29,23,004,20,30,00,160,,1*63
$GPGSV,3,1,12,05,06,110,,10,24,284,,13,37,124,,15,63,083,,6*63
$GPGSV,3,2,12,16,11,248,,20,52,273,,21,80,232,,24,08,046,,6*6F
$GPGSV,3,3,12,26,03,276,,27,16,218,30,29,23,004,,30,00,160,,6*64
$GLGSV,3,1,10,65,53,144,,66,58,305,33,67,06,313,,72,09,137,,1*7B
$GLGSV,3,2,10,73,06,174,,74,05,132,,81,64,223,35,82,13,214,33,1*7F
$GLGSV,3,3,10,87,14,030,,88,62,024,,1*72
$GLGSV,3,1,10,65,53,144,,66,58,305,33,67,06,313,,72,09,137,16,3*7E
$GLGSV,3,2,10,73,06,174,,74,05,132,,81,64,223,35,82,13,214,33,3*7D
$GLGSV,3,3,10,87,14,030,,88,62,024,,3*70
$GAGSV,3,1,09,02,00,179,,04,09,321,,07,11,134,09,11,10,227,,7*76
$GAGSV,3,2,09,12,62,237,30,18,50,265,31,19,63,342,,26,11,044,,7*7A
$GAGSV,3,3,09,33,62,034,12,7*4A
$GAGSV,3,1,09,02,00,179,,04,09,321,,07,11,134,,11,10,227,,2*7A
$GAGSV,3,2,09,12,62,237,35,18,50,265,30,19,63,342,,26,11,044,,2*7B
$GAGSV,3,3,09,33,62,034,,2*4C
$GBGSV,3,1,10,01,29,321,,03,12,292,,04,37,345,,08,49,229,27,1*7D
$GBGSV,3,2,10,10,00,282,,12,66,330,21,13,23,233,18,19,28,123,15,1*71
$GBGSV,3,3,10,21,41,301,35,22,82,135,16,1*7F
$GBGSV,3,1,10,01,29,321,,03,12,292,,04,37,345,,08,49,229,,*49
$GBGSV,3,2,10,10,00,282,,12,66,330,,13,23,233,,19,28,123,,*4E
$GBGSV,3,3,10,21,41,301,,22,82,135,,*4F
$GNGLL,4552.65399,S,17030.00660,E,004019.00,A,A*65
$GNGST,004019.00,40,,,,2.4,3.5,4.1*44
$GNZDA,004019.00,12,04,2019,00,00*79
$GNGBS,004019.00,2.4,3.5,4.1,,,,,,*56
$GNRMC,004020.00,A,4552.65398,S,17030.00660,E,0.101,,120419,,,A,V*02
$GNVTG,,T,,M,0.101,N,0.187,K,A*33
$GNGGA,004020.00,4552.65398,S,17030.00660,E,1,12,0.76,14.8,M,1.8,M,,*5D
$GNGSA,A,3,13,21,10,29,27,20,,,,,,,1.22,0.76,0.96,1*02
$GNGSA,A,3,82,66,81,,,,,,,,,,1.22,0.76,0.96,2*0E
$GNGSA,A,3,07,12,33,,,,,,,,,,1.22,0.76,0.96,3*08
$GNGSA,A,3,13,12,22,19,08,21,,,,,,,1.22,0.76,0.96,4*09
$GPGSV,3,1,12,05,06,110,20,10,24,284,33,13,37,124,30,15,63,083,09,1*6C
$GPGSV,3,2,12,16,11,248,09,20,52,273,34,21,80,232,29,24,08,046,,1*6D
$GPGSV,3,3,12,26,03,276,,27,16,218,32,29,23,004,20,30,00,160,,1*63
$GPGSV,3,1,12,05,06,110,,10,24,284,,13,37,124,,15,63,083,,6*63
$GPGSV,3,2,12,16,11,248,,20,52,273,,21,80,232,,24,08,046,,6*6F
$GPGSV,3,3,12,26,03,276,,27,16,218,30,29,23,004,,30,00,160,,6*64
$GLGSV,3,1,10,65,53,144,,66,58,305,33,67,06,313,,72,09,137,,1*7B
$GLGSV,3,2,10,73,06,174,,74,05,132,,81,64,223,35,82,13,214,32,1*7E
$GLGSV,3,3,10,87,14,030,,88,62,024,,1*72
$GLGSV,3,1,10,65,53,144,,66,58,305,33,67,06,313,,72,09,137,16,3*7E
$GLGSV,3,2,10,73,06,174,,74,05,132,,81,64,223,35,82,13,214,33,3*7D
$GLGSV,3,3,10,87,14,030,,88,62,024,,3*70
$GAGSV,3,1,09,02,00,179,,04,09,321,,07,11,134,07,11,10,227,,7*78
$GAGSV,3,2,09,12,62,237,30,18,50,265,31,19,63,342,,26,11,044,,7*7A
$GAGSV,3,3,09,33,62,034,11,7*49
$GAGSV,3,1,09,02,00,179,,04,09,321,,07,11,134,,11,10,227,,2*7A
$GAGSV,3,2,09,12,62,237,35,18,50,265,31,19,63,342,,26,11,044,,2*7A
$GAGSV,3,3,09,33,62,034,,2*4C
$GBGSV,3,1,10,01,29,321,,03,12,292,,04,37,345,,08,49,229,27,1*7D
$GBGSV,3,2,10,10,00,282,,12,66,330,21,13,23,233,18,19,28,123,16,1*72
$GBGSV,3,3,10,21,41,301,35,22,82,135,16,1*7F
$GBGSV,3,1,10,01,29,321,,03,12,292,,04,37,345,,08,49,229,,*49
$GBGSV,3,2,10,10,00,282,,12,66,330,,13,23,233,,19,28,123,,*4E
$GBGSV,3,3,10,21,41,301,,22,82,135,,*4F
$GNGLL,4552.65398,S,17030.00660,E,004020.00,A,A*6E
$GNGST,004020.00,198705,,,,2.4,3.5,4.2*4B
$GNZDA,004020.00,12,04,2019,00,00*73
$GNGBS,004020.00,2.4,3.5,4.2,,,,,,*5F
$GNRMC,004021.00,A,4552.65398,S,17030.00662,E,0.030,,120419,,,A,V*02
$GNVTG,,T,,M,0.030,N,0.055,K,A*3E
$GNGGA,004021.00,4552.65398,S,17030.00662,E,1,12,0.73,14.8,M,1.8,M,,*5B
$GNGSA,A,3,13,16,21,15,10,29,27,20,,,,,1.18,0.73,0.92,1*09
$GNGSA,A,3,82,66,81,,,,,,,,,,1.18,0.73,0.92,2*06
$GNGSA,A,3,07,12,33,,,,,,,,,,1.18,0.73,0.92,3*00
$GNGSA,A,3,13,12,22,19,08,21,,,,,,,1.18,0.73,0.92,4*01
$GPGSV,3,1,12,05,06,110,19,10,24,284,33,13,37,124,30,15,63,083,11,1*6F
$GPGSV,3,2,12,16,11,248,13,20,52,273,34,21,80,232,29,24,08,046,,1*66
$GPGSV,3,3,12,26,03,276,,27,16,218,32,29,23,004,19,30,00,160,,1*69
$GPGSV,3,1,12,05,06,110,,10,24,284,,13,37,124,,15,63,083,,6*63
$GPGSV,3,2,12,16,11,248,,20,52,273,,21,80,232,,24,08,046,,6*6F
$GPGSV,3,3,12,26,03,276,,27,16,218,29,29,23,004,,30,00,160,,6*6C
$GLGSV,3,1,10,65,53,144,,66,58,305,33,67,06,313,,72,09,137,,1*7B
$GLGSV,3,2,10,73,06,174,,74,05,132,,81,64,223,35,82,13,214,32,1*7E
$GLGSV,3,3,10,87,14,030,,88,62,024,,1*72
$GLGSV,3,1,10,65,53,144,,66,58,305,33,67,06,313,,72,09,137,16,3*7E
$GLGSV,3,2,10,73,06,174,,74,05,132,,81,64,223,35,82,13,214,33,3*7D
$GLGSV,3,3,10,87,14,030,,88,62,024,,3*70
$GAGSV,3,1,09,02,00,179,,04,09,321,,07,11,134,12,11,10,227,,7*7C
$GAGSV,3,2,09,12,62,237,30,18,50,266,31,19,63,342,,26,11,044,,7*79
$GAGSV,3,3,09,33,62,034,11,7*49
$GAGSV,3,1,09,02,00,179,,04,09,321,,07,11,134,,11,10,227,,2*7A
$GAGSV,3,2,09,12,62,237,35,18,50,266,30,19,63,342,,26,11,044,,2*78
$GAGSV,3,3,09,33,62,034,,2*4C
$GBGSV,3,1,10,01,29,321,,03,12,292,,04,37,345,,08,49,229,27,1*7D
$GBGSV,3,2,10,10,00,282,,12,66,330,21,13,23,233,18,19,28,123,17,1*73
$GBGSV,3,3,10,21,41,301,35,22,82,135,16,1*7F
$GBGSV,3,1,10,01,29,321,,03,12,292,,04,37,345,,08,49,229,,*49
$GBGSV,3,2,10,10,00,282,,12,66,330,,13,23,233,,19,28,123,,*4E
$GBGSV,3,3,10,21,41,301,,22,82,135,,*4F
$GNGLL,4552.65398,S,17030.00662,E,004021.00,A,A*6D
$GNGST,004021.00,284854,,,,2.4,3.5,4.2*4F
$GNZDA,004021.00,12,04,2019,00,00*72
$GNGBS,004021.00,2.4,3.5,4.2,,,,,,*5E
$GNRMC,004022.00,A,4552.65396,S,17030.00666,E,0.039,,120419,,,A,V*02
$GNVTG,,T,,M,0.039,N,0.072,K,A*32
$GNGGA,004022.00,4552.65396,S,17030.00666,E,1,12,0.76,14.8,M,1.8,M,,*57
$GNGSA,A,3,13,16,21,15,10,29,27,20,,,,,1.20,0.76,0.92,1*07
$GNGSA,A,3,82,66,81,,,,,,,,,,1.20,0.76,0.92,2*08
$GNGSA,A,3,07,12,33,,,,,,,,,,1.20,0.76,0.92,3*0E
$GNGSA,A,3,13,12,22,19,08,21,,,,,,,1.20,0.76,0.92,4*0F
$GPGSV,3,1,12,05,06,110,18,10,24,284,33,13,37,124,30,15,63,083,12,1*6D
$GPGSV,3,2,12,16,11,248,14,20,52,273,34,21,80,232,29,24,08,046,,1*61
$GPGSV,3,3,12,26,03,276,,27,16,218,32,29,23,004,19,30,00,160,,1*69
$GPGSV,3,1,12,05,06,110,,10,24,284,20,13,37,124,,15,63,083,,6*61
$GPGSV,3,2,12,16,11,248,,20,52,273,,21,80,232,,24,08,046,,6*6F
$GPGSV,3,3,12,26,03,276,,27,16,218,29,29,23,004,,30,00,160,,6*6C
$GLGSV,3,1,10,65,53,144,,66,58,305,33,67,06,313,,72,09,137,,1*7B
$GLGSV,3,2,10,73,06,174,,74,05,132,,81,64,223,35,82,13,214,32,1*7E
$GLGSV,3,3,10,87,14,030,,88,62,024,,1*72
$GLGSV,3,1,10,65,53,144,,66,58,305,34,67,06,313,,72,09,137,16,3*79
$GLGSV,3,2,10,73,06,174,,74,05,132,,81,64,223,35,82,13,214,33,3*7D
$GLGSV,3,3,10,87,14,030,,88,62,024,,3*70
$GAGSV,3,1,09,02,00,179,,04,09,321,,07,11,134,10,11,10,227,,7*7E
$GAGSV,3,2,09,12,62,237,30,18,50,266,31,19,64,342,,26,11,044,,7*7E
$GAGSV,3,3,09,33,62,034,09,7*40
$GAGSV,3,1,09,02,00,179,,04,09,321,,07,11,134,,11,10,227,,2*7A
$GAGSV,3,2,09,12,62,237,35,18,50,266,31,19,64,342,,26,11,044,,2*7E
$GAGSV,3,3,09,33,62,034,,2*4C
$GBGSV,3,1,10,01,29,321,,03,12,292,,04,37,345,,08,49,229,27,1*7D
$GBGSV,3,2,10,10,00,282,,12,66,330,20,13,23,233,17,19,28,123,18,1*72
$GBGSV,3,3,10,21,41,301,35,22,82,135,14,1*7D
$GBGSV,3,1,10,01,29,321,,03,12,292,,04,37,345,,08,49,229,,*49
$GBGSV,3,2,10,10,00,282,,12,66,330,,13,23,233,,19,28,123,,*4E
$GBGSV,3,3,10,21,41,301,,22,82,135,,*4F
$GNGLL,4552.65396,S,17030.00666,E,004022.00,A,A*64
$GNGST,004022.00,48,,,,2.4,3.5,4.2*47
$GNZDA,004022.00,12,04,2019,00,00*71
$GNGBS,004022.00,2.4,3.5,4.2,,,,,,*5D
$GNRMC,004023.00,A,4552.65395,S,17030.00667,E,0.010,,120419,,,A,V*0A
$GNVTG,,T,,M,0.010,N,0.019,K,A*34
$GNGGA,004023.00,4552.65395,S,17030.00667,E,1,12,0.73,14.8,M,1.8,M,,*51
$GNGSA,A,3,13,16,21,15,10,29,27,20,,,,,1.18,0.73,0.92,1*09
$GNGSA,A,3,82,66,81,,,,,,,,,,1.18,0.73,0.92,2*06
$GNGSA,A,3,07,12,33,,,,,,,,,,1.18,0.73,0.92,3*00
$GNGSA,A,3,13,12,22,19,08,21,,,,,,,1.18,0.73,0.92,4*01
$GPGSV,3,1,12,05,06,110,18,10,24,284,33,13,37,124,30,15,63,083,12,1*6D
$GPGSV,3,2,12,16,11,248,13,20,52,273,34,21,80,232,29,24,08,046,,1*66
$GPGSV,3,3,12,26,03,276,,27,16,218,32,29,23,004,19,30,00,160,,1*69
$GPGSV,3,1,12,05,06,110,,10,24,284,19,13,37,124,,15,63,083,,6*6B
$GPGSV,3,2,12,16,11,248,,20,52,273,,21,80,232,,24,08,046,,6*6F
$GPGSV,3,3,12,26,03,276,,27,16,218,30,29,23,004,,30,00,160,,6*64
$GLGSV,3,1,10,65,53,144,,66,58,305,33,67,06,313,,72,09,137,,1*7B
$GLGSV,3,2,10,73,06,174,,74,05,132,,81,64,223,35,82,13,214,33,1*7F
$GLGSV,3,3,10,87,14,030,,88,62,024,,1*72
$GLGSV,3,1,10,65,53,144,,66,58,305,34,67,06,313,,72,09,137,16,3*79
$GLGSV,3,2,10,73,06,174,,74,05,132,,81,64,223,35,82,13,214,33,3*7D
$GLGSV,3,3,10,87,14,030,,88,62,024,,3*70
$GAGSV,3,1,09,02,00,179,,04,09,321,,07,11,134,11,11,10,227,,7*7F
$GAGSV,3,2,09,12,62,237,30,18,50,266,31,19,64,342,,26,11,044,,7*7E
$GAGSV,3,3,09,33,62,034,12,7*4A
$GAGSV,3,1,09,02,00,179,,04,09,321,,07,11,134,,11,10,227,,2*7A
$GAGSV,3,2,09,12,62,237,35,18,50,266,31,19,64,342,,26,11,044,,2*7E
$GAGSV,3,3,09,33,62,034,,2*4C
$GBGSV,3,1,10,01,29,321,,03,12,292,,04,37,345,,08,49,229,27,1*7D
$GBGSV,3,2,10,10,00,282,,12,66,330,20,13,23,233,17,19,28,123,18,1*72
$GBGSV,3,3,10,21,41,301,35,22,82,135,14,1*7D
$GBGSV,3,1,10,01,29,321,,03,12,292,,04,37,345,,08,49,229,,*49
$GBGSV,3,2,10,10,00,282,,12,66,330,,13,23,233,,19,28,123,,*4E
$GBGSV,3,3,10,21,41,301,,22,82,135,,*4F
$GNGLL,4552.65395,S,17030.00667,E,004023.00,A,A*67
$GNGST,004023.00,135741,,,,2.4,3.5,4.2*4F
$GNZDA,004023.00,12,04,2019,00,00*70
$GNGBS,004023.00,2.4,3.5,4.2,,,,,,*5C
$GNRMC,004024.00,A,4552.65393,S,17030.00670,E,0.040,,120419,,,A,V*08
$GNVTG,,T,,M,0.040,N,0.075,K,A*3B
$GNGGA,004024.00,4552.65393,S,17030.00670,E,1,12,0.73,14.8,M,1.8,M,,*56
$GNGSA,A,3,13,16,21,15,10,29,27,20,,,,,1.18,0.73,0.92,1*09
$GNGSA,A,3,82,66,81,,,,,,,,,,1.18,0.73,0.92,2*06
$GNGSA,A,3,07,12,33,,,,,,,,,,1.18,0.73,0.92,3*00
$GNGSA,A,3,13,12,22,19,08,21,,,,,,,1.18,0.73,0.92,4*01
$GPGSV,3,1,12,05,06,110,18,10,24,284,33,13,37,124,30,15,63,083,13,1*6C
$GPGSV,3,2,12,16,11,248,12,20,52,273,34,21,80,232,29,24,08,046,,1*67
$GPGSV,3,3,12,26,03,276,,27,16,218,32,29,23,004,19,30,00,160,,1*69
$GPGSV,3,1,12,05,06,110,,10,24,284,18,13,37,124,,15,63,083,,6*6A
$GPGSV,3,2,12,16,11,248,,20,52,273,,21,80,232,,24,08,046,,6*6F
$GPGSV,3,3,12,26,03,276,,27,16,218,29,29,23,004,,30,00,160,,6*6C
$GLGSV,3,1,10,65,53,144,,66,58,305,33,67,06,313,,72,09,137,,1*7B
$GLGSV,3,2,10,73,06,174,,74,05,132,,81,64,223,35,82,13,214,33,1*7F
$GLGSV,3,3,10,87,14,030,,88,62,024,,1*72
$GLGSV,3,1,10,65,53,144,,66,58,305,34,67,06,313,,72,09,137,15,3*7A
$GLGSV,3,2,10,73,06,174,,74,05,132,,81,64,223,35,82,13,214,33,3*7D
$GLGSV,3,3,10,87,14,030,,88,62,024,,3*70
$GAGSV,3,1,09,02,00,179,,04,09,321,,07,11,134,11,11,10,227,,7*7F
$GAGSV,3,2,09,12,62,237,30,18,50,266,31,19,64,342,,26,11,044,,7*7E
$GAGSV,3,3,09,33,62,034,12,7*4A
$GAGSV,3,1,09,02,00,179,,04,09,321,,07,11,134,,11,10,227,,2*7A
$GAGSV,3,2,09,12,62,237,35,18,50,266,31,19,64,342,,26,11,044,,2*7E
$GAGSV,3,3,09,33,62,034,,2*4C
$GBGSV,3,1,10,01,29,321,,03,12,292,,04,37,345,,08,49,229,27,1*7D
$GBGSV,3,2,10,10,00,282,,12,66,330,20,13,23,233,16,19,28,123,18,1*73
$GBGSV,3,3,10,21,41,301,35,22,82,135,14,1*7D
$GBGSV,3,1,10,01,29,321,,03,12,292,,04,37,345,,08,49,229,,*49
$GBGSV,3,2,10,10,00,282,,12,66,330,,13,23,233,,19,28,123,,*4E
$GBGSV,3,3,10,21,41,301,,22,82,135,,*4F
$GNGLL,4552.65393,S,17030.00670,E,004024.00,A,A*60
$GNGST,004024.00,201423,,,,2.4,3.5,4.2*4B
$GNZDA,004024.00,12,04,2019,00,00*77
$GNGBS,004024.00,2.4,3.5,4.2,,,,,,*5B
