$GPGSV,3,1,12,04,52,189,00,11,63,142,46,23,22,188,45,20,69,250,45*71
$GPGSV,3,2,12,13,34,231,00,07,36,297,43,02,14,316,00,01,49,069,46*75
$GPGSV,3,3,12,27,46,082,00,14,18,040,47,25,18,090,45,24,43,294,47*77
{"class":"SKY","time":"2025-01-25T09:06:07.990Z","xdop":0.64,"ydop":0.75,"vdop":1.62,"tdop":1.06,"hdop":0.99,"gdop":2.17,"pdop":1.90,"satellites":[{"PRN":4,"el":51.5,"az":189.0,"ss":0.0,"used":false,"gnssid":0,"svid":4},{"PRN":11,"el":63.0,"az":142.5,"ss":46.3,"used":true,"gnssid":0,"svid":11},{"PRN":23,"el":22.0,"az":187.5,"ss":44.6,"used":true,"gnssid":0,"svid":23},{"PRN":20,"el":69.0,"az":250.5,"ss":44.7,"used":true,"gnssid":0,"svid":20},{"PRN":13,"el":34.0,"az":231.0,"ss":0.0,"used":false,"gnssid":0,"svid":13},{"PRN":7,"el":35.5,"az":297.0,"ss":42.8,"used":true,"gnssid":0,"svid":7},{"PRN":2,"el":13.5,"az":316.5,"ss":0.0,"used":false,"gnssid":0,"svid":2},{"PRN":1,"el":49.0,"az":69.0,"ss":46.3,"used":true,"gnssid":0,"svid":1},{"PRN":27,"el":46.5,"az":82.5,"ss":0.0,"used":false,"gnssid":0,"svid":27},{"PRN":14,"el":18.0,"az":40.5,"ss":46.8,"used":true,"gnssid":0,"svid":14},{"PRN":25,"el":18.5,"az":90.0,"ss":44.8,"used":true,"gnssid":0,"svid":25},{"PRN":24,"el":43.0,"az":294.0,"ss":47.4,"used":true,"gnssid":0,"svid":24}]}
$GPZDA,090607.99,25,01,2025,00,00*6D
$GPGGA,090607.99,5203.7606,N,00508.3161,E,1,08,1.80,35.63,M,44.443,M,,*5E
$GPRMC,090607.99,A,5203.7606,N,00508.3161,E,0.0000,0.000,250125,1.5,E*6E
$GPGSA,A,3,11,23,20,7,1,14,25,24,,,,,1.9,1.8,1.6*35
$GPGBS,090607.99,9.643,11.296,37.252,,,,*4D
{"class":"TPV","mode":3,"time":"2025-01-25T09:06:07.990Z","ept":0.005,"lat":52.062675883,"lon":5.138600900,"altHAE":80.071,"altMSL":35.628,"epx":9.643,"epy":11.296,"epv":37.252,"track":0.0000,"magtrack":1.5480,"magvar":1.5,"speed":0.000,"climb":0.000,"ecefx":3913719.00,"ecefy":351948.00,"ecefz":5007157.00,"ecefvx":0.00,"ecefvy":0.00,"ecefvz":0.00,"velN":0.000,"velE":0.000,"velD":-0.000,"geoidSep":44.443,"eph":34.200,"sep":36.068}
$GPZDA,090614.00,11,06,2005,00,00*6D
$GPGGA,090614.00,5203.7605,N,00508.3168,E,1,08,1.80,36.75,M,44.443,M,,*52
$GPRMC,090614.00,A,5203.7605,N,00508.3168,E,0.0447,54.442,110605,1.5,E*50
$GPGSA,A,3,11,23,20,7,1,14,25,24,,,,,0.8,1.8,1.0*33
$GPGBS,090614.00,9.643,11.296,23.000,,,,*4F
{"class":"TPV","mode":3,"time":"2005-06-11T09:06:13.999Z","ept":0.005,"lat":52.062675221,"lon":5.138613239,"altHAE":81.197,"altMSL":36.754,"epx":9.643,"epy":11.296,"epv":23.000,"track":54.4418,"magtrack":55.9898,"magvar":1.5,"speed":0.023,"climb":0.024,"geoidSep":44.443,"eph":34.200,"sep":15.200}
$GPGSV,3,1,12,04,52,189,00,11,63,142,46,23,22,188,44,20,69,250,45*70
$GPGSV,3,2,12,13,34,231,00,07,36,297,43,02,14,316,00,01,49,069,46*75
$GPGSV,3,3,12,27,46,082,00,14,18,040,47,25,18,090,44,24,43,294,47*76
{"class":"SKY","time":"2025-01-25T09:06:08.990Z","xdop":0.64,"ydop":0.75,"vdop":1.00,"tdop":1.60,"hdop":1.80,"gdop":2.00,"pdop":0.80,"satellites":[{"PRN":4,"el":51.5,"az":189.0,"ss":0.0,"used":false,"gnssid":0,"svid":4},{"PRN":11,"el":63.0,"az":142.5,"ss":46.5,"used":true,"gnssid":0,"svid":11},{"PRN":23,"el":22.0,"az":187.5,"ss":44.5,"used":true,"gnssid":0,"svid":23},{"PRN":20,"el":69.0,"az":250.5,"ss":44.8,"used":true,"gnssid":0,"svid":20},{"PRN":13,"el":34.0,"az":231.0,"ss":0.0,"used":false,"gnssid":0,"svid":13},{"PRN":7,"el":35.5,"az":297.0,"ss":43.0,"used":true,"gnssid":0,"svid":7},{"PRN":2,"el":13.5,"az":316.5,"ss":0.0,"used":false,"gnssid":0,"svid":2},{"PRN":1,"el":49.0,"az":69.0,"ss":46.5,"used":true,"gnssid":0,"svid":1},{"PRN":27,"el":46.5,"az":82.5,"ss":0.0,"used":false,"gnssid":0,"svid":27},{"PRN":14,"el":18.0,"az":40.5,"ss":46.7,"used":true,"gnssid":0,"svid":14},{"PRN":25,"el":18.5,"az":90.0,"ss":44.3,"used":true,"gnssid":0,"svid":25},{"PRN":24,"el":43.0,"az":294.0,"ss":47.4,"used":true,"gnssid":0,"svid":24}]}
$GPZDA,090615.00,11,06,2005,00,00*6C
$GPGGA,090615.00,5203.7605,N,00508.3168,E,1,08,1.80,36.77,M,44.443,M,,*51
$GPRMC,090615.00,A,5203.7605,N,00508.3168,E,0.0525,55.231,110605,1.5,E*57
$GPGSA,A,3,11,23,20,7,1,14,25,24,,,,,0.8,1.8,1.0*33
$GPGBS,090615.00,9.643,11.296,23.000,,,,*4E
{"class":"TPV","mode":3,"time":"2005-06-11T09:06:14.999Z","ept":0.005,"lat":52.062674648,"lon":5.138613239,"altHAE":81.213,"altMSL":36.770,"epx":9.643,"epy":11.296,"epv":23.000,"track":55.2310,"magtrack":56.7790,"magvar":1.5,"speed":0.027,"climb":0.027,"eps":22.59,"epc":46.00,"geoidSep":44.443,"eph":34.200,"sep":15.200}
$GPGSV,3,1,12,04,52,189,00,11,63,142,47,23,22,188,45,20,69,250,45*70
$GPGSV,3,2,12,13,34,231,00,07,36,297,43,02,14,316,00,01,49,069,47*74
$GPGSV,3,3,12,27,46,082,00,14,18,040,47,25,18,090,45,24,43,294,48*78
{"class":"SKY","time":"2025-01-25T09:06:09.990Z","xdop":0.64,"ydop":0.75,"vdop":1.00,"tdop":1.60,"hdop":1.80,"gdop":2.00,"pdop":0.80,"satellites":[{"PRN":4,"el":51.5,"az":189.0,"ss":0.0,"used":false,"gnssid":0,"svid":4},{"PRN":11,"el":63.0,"az":142.5,"ss":46.6,"used":true,"gnssid":0,"svid":11},{"PRN":23,"el":22.0,"az":187.5,"ss":44.6,"used":true,"gnssid":0,"svid":23},{"PRN":20,"el":69.0,"az":250.5,"ss":44.9,"used":true,"gnssid":0,"svid":20},{"PRN":13,"el":34.0,"az":231.0,"ss":0.0,"used":false,"gnssid":0,"svid":13},{"PRN":7,"el":35.5,"az":297.0,"ss":43.1,"used":true,"gnssid":0,"svid":7},{"PRN":2,"el":13.5,"az":316.5,"ss":0.0,"used":false,"gnssid":0,"svid":2},{"PRN":1,"el":49.0,"az":69.0,"ss":46.7,"used":true,"gnssid":0,"svid":1},{"PRN":27,"el":46.5,"az":82.5,"ss":0.0,"used":false,"gnssid":0,"svid":27},{"PRN":14,"el":18.0,"az":40.5,"ss":46.7,"used":true,"gnssid":0,"svid":14},{"PRN":25,"el":18.5,"az":90.0,"ss":44.6,"used":true,"gnssid":0,"svid":25},{"PRN":24,"el":43.0,"az":294.0,"ss":47.6,"used":true,"gnssid":0,"svid":24}]}
$GPZDA,090616.00,11,06,2005,00,00*6F
$GPGGA,090616.00,5203.7605,N,00508.3168,E,1,08,1.80,36.79,M,44.443,M,,*5C
$GPRMC,090616.00,A,5203.7605,N,00508.3168,E,0.0467,53.664,110605,1.5,E*51
$GPGSA,A,3,11,23,20,7,1,14,25,24,,,,,0.8,1.8,1.0*33
$GPGBS,090616.00,9.643,11.296,23.000,,,,*4D
{"class":"TPV","mode":3,"time":"2005-06-11T09:06:15.999Z","ept":0.005,"lat":52.062674648,"lon":5.138613239,"altHAE":81.230,"altMSL":36.787,"epx":9.643,"epy":11.296,"epv":23.000,"track":53.6641,"magtrack":55.2121,"magvar":1.5,"speed":0.024,"climb":0.024,"eps":22.59,"epc":46.00,"geoidSep":44.443,"eph":34.200,"sep":15.200}
$GPGSV,3,1,12,04,52,189,00,11,63,142,47,23,22,188,44,20,69,250,44*70
$GPGSV,3,2,12,13,34,231,00,07,36,297,43,02,14,316,00,01,49,069,47*74
$GPGSV,3,3,12,27,46,082,00,14,18,040,46,25,18,090,44,24,43,294,48*78
{"class":"SKY","time":"2025-01-25T09:06:10.990Z","xdop":0.64,"ydop":0.75,"vdop":1.00,"tdop":1.60,"hdop":1.80,"gdop":2.00,"pdop":0.80,"satellites":[{"PRN":4,"el":51.5,"az":189.0,"ss":0.0,"used":false,"gnssid":0,"svid":4},{"PRN":11,"el":63.0,"az":142.5,"ss":46.8,"used":true,"gnssid":0,"svid":11},{"PRN":23,"el":22.0,"az":187.5,"ss":44.2,"used":true,"gnssid":0,"svid":23},{"PRN":20,"el":69.0,"az":250.5,"ss":44.4,"used":true,"gnssid":0,"svid":20},{"PRN":13,"el":34.0,"az":231.0,"ss":0.0,"used":false,"gnssid":0,"svid":13},{"PRN":7,"el":35.5,"az":297.0,"ss":43.1,"used":true,"gnssid":0,"svid":7},{"PRN":2,"el":13.5,"az":316.5,"ss":0.0,"used":false,"gnssid":0,"svid":2},{"PRN":1,"el":49.0,"az":69.0,"ss":46.6,"used":true,"gnssid":0,"svid":1},{"PRN":27,"el":46.5,"az":82.5,"ss":0.0,"used":false,"gnssid":0,"svid":27},{"PRN":14,"el":18.0,"az":40.5,"ss":46.4,"used":true,"gnssid":0,"svid":14},{"PRN":25,"el":18.5,"az":90.0,"ss":44.1,"used":true,"gnssid":0,"svid":25},{"PRN":24,"el":43.0,"az":294.0,"ss":47.8,"used":true,"gnssid":0,"svid":24}]}
$GPZDA,090617.00,11,06,2005,00,00*6E
$GPGGA,090617.00,5203.7605,N,00508.3168,E,1,08,1.80,36.80,M,44.443,M,,*5B
$GPRMC,090617.00,A,5203.7605,N,00508.3168,E,0.0525,57.361,110605,1.5,E*53
$GPGSA,A,3,11,23,20,7,1,14,25,24,,,,,0.8,1.8,1.0*33
$GPGBS,090617.00,9.643,11.296,23.000,,,,*4C
{"class":"TPV","mode":3,"time":"2005-06-11T09:06:16.999Z","ept":0.005,"lat":52.062674648,"lon":5.138613239,"altHAE":81.244,"altMSL":36.801,"epx":9.643,"epy":11.296,"epv":23.000,"track":57.3607,"magtrack":58.9087,"magvar":1.5,"speed":0.027,"climb":0.026,"eps":22.59,"epc":46.00,"geoidSep":44.443,"eph":34.200,"sep":15.200}
$GPGSV,3,1,12,04,52,189,00,11,63,142,47,23,22,188,44,20,69,250,45*71
$GPGSV,3,2,12,13,34,231,00,07,36,297,43,02,14,316,00,01,49,069,47*74
$GPGSV,3,3,12,27,46,082,00,14,18,040,46,25,18,090,45,24,43,294,47*76
{"class":"SKY","time":"2025-01-25T09:06:11.990Z","xdop":0.64,"ydop":0.75,"vdop":1.00,"tdop":1.60,"hdop":1.80,"gdop":2.00,"pdop":0.80,"satellites":[{"PRN":4,"el":51.5,"az":189.0,"ss":0.0,"used":false,"gnssid":0,"svid":4},{"PRN":11,"el":63.0,"az":142.5,"ss":46.7,"used":true,"gnssid":0,"svid":11},{"PRN":23,"el":22.0,"az":187.5,"ss":44.5,"used":true,"gnssid":0,"svid":23},{"PRN":20,"el":69.0,"az":250.5,"ss":44.7,"used":true,"gnssid":0,"svid":20},{"PRN":13,"el":34.0,"az":231.0,"ss":0.0,"used":false,"gnssid":0,"svid":13},{"PRN":7,"el":35.5,"az":297.0,"ss":43.2,"used":true,"gnssid":0,"svid":7},{"PRN":2,"el":13.5,"az":316.5,"ss":0.0,"used":false,"gnssid":0,"svid":2},{"PRN":1,"el":49.0,"az":69.0,"ss":46.8,"used":true,"gnssid":0,"svid":1},{"PRN":27,"el":46.5,"az":82.5,"ss":0.0,"used":false,"gnssid":0,"svid":27},{"PRN":14,"el":18.0,"az":40.5,"ss":46.3,"used":true,"gnssid":0,"svid":14},{"PRN":25,"el":18.5,"az":90.0,"ss":44.9,"used":true,"gnssid":0,"svid":25},{"PRN":24,"el":43.0,"az":294.0,"ss":47.2,"used":true,"gnssid":0,"svid":24}]}
$GPZDA,090618.00,11,06,2005,00,00*61
$GPGGA,090618.00,5203.7605,N,00508.3168,E,1,08,1.80,36.82,M,44.443,M,,*56
$GPRMC,090618.00,A,5203.7605,N,00508.3168,E,0.0467,50.658,110605,1.5,E*53
$GPGSA,A,3,11,23,20,7,1,14,25,24,,,,,0.8,1.8,1.0*33
$GPGBS,090618.00,9.643,11.296,23.000,,,,*43
{"class":"TPV","mode":3,"time":"2005-06-11T09:06:17.999Z","ept":0.005,"lat":52.062674648,"lon":5.138613239,"altHAE":81.260,"altMSL":36.817,"epx":9.643,"epy":11.296,"epv":23.000,"track":50.6579,"magtrack":52.2059,"magvar":1.5,"speed":0.024,"climb":0.025,"eps":22.59,"epc":46.00,"geoidSep":44.443,"eph":34.200,"sep":15.200}
$GPGSV,3,1,12,04,52,189,00,11,63,142,47,23,22,188,44,20,69,250,44*70
$GPGSV,3,2,12,13,34,231,00,07,36,297,43,02,14,316,00,01,49,069,47*74
$GPGSV,3,3,12,27,46,082,00,14,18,040,46,25,18,090,44,24,43,294,48*78
{"class":"SKY","time":"2025-01-25T09:06:12.990Z","xdop":0.64,"ydop":0.75,"vdop":1.00,"tdop":1.60,"hdop":1.80,"gdop":2.00,"pdop":0.80,"satellites":[{"PRN":4,"el":51.5,"az":189.0,"ss":0.0,"used":false,"gnssid":0,"svid":4},{"PRN":11,"el":63.0,"az":142.5,"ss":46.8,"used":true,"gnssid":0,"svid":11},{"PRN":23,"el":22.0,"az":187.5,"ss":44.3,"used":true,"gnssid":0,"svid":23},{"PRN":20,"el":69.0,"az":250.5,"ss":44.5,"used":true,"gnssid":0,"svid":20},{"PRN":13,"el":34.0,"az":231.0,"ss":0.0,"used":false,"gnssid":0,"svid":13},{"PRN":7,"el":35.5,"az":297.0,"ss":43.3,"used":true,"gnssid":0,"svid":7},{"PRN":2,"el":13.5,"az":316.5,"ss":0.0,"used":false,"gnssid":0,"svid":2},{"PRN":1,"el":49.0,"az":69.0,"ss":46.7,"used":true,"gnssid":0,"svid":1},{"PRN":27,"el":46.5,"az":82.5,"ss":0.0,"used":false,"gnssid":0,"svid":27},{"PRN":14,"el":18.0,"az":40.5,"ss":46.2,"used":true,"gnssid":0,"svid":14},{"PRN":25,"el":18.5,"az":90.0,"ss":44.5,"used":true,"gnssid":0,"svid":25},{"PRN":24,"el":43.0,"az":294.0,"ss":47.5,"used":true,"gnssid":0,"svid":24}]}
$GPZDA,090619.00,11,06,2005,00,00*60
$GPGGA,090619.00,5203.7605,N,00508.3168,E,1,08,1.80,36.83,M,44.443,M,,*56
$GPRMC,090619.00,A,5203.7605,N,00508.3168,E,0.0583,58.520,110605,1.5,E*5D
$GPGSA,A,3,11,23,20,7,1,14,25,24,,,,,0.8,1.8,1.0*33
$GPGBS,090619.00,9.643,11.296,23.000,,,,*42
{"class":"TPV","mode":3,"time":"2005-06-11T09:06:18.999Z","ept":0.005,"lat":52.062674648,"lon":5.138613239,"altHAE":81.276,"altMSL":36.833,"epx":9.643,"epy":11.296,"epv":23.000,"track":58.5200,"magtrack":60.0680,"magvar":1.5,"speed":0.030,"climb":0.029,"eps":22.59,"epc":46.00,"geoidSep":44.443,"eph":34.200,"sep":15.200}
$GPGSV,3,1,12,04,52,189,00,11,63,142,47,23,22,188,44,20,69,250,44*70
$GPGSV,3,2,12,13,34,231,00,07,36,297,43,02,14,316,00,01,49,069,47*74
$GPGSV,3,3,12,27,46,082,00,14,18,040,46,25,18,090,44,24,43,294,47*77
{"class":"SKY","time":"2025-01-25T09:06:13.990Z","xdop":0.64,"ydop":0.75,"vdop":1.00,"tdop":1.60,"hdop":1.80,"gdop":2.00,"pdop":0.80,"satellites":[{"PRN":4,"el":51.5,"az":189.0,"ss":0.0,"used":false,"gnssid":0,"svid":4},{"PRN":11,"el":63.0,"az":142.5,"ss":46.9,"used":true,"gnssid":0,"svid":11},{"PRN":23,"el":22.0,"az":187.5,"ss":44.4,"used":true,"gnssid":0,"svid":23},{"PRN":20,"el":69.0,"az":250.5,"ss":44.4,"used":true,"gnssid":0,"svid":20},{"PRN":13,"el":34.0,"az":231.0,"ss":0.0,"used":false,"gnssid":0,"svid":13},{"PRN":7,"el":35.5,"az":297.0,"ss":43.1,"used":true,"gnssid":0,"svid":7},{"PRN":2,"el":13.5,"az":316.5,"ss":0.0,"used":false,"gnssid":0,"svid":2},{"PRN":1,"el":49.0,"az":69.0,"ss":46.7,"used":true,"gnssid":0,"svid":1},{"PRN":27,"el":46.5,"az":82.5,"ss":0.0,"used":false,"gnssid":0,"svid":27},{"PRN":14,"el":18.0,"az":40.5,"ss":46.1,"used":true,"gnssid":0,"svid":14},{"PRN":25,"el":18.5,"az":90.0,"ss":44.1,"used":true,"gnssid":0,"svid":25},{"PRN":24,"el":43.0,"az":294.0,"ss":47.4,"used":true,"gnssid":0,"svid":24}]}
$GPZDA,090620.00,11,06,2005,00,00*6A
$GPGGA,090620.00,5203.7605,N,00508.3168,E,1,08,1.80,36.85,M,44.443,M,,*5A
$GPRMC,090620.00,A,5203.7605,N,00508.3168,E,0.0525,52.550,110605,1.5,E*56
$GPGSA,A,3,11,23,20,7,1,14,25,24,,,,,0.8,1.8,1.0*33
$GPGBS,090620.00,9.643,11.296,23.000,,,,*48
{"class":"TPV","mode":3,"time":"2005-06-11T09:06:19.999Z","ept":0.005,"lat":52.062674648,"lon":5.138613239,"altHAE":81.297,"altMSL":36.854,"epx":9.643,"epy":11.296,"epv":23.000,"track":52.5503,"magtrack":54.0983,"magvar":1.5,"speed":0.027,"climb":0.027,"eps":22.59,"epc":46.00,"geoidSep":44.443,"eph":34.200,"sep":15.200}
