$GPZDA,021516.00,07,02,2019,00,00*68
$GPGGA,021516.00,4404.1290,N,12118.8590,W,7,18,,1132.39,M,-22.155,M,,*78
$GPRMC,021516.00,A,4404.1290,N,12118.8590,W,0.0000,0.000,070219,14.4,E*46
$GPGSA,A,3,,,,,,,,,,,,,,,*1C
{"class":"TPV","status":7,"mode":3,"time":"2019-02-07T02:15:16.000Z","ept":0.005,"lat":44.068817081,"lon":-121.314317437,"altHAE":1110.233,"altMSL":1132.388,"track":0.0000,"magtrack":14.4185,"magvar":14.4,"speed":0.000,"climb":0.000,"eps":0.01,"ecefx":-2386071.16,"ecefy":-3922189.40,"ecefz":4414361.02,"ecefvx":0.00,"ecefvy":0.00,"ecefvz":0.00,"ecefpAcc":0.99,"ecefvAcc":0.01,"velN":0.000,"velE":0.000,"velD":-0.000,"geoidSep":-22.155}
$GPZDA,021518.00,07,02,2019,00,00*66
$GPGGA,021518.00,4404.1290,N,12118.8590,W,7,18,99.99,1132.39,M,-22.155,M,,*58
$GPRMC,021518.00,A,4404.1290,N,12118.8590,W,0.0000,0.000,070219,14.4,E*48
$GPGSA,A,3,,,,,,,,,,,,,100.0,100.0,100.0*33
{"class":"TPV","status":7,"mode":3,"time":"2019-02-07T02:15:18.000Z","leapseconds":18,"ept":0.005,"lat":44.068817081,"lon":-121.314317437,"altHAE":1110.233,"altMSL":1132.388,"epv":2299.770,"track":0.0000,"magtrack":14.4185,"magvar":14.4,"speed":0.000,"climb":0.000,"eps":0.01,"epc":4599.54,"ecefx":-2386071.16,"ecefy":-3922189.40,"ecefz":4414361.02,"ecefvx":0.00,"ecefvy":0.00,"ecefvz":0.00,"ecefpAcc":0.99,"ecefvAcc":0.01,"velN":0.000,"velE":0.000,"velD":-0.000,"geoidSep":-22.155,"eph":1899.810,"sep":1899.810}
{"class":"TPV","status":7,"mode":3,"time":"2019-02-07T02:15:18.000Z","leapseconds":18,"ept":0.005,"lat":44.068817081,"lon":-121.314317437,"altHAE":1110.233,"altMSL":1132.388,"epv":2299.770,"track":0.0000,"magtrack":14.4185,"magvar":14.4,"speed":0.000,"climb":0.000,"eps":0.01,"epc":4599.54,"ecefx":-2386071.16,"ecefy":-3922189.40,"ecefz":4414361.02,"ecefvx":0.00,"ecefvy":0.00,"ecefvz":0.00,"ecefpAcc":0.99,"ecefvAcc":0.01,"velN":0.000,"velE":0.000,"velD":-0.000,"geoidSep":-22.155,"eph":1899.810,"sep":1899.810}
$GPZDA,021519.00,07,02,2019,00,00*67
$GPGGA,021519.00,4404.1290,N,12118.8590,W,7,18,99.99,1132.39,M,-22.155,M,,*59
$GPRMC,021519.00,A,4404.1290,N,12118.8590,W,0.0000,0.000,070219,14.4,E*49
$GPGSA,A,3,,,,,,,,,,,,,100.0,100.0,100.0*33
{"class":"TPV","status":7,"mode":3,"time":"2019-02-07T02:15:19.000Z","leapseconds":18,"ept":0.005,"lat":44.068817081,"lon":-121.314317437,"altHAE":1110.233,"altMSL":1132.388,"epv":2299.770,"track":0.0000,"magtrack":14.4185,"magvar":14.4,"speed":0.000,"climb":0.000,"eps":0.01,"epc":4599.54,"ecefx":-2386071.16,"ecefy":-3922189.40,"ecefz":4414361.02,"ecefvx":0.00,"ecefvy":0.00,"ecefvz":0.00,"ecefpAcc":0.99,"ecefvAcc":0.01,"velN":0.000,"velE":0.000,"velD":-0.000,"geoidSep":-22.155,"eph":1899.810,"sep":1899.810}
$GPZDA,021520.00,07,02,2019,00,00*6D
$GPGGA,021520.00,4404.1290,N,12118.8590,W,7,18,99.99,1132.39,M,-22.155,M,,*53
$GPRMC,021520.00,A,4404.1290,N,12118.8590,W,0.0000,0.000,070219,14.4,E*43
$GPGSA,A,3,,,,,,,,,,,,,100.0,100.0,100.0*33
{"class":"TPV","status":7,"mode":3,"time":"2019-02-07T02:15:20.000Z","leapseconds":18,"ept":0.005,"lat":44.068817081,"lon":-121.314317437,"altHAE":1110.233,"altMSL":1132.388,"epv":2299.770,"track":0.0000,"magtrack":14.4185,"magvar":14.4,"speed":0.000,"climb":0.000,"eps":0.01,"epc":4599.54,"ecefx":-2386071.16,"ecefy":-3922189.40,"ecefz":4414361.02,"ecefvx":0.00,"ecefvy":0.00,"ecefvz":0.00,"ecefpAcc":0.99,"ecefvAcc":0.01,"velN":0.000,"velE":0.000,"velD":-0.000,"geoidSep":-22.155,"eph":1899.810,"sep":1899.810}
{"class":"TPV","status":7,"mode":3,"time":"2019-02-07T02:15:20.000Z","leapseconds":18,"ept":0.005,"lat":44.068817081,"lon":-121.314317437,"altHAE":1110.233,"altMSL":1132.388,"epv":2299.770,"track":0.0000,"magtrack":14.4185,"magvar":14.4,"speed":0.000,"climb":0.000,"eps":0.01,"epc":4599.54,"ecefx":-2386071.16,"ecefy":-3922189.40,"ecefz":4414361.02,"ecefvx":0.00,"ecefvy":0.00,"ecefvz":0.00,"ecefpAcc":0.99,"ecefvAcc":0.01,"velN":0.000,"velE":0.000,"velD":-0.000,"geoidSep":-22.155,"eph":1899.810,"sep":1899.810}
$GPZDA,021521.00,07,02,2019,00,00*6C
$GPGGA,021521.00,4404.1290,N,12118.8590,W,7,18,99.99,1132.39,M,-22.155,M,,*52
$GPRMC,021521.00,A,4404.1290,N,12118.8590,W,0.0000,0.000,070219,14.4,E*42
$GPGSA,A,3,,,,,,,,,,,,,100.0,100.0,100.0*33
{"class":"TPV","status":7,"mode":3,"time":"2019-02-07T02:15:21.000Z","leapseconds":18,"ept":0.005,"lat":44.068817081,"lon":-121.314317437,"altHAE":1110.233,"altMSL":1132.388,"epv":2299.770,"track":0.0000,"magtrack":14.4185,"magvar":14.4,"speed":0.000,"climb":0.000,"eps":0.01,"epc":4599.54,"ecefx":-2386071.16,"ecefy":-3922189.40,"ecefz":4414361.02,"ecefvx":0.00,"ecefvy":0.00,"ecefvz":0.00,"ecefpAcc":0.99,"ecefvAcc":0.01,"velN":0.000,"velE":0.000,"velD":-0.000,"geoidSep":-22.155,"eph":1899.810,"sep":1899.810}
$GPZDA,021522.00,07,02,2019,00,00*6F
$GPGGA,021522.00,4404.1290,N,12118.8590,W,7,18,99.99,1132.39,M,-22.155,M,,*51
$GPRMC,021522.00,A,4404.1290,N,12118.8590,W,0.0000,0.000,070219,14.4,E*41
$GPGSA,A,3,,,,,,,,,,,,,100.0,100.0,100.0*33
{"class":"TPV","status":7,"mode":3,"time":"2019-02-07T02:15:22.000Z","leapseconds":18,"ept":0.005,"lat":44.068817081,"lon":-121.314317437,"altHAE":1110.233,"altMSL":1132.388,"epv":2299.770,"track":0.0000,"magtrack":14.4185,"magvar":14.4,"speed":0.000,"climb":0.000,"eps":0.01,"epc":4599.54,"ecefx":-2386071.16,"ecefy":-3922189.40,"ecefz":4414361.02,"ecefvx":0.00,"ecefvy":0.00,"ecefvz":0.00,"ecefpAcc":0.99,"ecefvAcc":0.01,"velN":0.000,"velE":0.000,"velD":-0.000,"geoidSep":-22.155,"eph":1899.810,"sep":1899.810}
{"class":"TPV","status":7,"mode":3,"time":"2019-02-07T02:15:22.000Z","leapseconds":18,"ept":0.005,"lat":44.068817081,"lon":-121.314317437,"altHAE":1110.233,"altMSL":1132.388,"epv":2299.770,"track":0.0000,"magtrack":14.4185,"magvar":14.4,"speed":0.000,"climb":0.000,"eps":0.01,"epc":4599.54,"ecefx":-2386071.16,"ecefy":-3922189.40,"ecefz":4414361.02,"ecefvx":0.00,"ecefvy":0.00,"ecefvz":0.00,"ecefpAcc":0.99,"ecefvAcc":0.01,"velN":0.000,"velE":0.000,"velD":-0.000,"geoidSep":-22.155,"eph":1899.810,"sep":1899.810}
$GPZDA,021523.00,07,02,2019,00,00*6E
$GPGGA,021523.00,4404.1290,N,12118.8590,W,7,18,99.99,1132.39,M,-22.155,M,,*50
$GPRMC,021523.00,A,4404.1290,N,12118.8590,W,0.0000,0.000,070219,14.4,E*40
$GPGSA,A,3,,,,,,,,,,,,,100.0,100.0,100.0*33
{"class":"TPV","status":7,"mode":3,"time":"2019-02-07T02:15:23.000Z","leapseconds":18,"ept":0.005,"lat":44.068817081,"lon":-121.314317437,"altHAE":1110.233,"altMSL":1132.388,"epv":2299.770,"track":0.0000,"magtrack":14.4185,"magvar":14.4,"speed":0.000,"climb":0.000,"eps":0.01,"epc":4599.54,"ecefx":-2386071.16,"ecefy":-3922189.40,"ecefz":4414361.02,"ecefvx":0.00,"ecefvy":0.00,"ecefvz":0.00,"ecefpAcc":0.99,"ecefvAcc":0.01,"velN":0.000,"velE":0.000,"velD":-0.000,"geoidSep":-22.155,"eph":1899.810,"sep":1899.810}
$GPGSV,6,1,23,01,22,049,43,06,13,165,40,11,11,042,34,12,01,272,00*72
$GPGSV,6,2,23,13,32,224,45,15,27,265,43,17,81,090,53,18,03,029,31*7E
$GPGSV,6,3,23,19,63,204,48,24,29,309,37,28,48,068,50,30,23,140,44*73
$GPGSV,6,4,23,194,02,294,00,65,04,256,19,66,13,312,17,73,09,116,44*4A
$GPGSV,6,5,23,74,52,095,46,75,57,332,51,76,15,311,29,83,01,024,21*75
$GPGSV,6,6,23,84,52,047,44,85,58,170,50,86,06,196,46*47
{"class":"SKY","xdop":0.41,"ydop":0.42,"vdop":99.99,"tdop":0.24,"hdop":99.99,"gdop":0.24,"pdop":99.99,"satellites":[{"PRN":1,"el":22.0,"az":49.0,"ss":43.0,"used":true,"gnssid":0,"svid":1,"health":1},{"PRN":6,"el":13.0,"az":165.0,"ss":40.0,"used":true,"gnssid":0,"svid":6,"health":1},{"PRN":11,"el":11.0,"az":42.0,"ss":34.0,"used":true,"gnssid":0,"svid":11,"health":1},{"PRN":12,"el":1.0,"az":272.0,"ss":0.0,"used":false,"gnssid":0,"svid":12,"health":1},{"PRN":13,"el":32.0,"az":224.0,"ss":45.0,"used":true,"gnssid":0,"svid":13,"health":1},{"PRN":15,"el":27.0,"az":265.0,"ss":43.0,"used":true,"gnssid":0,"svid":15,"health":1},{"PRN":17,"el":81.0,"az":90.0,"ss":53.0,"used":true,"gnssid":0,"svid":17,"health":1},{"PRN":18,"el":3.0,"az":29.0,"ss":31.0,"used":false,"gnssid":0,"svid":18,"health":1},{"PRN":19,"el":63.0,"az":204.0,"ss":48.0,"used":true,"gnssid":0,"svid":19,"health":1},{"PRN":24,"el":29.0,"az":309.0,"ss":37.0,"used":true,"gnssid":0,"svid":24,"health":1},{"PRN":28,"el":48.0,"az":68.0,"ss":50.0,"used":true,"gnssid":0,"svid":28,"health":1},{"PRN":30,"el":23.0,"az":140.0,"ss":44.0,"used":true,"gnssid":0,"svid":30,"health":1},{"PRN":194,"el":2.0,"az":294.0,"ss":0.0,"used":false,"gnssid":5,"svid":2,"health":1},{"PRN":65,"el":4.0,"az":256.0,"ss":19.0,"used":false,"gnssid":6,"svid":1,"health":1},{"PRN":66,"el":13.0,"az":312.0,"ss":17.0,"used":true,"gnssid":6,"svid":2,"health":1},{"PRN":67,"el":2.0,"ss":22.0,"used":false,"gnssid":6,"svid":3,"health":1},{"PRN":73,"el":9.0,"az":116.0,"ss":44.0,"used":true,"gnssid":6,"svid":9,"health":1},{"PRN":74,"el":52.0,"az":95.0,"ss":46.0,"used":true,"gnssid":6,"svid":10,"health":1},{"PRN":75,"el":57.0,"az":332.0,"ss":51.0,"used":true,"gnssid":6,"svid":11,"health":1},{"PRN":76,"el":15.0,"az":311.0,"ss":29.0,"used":true,"gnssid":6,"svid":12,"health":1},{"PRN":83,"el":1.0,"az":24.0,"ss":21.0,"used":false,"gnssid":6,"svid":19,"health":1},{"PRN":84,"el":52.0,"az":47.0,"ss":44.0,"used":true,"gnssid":6,"svid":20,"health":1},{"PRN":85,"el":58.0,"az":170.0,"ss":50.0,"used":true,"gnssid":6,"svid":21,"health":1},{"PRN":86,"el":6.0,"az":196.0,"ss":46.0,"used":true,"gnssid":6,"svid":22,"health":1}]}
$GPZDA,021524.00,07,02,2019,00,00*69
$GPGGA,021524.00,4404.1290,N,12118.8590,W,7,18,99.99,1132.39,M,-22.155,M,,*57
$GPRMC,021524.00,A,4404.1290,N,12118.8590,W,0.0000,0.000,070219,14.4,E*47
$GPGSA,A,3,1,6,11,13,15,17,19,24,28,30,,,100.0,100.0,100.0*33
$GPGBS,021524.00,6.204,6.268,2299.770,,,,*7B
{"class":"TPV","status":7,"mode":3,"time":"2019-02-07T02:15:24.000Z","leapseconds":18,"ept":0.005,"lat":44.068817081,"lon":-121.314317437,"altHAE":1110.233,"altMSL":1132.388,"epx":6.204,"epy":6.268,"epv":2299.770,"track":0.0000,"magtrack":14.4185,"magvar":14.4,"speed":0.000,"climb":0.000,"eps":0.01,"epc":4599.54,"ecefx":-2386071.16,"ecefy":-3922189.40,"ecefz":4414361.02,"ecefvx":0.00,"ecefvy":0.00,"ecefvz":0.00,"ecefpAcc":0.99,"ecefvAcc":0.01,"velN":0.000,"velE":0.000,"velD":-0.000,"geoidSep":-22.155,"eph":1899.810,"sep":1899.810}
$GPZDA,021525.00,07,02,2019,00,00*68
$GPGGA,021525.00,4404.1290,N,12118.8590,W,7,17,99.99,1132.39,M,-22.155,M,,*59
$GPRMC,021525.00,A,4404.1290,N,12118.8590,W,0.0000,0.000,070219,14.4,E*46
$GPGSA,A,3,1,6,11,13,15,17,19,24,28,30,,,100.0,100.0,100.0*33
$GPGBS,021525.00,6.204,6.268,2299.770,,,,*7A
{"class":"TPV","status":7,"mode":3,"time":"2019-02-07T02:15:25.000Z","leapseconds":18,"ept":0.005,"lat":44.068817081,"lon":-121.314317437,"altHAE":1110.233,"altMSL":1132.388,"epx":6.204,"epy":6.268,"epv":2299.770,"track":0.0000,"magtrack":14.4185,"magvar":14.4,"speed":0.000,"climb":0.000,"eps":0.01,"epc":4599.54,"ecefx":-2386071.16,"ecefy":-3922189.40,"ecefz":4414361.02,"ecefvx":0.00,"ecefvy":0.00,"ecefvz":0.00,"ecefpAcc":0.99,"ecefvAcc":0.01,"velN":0.000,"velE":0.000,"velD":-0.000,"geoidSep":-22.155,"eph":1899.810,"sep":1899.810}
{"class":"TPV","status":7,"mode":3,"time":"2019-02-07T02:15:25.000Z","leapseconds":18,"ept":0.005,"lat":44.068817081,"lon":-121.314317437,"altHAE":1110.233,"altMSL":1132.388,"epx":6.204,"epy":6.268,"epv":2299.770,"track":0.0000,"magtrack":14.4185,"magvar":14.4,"speed":0.000,"climb":0.000,"eps":0.01,"epc":4599.54,"ecefx":-2386071.16,"ecefy":-3922189.40,"ecefz":4414361.02,"ecefvx":0.00,"ecefvy":0.00,"ecefvz":0.00,"ecefpAcc":0.99,"ecefvAcc":0.01,"velN":0.000,"velE":0.000,"velD":-0.000,"geoidSep":-22.155,"eph":1899.810,"sep":1899.810}
$GPZDA,021526.00,07,02,2019,00,00*6B
$GPGGA,021526.00,4404.1290,N,12118.8590,W,7,18,99.99,1132.39,M,-22.155,M,,*55
$GPRMC,021526.00,A,4404.1290,N,12118.8590,W,0.0000,0.000,070219,14.4,E*45
$GPGSA,A,3,1,6,11,13,15,17,19,24,28,30,,,100.0,100.0,100.0*33
$GPGBS,021526.00,6.204,6.268,2299.770,,,,*79
{"class":"TPV","status":7,"mode":3,"time":"2019-02-07T02:15:26.000Z","leapseconds":18,"ept":0.005,"lat":44.068817081,"lon":-121.314317437,"altHAE":1110.233,"altMSL":1132.388,"epx":6.204,"epy":6.268,"epv":2299.770,"track":0.0000,"magtrack":14.4185,"magvar":14.4,"speed":0.000,"climb":0.000,"eps":0.01,"epc":4599.54,"ecefx":-2386071.16,"ecefy":-3922189.40,"ecefz":4414361.02,"ecefvx":0.00,"ecefvy":0.00,"ecefvz":0.00,"ecefpAcc":0.99,"ecefvAcc":0.01,"velN":0.000,"velE":0.000,"velD":-0.000,"geoidSep":-22.155,"eph":1899.810,"sep":1899.810}
$GPZDA,021527.00,07,02,2019,00,00*6A
$GPGGA,021527.00,4404.1290,N,12118.8590,W,7,18,99.99,1132.39,M,-22.155,M,,*54
$GPRMC,021527.00,A,4404.1290,N,12118.8590,W,0.0000,0.000,070219,14.4,E*44
$GPGSA,A,3,1,6,11,13,15,17,19,24,28,30,,,100.0,100.0,100.0*33
$GPGBS,021527.00,6.204,6.268,2299.770,,,,*78
{"class":"TPV","status":7,"mode":3,"time":"2019-02-07T02:15:27.000Z","leapseconds":18,"ept":0.005,"lat":44.068817081,"lon":-121.314317437,"altHAE":1110.233,"altMSL":1132.388,"epx":6.204,"epy":6.268,"epv":2299.770,"track":0.0000,"magtrack":14.4185,"magvar":14.4,"speed":0.000,"climb":0.000,"eps":0.01,"epc":4599.54,"ecefx":-2386071.16,"ecefy":-3922189.40,"ecefz":4414361.02,"ecefvx":0.00,"ecefvy":0.00,"ecefvz":0.00,"ecefpAcc":0.99,"ecefvAcc":0.01,"velN":0.000,"velE":0.000,"velD":-0.000,"geoidSep":-22.155,"eph":1899.810,"sep":1899.810}
{"class":"TPV","status":7,"mode":3,"time":"2019-02-07T02:15:27.000Z","leapseconds":18,"ept":0.005,"lat":44.068817081,"lon":-121.314317437,"altHAE":1110.233,"altMSL":1132.388,"epx":6.204,"epy":6.268,"epv":2299.770,"track":0.0000,"magtrack":14.4185,"magvar":14.4,"speed":0.000,"climb":0.000,"eps":0.01,"epc":4599.54,"ecefx":-2386071.16,"ecefy":-3922189.40,"ecefz":4414361.02,"ecefvx":0.00,"ecefvy":0.00,"ecefvz":0.00,"ecefpAcc":0.99,"ecefvAcc":0.01,"velN":0.000,"velE":0.000,"velD":-0.000,"geoidSep":-22.155,"eph":1899.810,"sep":1899.810}
$GPZDA,021528.00,07,02,2019,00,00*65
$GPGGA,021528.00,4404.1290,N,12118.8590,W,7,18,99.99,1132.39,M,-22.155,M,,*5B
$GPRMC,021528.00,A,4404.1290,N,12118.8590,W,0.0000,0.000,070219,14.4,E*4B
$GPGSA,A,3,1,6,11,13,15,17,19,24,28,30,,,100.0,100.0,100.0*33
$GPGBS,021528.00,6.204,6.268,2299.770,,,,*77
{"class":"TPV","status":7,"mode":3,"time":"2019-02-07T02:15:28.000Z","leapseconds":18,"ept":0.005,"lat":44.068817081,"lon":-121.314317437,"altHAE":1110.233,"altMSL":1132.388,"epx":6.204,"epy":6.268,"epv":2299.770,"track":0.0000,"magtrack":14.4185,"magvar":14.4,"speed":0.000,"climb":0.000,"eps":0.01,"epc":4599.54,"ecefx":-2386071.16,"ecefy":-3922189.40,"ecefz":4414361.02,"ecefvx":0.00,"ecefvy":0.00,"ecefvz":0.00,"ecefpAcc":0.99,"ecefvAcc":0.01,"velN":0.000,"velE":0.000,"velD":-0.000,"geoidSep":-22.155,"eph":1899.810,"sep":1899.810}
$GPZDA,021529.00,07,02,2019,00,00*64
$GPGGA,021529.00,4404.1290,N,12118.8590,W,7,18,99.99,1132.39,M,-22.155,M,,*5A
$GPRMC,021529.00,A,4404.1290,N,12118.8590,W,0.0000,0.000,070219,14.4,E*4A
$GPGSA,A,3,1,6,11,13,15,17,19,24,28,30,,,100.0,100.0,100.0*33
$GPGBS,021529.00,6.204,6.268,2299.770,,,,*76
{"class":"TPV","status":7,"mode":3,"time":"2019-02-07T02:15:29.000Z","leapseconds":18,"ept":0.005,"lat":44.068817081,"lon":-121.314317437,"altHAE":1110.233,"altMSL":1132.388,"epx":6.204,"epy":6.268,"epv":2299.770,"track":0.0000,"magtrack":14.4185,"magvar":14.4,"speed":0.000,"climb":0.000,"eps":0.01,"epc":4599.54,"ecefx":-2386071.16,"ecefy":-3922189.40,"ecefz":4414361.02,"ecefvx":0.00,"ecefvy":0.00,"ecefvz":0.00,"ecefpAcc":0.99,"ecefvAcc":0.01,"velN":0.000,"velE":0.000,"velD":-0.000,"geoidSep":-22.155,"eph":1899.810,"sep":1899.810}
{"class":"TPV","status":7,"mode":3,"time":"2019-02-07T02:15:29.000Z","leapseconds":18,"ept":0.005,"lat":44.068817081,"lon":-121.314317437,"altHAE":1110.233,"altMSL":1132.388,"epx":6.204,"epy":6.268,"epv":2299.770,"track":0.0000,"magtrack":14.4185,"magvar":14.4,"speed":0.000,"climb":0.000,"eps":0.01,"epc":4599.54,"ecefx":-2386071.16,"ecefy":-3922189.40,"ecefz":4414361.02,"ecefvx":0.00,"ecefvy":0.00,"ecefvz":0.00,"ecefpAcc":0.99,"ecefvAcc":0.01,"velN":0.000,"velE":0.000,"velD":-0.000,"geoidSep":-22.155,"eph":1899.810,"sep":1899.810}
$GPZDA,021530.00,07,02,2019,00,00*6C
$GPGGA,021530.00,4404.1290,N,12118.8590,W,7,18,99.99,1132.39,M,-22.155,M,,*52
$GPRMC,021530.00,A,4404.1290,N,12118.8590,W,0.0000,0.000,070219,14.4,E*42
$GPGSA,A,3,1,6,11,13,15,17,19,24,28,30,,,100.0,100.0,100.0*33
$GPGBS,021530.00,6.204,6.268,2299.770,,,,*7E
{"class":"TPV","status":7,"mode":3,"time":"2019-02-07T02:15:30.000Z","leapseconds":18,"ept":0.005,"lat":44.068817081,"lon":-121.314317437,"altHAE":1110.233,"altMSL":1132.388,"epx":6.204,"epy":6.268,"epv":2299.770,"track":0.0000,"magtrack":14.4185,"magvar":14.4,"speed":0.000,"climb":0.000,"eps":0.01,"epc":4599.54,"ecefx":-2386071.16,"ecefy":-3922189.40,"ecefz":4414361.02,"ecefvx":0.00,"ecefvy":0.00,"ecefvz":0.00,"ecefpAcc":0.99,"ecefvAcc":0.01,"velN":0.000,"velE":0.000,"velD":-0.000,"geoidSep":-22.155,"eph":1899.810,"sep":1899.810}
$GPZDA,021531.00,07,02,2019,00,00*6D
$GPGGA,021531.00,4404.1290,N,12118.8590,W,7,18,99.99,1132.39,M,-22.155,M,,*53
$GPRMC,021531.00,A,4404.1290,N,12118.8590,W,0.0000,0.000,070219,14.4,E*43
$GPGSA,A,3,1,6,11,13,15,17,19,24,28,30,,,100.0,100.0,100.0*33
$GPGBS,021531.00,6.204,6.268,2299.770,,,,*7F
{"class":"TPV","status":7,"mode":3,"time":"2019-02-07T02:15:31.000Z","leapseconds":18,"ept":0.005,"lat":44.068817081,"lon":-121.314317437,"altHAE":1110.233,"altMSL":1132.388,"epx":6.204,"epy":6.268,"epv":2299.770,"track":0.0000,"magtrack":14.4185,"magvar":14.4,"speed":0.000,"climb":0.000,"eps":0.01,"epc":4599.54,"ecefx":-2386071.16,"ecefy":-3922189.40,"ecefz":4414361.02,"ecefvx":0.00,"ecefvy":0.00,"ecefvz":0.00,"ecefpAcc":0.99,"ecefvAcc":0.01,"velN":0.000,"velE":0.000,"velD":-0.000,"geoidSep":-22.155,"eph":1899.810,"sep":1899.810}
{"class":"TPV","status":7,"mode":3,"time":"2019-02-07T02:15:31.000Z","leapseconds":18,"ept":0.005,"lat":44.068817081,"lon":-121.314317437,"altHAE":1110.233,"altMSL":1132.388,"epx":6.204,"epy":6.268,"epv":2299.770,"track":0.0000,"magtrack":14.4185,"magvar":14.4,"speed":0.000,"climb":0.000,"eps":0.01,"epc":4599.54,"ecefx":-2386071.16,"ecefy":-3922189.40,"ecefz":4414361.02,"ecefvx":0.00,"ecefvy":0.00,"ecefvz":0.00,"ecefpAcc":0.99,"ecefvAcc":0.01,"velN":0.000,"velE":0.000,"velD":-0.000,"geoidSep":-22.155,"eph":1899.810,"sep":1899.810}
$GPZDA,021532.00,07,02,2019,00,00*6E
$GPGGA,021532.00,4404.1290,N,12118.8590,W,7,18,99.99,1132.39,M,-22.155,M,,*50
$GPRMC,021532.00,A,4404.1290,N,12118.8590,W,0.0000,0.000,070219,14.4,E*40
$GPGSA,A,3,1,6,11,13,15,17,19,24,28,30,,,100.0,100.0,100.0*33
$GPGBS,021532.00,6.204,6.268,2299.770,,,,*7C
{"class":"TPV","status":7,"mode":3,"time":"2019-02-07T02:15:32.000Z","leapseconds":18,"ept":0.005,"lat":44.068817081,"lon":-121.314317437,"altHAE":1110.233,"altMSL":1132.388,"epx":6.204,"epy":6.268,"epv":2299.770,"track":0.0000,"magtrack":14.4185,"magvar":14.4,"speed":0.000,"climb":0.000,"eps":0.01,"epc":4599.54,"ecefx":-2386071.16,"ecefy":-3922189.40,"ecefz":4414361.02,"ecefvx":0.00,"ecefvy":0.00,"ecefvz":0.00,"ecefpAcc":0.99,"ecefvAcc":0.01,"velN":0.000,"velE":0.000,"velD":-0.000,"geoidSep":-22.155,"eph":1899.810,"sep":1899.810}
$GPZDA,021533.00,07,02,2019,00,00*6F
$GPGGA,021533.00,4404.1290,N,12118.8590,W,7,18,99.99,1132.39,M,-22.155,M,,*51
$GPRMC,021533.00,A,4404.1290,N,12118.8590,W,0.0000,0.000,070219,14.4,E*41
$GPGSA,A,3,1,6,11,13,15,17,19,24,28,30,,,100.0,100.0,100.0*33
$GPGBS,021533.00,6.204,6.268,2299.770,,,,*7D
{"class":"TPV","status":7,"mode":3,"time":"2019-02-07T02:15:33.000Z","leapseconds":18,"ept":0.005,"lat":44.068817081,"lon":-121.314317437,"altHAE":1110.233,"altMSL":1132.388,"epx":6.204,"epy":6.268,"epv":2299.770,"track":0.0000,"magtrack":14.4185,"magvar":14.4,"speed":0.000,"climb":0.000,"eps":0.01,"epc":4599.54,"ecefx":-2386071.16,"ecefy":-3922189.40,"ecefz":4414361.02,"ecefvx":0.00,"ecefvy":0.00,"ecefvz":0.00,"ecefpAcc":0.99,"ecefvAcc":0.01,"velN":0.000,"velE":0.000,"velD":-0.000,"geoidSep":-22.155,"eph":1899.810,"sep":1899.810}
$GPGSV,6,1,23,01,22,049,43,06,13,165,39,11,11,042,35,12,01,272,00*7D
$GPGSV,6,2,23,13,32,224,44,15,27,265,43,17,81,090,53,18,03,029,29*76
$GPGSV,6,3,23,19,63,204,49,24,29,309,36,28,48,069,50,30,22,140,44*73
$GPGSV,6,4,23,194,02,294,00,65,04,256,20,66,13,312,24,73,09,116,44*40
$GPGSV,6,5,23,74,52,095,46,75,57,332,50,76,15,311,32,83,01,024,22*7D
$GPGSV,6,6,23,84,52,047,44,85,58,170,51,86,06,196,46*46
{"class":"SKY","xdop":0.41,"ydop":0.42,"vdop":99.99,"tdop":0.24,"hdop":99.99,"gdop":0.24,"pdop":99.99,"satellites":[{"PRN":1,"el":22.0,"az":49.0,"ss":43.0,"used":true,"gnssid":0,"svid":1,"health":1},{"PRN":6,"el":13.0,"az":165.0,"ss":39.0,"used":true,"gnssid":0,"svid":6,"health":1},{"PRN":11,"el":11.0,"az":42.0,"ss":35.0,"used":true,"gnssid":0,"svid":11,"health":1},{"PRN":12,"el":1.0,"az":272.0,"ss":0.0,"used":false,"gnssid":0,"svid":12,"health":1},{"PRN":13,"el":32.0,"az":224.0,"ss":44.0,"used":true,"gnssid":0,"svid":13,"health":1},{"PRN":15,"el":27.0,"az":265.0,"ss":43.0,"used":true,"gnssid":0,"svid":15,"health":1},{"PRN":17,"el":81.0,"az":90.0,"ss":53.0,"used":true,"gnssid":0,"svid":17,"health":1},{"PRN":18,"el":3.0,"az":29.0,"ss":29.0,"used":false,"gnssid":0,"svid":18,"health":1},{"PRN":19,"el":63.0,"az":204.0,"ss":49.0,"used":true,"gnssid":0,"svid":19,"health":1},{"PRN":24,"el":29.0,"az":309.0,"ss":36.0,"used":true,"gnssid":0,"svid":24,"health":1},{"PRN":28,"el":48.0,"az":69.0,"ss":50.0,"used":true,"gnssid":0,"svid":28,"health":1},{"PRN":30,"el":22.0,"az":140.0,"ss":44.0,"used":true,"gnssid":0,"svid":30,"health":1},{"PRN":194,"el":2.0,"az":294.0,"ss":0.0,"used":false,"gnssid":5,"svid":2,"health":1},{"PRN":65,"el":4.0,"az":256.0,"ss":20.0,"used":false,"gnssid":6,"svid":1,"health":1},{"PRN":66,"el":13.0,"az":312.0,"ss":24.0,"used":true,"gnssid":6,"svid":2,"health":1},{"PRN":67,"el":2.0,"ss":14.0,"used":false,"gnssid":6,"svid":3,"health":1},{"PRN":73,"el":9.0,"az":116.0,"ss":44.0,"used":true,"gnssid":6,"svid":9,"health":1},{"PRN":74,"el":52.0,"az":95.0,"ss":46.0,"used":true,"gnssid":6,"svid":10,"health":1},{"PRN":75,"el":57.0,"az":332.0,"ss":50.0,"used":true,"gnssid":6,"svid":11,"health":1},{"PRN":76,"el":15.0,"az":311.0,"ss":32.0,"used":true,"gnssid":6,"svid":12,"health":1},{"PRN":83,"el":1.0,"az":24.0,"ss":22.0,"used":false,"gnssid":6,"svid":19,"health":1},{"PRN":84,"el":52.0,"az":47.0,"ss":44.0,"used":true,"gnssid":6,"svid":20,"health":1},{"PRN":85,"el":58.0,"az":170.0,"ss":51.0,"used":true,"gnssid":6,"svid":21,"health":1},{"PRN":86,"el":6.0,"az":196.0,"ss":46.0,"used":true,"gnssid":6,"svid":22,"health":1}]}
{"class":"TPV","status":7,"mode":3,"time":"2019-02-07T02:15:33.000Z","leapseconds":18,"ept":0.005,"lat":44.068817081,"lon":-121.314317437,"altHAE":1110.233,"altMSL":1132.388,"epx":6.204,"epy":6.268,"epv":2299.770,"track":0.0000,"magtrack":14.4185,"magvar":14.4,"speed":0.000,"climb":0.000,"eps":0.01,"epc":4599.54,"ecefx":-2386071.16,"ecefy":-3922189.40,"ecefz":4414361.02,"ecefvx":0.00,"ecefvy":0.00,"ecefvz":0.00,"ecefpAcc":0.99,"ecefvAcc":0.01,"velN":0.000,"velE":0.000,"velD":-0.000,"geoidSep":-22.155,"eph":1899.810,"sep":1899.810}
$GPZDA,021534.00,07,02,2019,00,00*68
$GPGGA,021534.00,4404.1290,N,12118.8590,W,7,18,99.99,1132.39,M,-22.155,M,,*56
$GPRMC,021534.00,A,4404.1290,N,12118.8590,W,0.0000,0.000,070219,14.4,E*46
$GPGSA,A,3,1,6,11,13,15,17,19,24,28,30,,,100.0,100.0,100.0*33
$GPGBS,021534.00,6.204,6.268,2299.770,,,,*7A
{"class":"TPV","status":7,"mode":3,"time":"2019-02-07T02:15:34.000Z","leapseconds":18,"ept":0.005,"lat":44.068817081,"lon":-121.314317437,"altHAE":1110.233,"altMSL":1132.388,"epx":6.204,"epy":6.268,"epv":2299.770,"track":0.0000,"magtrack":14.4185,"magvar":14.4,"speed":0.000,"climb":0.000,"eps":0.01,"epc":4599.54,"ecefx":-2386071.16,"ecefy":-3922189.40,"ecefz":4414361.02,"ecefvx":0.00,"ecefvy":0.00,"ecefvz":0.00,"ecefpAcc":0.99,"ecefvAcc":0.01,"velN":0.000,"velE":0.000,"velD":-0.000,"geoidSep":-22.155,"eph":1899.810,"sep":1899.810}
$GPZDA,021535.00,07,02,2019,00,00*69
$GPGGA,021535.00,4404.1290,N,12118.8590,W,7,18,99.99,1132.39,M,-22.155,M,,*57
$GPRMC,021535.00,A,4404.1290,N,12118.8590,W,0.0000,0.000,070219,14.4,E*47
$GPGSA,A,3,1,6,11,13,15,17,19,24,28,30,,,100.0,100.0,100.0*33
$GPGBS,021535.00,6.204,6.268,2299.770,,,,*7B
{"class":"TPV","status":7,"mode":3,"time":"2019-02-07T02:15:35.000Z","leapseconds":18,"ept":0.005,"lat":44.068817081,"lon":-121.314317437,"altHAE":1110.233,"altMSL":1132.388,"epx":6.204,"epy":6.268,"epv":2299.770,"track":0.0000,"magtrack":14.4185,"magvar":14.4,"speed":0.000,"climb":0.000,"eps":0.01,"epc":4599.54,"ecefx":-2386071.16,"ecefy":-3922189.40,"ecefz":4414361.02,"ecefvx":0.00,"ecefvy":0.00,"ecefvz":0.00,"ecefpAcc":0.99,"ecefvAcc":0.01,"velN":0.000,"velE":0.000,"velD":-0.000,"geoidSep":-22.155,"eph":1899.810,"sep":1899.810}
{"class":"TPV","status":7,"mode":3,"time":"2019-02-07T02:15:35.000Z","leapseconds":18,"ept":0.005,"lat":44.068817081,"lon":-121.314317437,"altHAE":1110.233,"altMSL":1132.388,"epx":6.204,"epy":6.268,"epv":2299.770,"track":0.0000,"magtrack":14.4185,"magvar":14.4,"speed":0.000,"climb":0.000,"eps":0.01,"epc":4599.54,"ecefx":-2386071.16,"ecefy":-3922189.40,"ecefz":4414361.02,"ecefvx":0.00,"ecefvy":0.00,"ecefvz":0.00,"ecefpAcc":0.99,"ecefvAcc":0.01,"velN":0.000,"velE":0.000,"velD":-0.000,"geoidSep":-22.155,"eph":1899.810,"sep":1899.810}
$GPZDA,021536.00,07,02,2019,00,00*6A
$GPGGA,021536.00,4404.1290,N,12118.8590,W,7,18,99.99,1132.39,M,-22.155,M,,*54
$GPRMC,021536.00,A,4404.1290,N,12118.8590,W,0.0000,0.000,070219,14.4,E*44
$GPGSA,A,3,1,6,11,13,15,17,19,24,28,30,,,100.0,100.0,100.0*33
$GPGBS,021536.00,6.204,6.268,2299.770,,,,*78
{"class":"TPV","status":7,"mode":3,"time":"2019-02-07T02:15:36.000Z","leapseconds":18,"ept":0.005,"lat":44.068817081,"lon":-121.314317437,"altHAE":1110.233,"altMSL":1132.388,"epx":6.204,"epy":6.268,"epv":2299.770,"track":0.0000,"magtrack":14.4185,"magvar":14.4,"speed":0.000,"climb":0.000,"eps":0.01,"epc":4599.54,"ecefx":-2386071.16,"ecefy":-3922189.40,"ecefz":4414361.02,"ecefvx":0.00,"ecefvy":0.00,"ecefvz":0.00,"ecefpAcc":0.99,"ecefvAcc":0.01,"velN":0.000,"velE":0.000,"velD":-0.000,"geoidSep":-22.155,"eph":1899.810,"sep":1899.810}
$GPZDA,021537.00,07,02,2019,00,00*6B
$GPGGA,021537.00,4404.1290,N,12118.8590,W,7,18,99.99,1132.39,M,-22.155,M,,*55
$GPRMC,021537.00,A,4404.1290,N,12118.8590,W,0.0000,0.000,070219,14.4,E*45
$GPGSA,A,3,1,6,11,13,15,17,19,24,28,30,,,100.0,100.0,100.0*33
$GPGBS,021537.00,6.204,6.268,2299.770,,,,*79
{"class":"TPV","status":7,"mode":3,"time":"2019-02-07T02:15:37.000Z","leapseconds":18,"ept":0.005,"lat":44.068817081,"lon":-121.314317437,"altHAE":1110.233,"altMSL":1132.388,"epx":6.204,"epy":6.268,"epv":2299.770,"track":0.0000,"magtrack":14.4185,"magvar":14.4,"speed":0.000,"climb":0.000,"eps":0.01,"epc":4599.54,"ecefx":-2386071.16,"ecefy":-3922189.40,"ecefz":4414361.02,"ecefvx":0.00,"ecefvy":0.00,"ecefvz":0.00,"ecefpAcc":0.99,"ecefvAcc":0.01,"velN":0.000,"velE":0.000,"velD":-0.000,"geoidSep":-22.155,"eph":1899.810,"sep":1899.810}
{"class":"TPV","status":7,"mode":3,"time":"2019-02-07T02:15:37.000Z","leapseconds":18,"ept":0.005,"lat":44.068817081,"lon":-121.314317437,"altHAE":1110.233,"altMSL":1132.388,"epx":6.204,"epy":6.268,"epv":2299.770,"track":0.0000,"magtrack":14.4185,"magvar":14.4,"speed":0.000,"climb":0.000,"eps":0.01,"epc":4599.54,"ecefx":-2386071.16,"ecefy":-3922189.40,"ecefz":4414361.02,"ecefvx":0.00,"ecefvy":0.00,"ecefvz":0.00,"ecefpAcc":0.99,"ecefvAcc":0.01,"velN":0.000,"velE":0.000,"velD":-0.000,"geoidSep":-22.155,"eph":1899.810,"sep":1899.810}
$GPZDA,021538.00,07,02,2019,00,00*64
$GPGGA,021538.00,4404.1290,N,12118.8590,W,7,18,99.99,1132.39,M,-22.155,M,,*5A
$GPRMC,021538.00,A,4404.1290,N,12118.8590,W,0.0000,0.000,070219,14.4,E*4A
$GPGSA,A,3,1,6,11,13,15,17,19,24,28,30,,,100.0,100.0,100.0*33
$GPGBS,021538.00,6.204,6.268,2299.770,,,,*76
{"class":"TPV","status":7,"mode":3,"time":"2019-02-07T02:15:38.000Z","leapseconds":18,"ept":0.005,"lat":44.068817081,"lon":-121.314317437,"altHAE":1110.233,"altMSL":1132.388,"epx":6.204,"epy":6.268,"epv":2299.770,"track":0.0000,"magtrack":14.4185,"magvar":14.4,"speed":0.000,"climb":0.000,"eps":0.01,"epc":4599.54,"ecefx":-2386071.16,"ecefy":-3922189.40,"ecefz":4414361.02,"ecefvx":0.00,"ecefvy":0.00,"ecefvz":0.00,"ecefpAcc":0.99,"ecefvAcc":0.01,"velN":0.000,"velE":0.000,"velD":-0.000,"geoidSep":-22.155,"eph":1899.810,"sep":1899.810}
$GPZDA,021539.00,07,02,2019,00,00*65
$GPGGA,021539.00,4404.1290,N,12118.8590,W,7,18,99.99,1132.39,M,-22.155,M,,*5B
$GPRMC,021539.00,A,4404.1290,N,12118.8590,W,0.0000,0.000,070219,14.4,E*4B
$GPGSA,A,3,1,6,11,13,15,17,19,24,28,30,,,100.0,100.0,100.0*33
$GPGBS,021539.00,6.204,6.268,2299.770,,,,*77
{"class":"TPV","status":7,"mode":3,"time":"2019-02-07T02:15:39.000Z","leapseconds":18,"ept":0.005,"lat":44.068817081,"lon":-121.314317437,"altHAE":1110.233,"altMSL":1132.388,"epx":6.204,"epy":6.268,"epv":2299.770,"track":0.0000,"magtrack":14.4185,"magvar":14.4,"speed":0.000,"climb":0.000,"eps":0.01,"epc":4599.54,"ecefx":-2386071.16,"ecefy":-3922189.40,"ecefz":4414361.02,"ecefvx":0.00,"ecefvy":0.00,"ecefvz":0.00,"ecefpAcc":0.99,"ecefvAcc":0.01,"velN":0.000,"velE":0.000,"velD":-0.000,"geoidSep":-22.155,"eph":1899.810,"sep":1899.810}
{"class":"TPV","status":7,"mode":3,"time":"2019-02-07T02:15:39.000Z","leapseconds":18,"ept":0.005,"lat":44.068817081,"lon":-121.314317437,"altHAE":1110.233,"altMSL":1132.388,"epx":6.204,"epy":6.268,"epv":2299.770,"track":0.0000,"magtrack":14.4185,"magvar":14.4,"speed":0.000,"climb":0.000,"eps":0.01,"epc":4599.54,"ecefx":-2386071.16,"ecefy":-3922189.40,"ecefz":4414361.02,"ecefvx":0.00,"ecefvy":0.00,"ecefvz":0.00,"ecefpAcc":0.99,"ecefvAcc":0.01,"velN":0.000,"velE":0.000,"velD":-0.000,"geoidSep":-22.155,"eph":1899.810,"sep":1899.810}
$GPZDA,021540.00,07,02,2019,00,00*6B
$GPGGA,021540.00,4404.1290,N,12118.8590,W,7,18,99.99,1132.39,M,-22.155,M,,*55
$GPRMC,021540.00,A,4404.1290,N,12118.8590,W,0.0000,0.000,070219,14.4,E*45
$GPGSA,A,3,1,6,11,13,15,17,19,24,28,30,,,100.0,100.0,100.0*33
$GPGBS,021540.00,6.204,6.268,2299.770,,,,*79
{"class":"TPV","status":7,"mode":3,"time":"2019-02-07T02:15:40.000Z","leapseconds":18,"ept":0.005,"lat":44.068817081,"lon":-121.314317437,"altHAE":1110.233,"altMSL":1132.388,"epx":6.204,"epy":6.268,"epv":2299.770,"track":0.0000,"magtrack":14.4185,"magvar":14.4,"speed":0.000,"climb":0.000,"eps":0.01,"epc":4599.54,"ecefx":-2386071.16,"ecefy":-3922189.40,"ecefz":4414361.02,"ecefvx":0.00,"ecefvy":0.00,"ecefvz":0.00,"ecefpAcc":0.99,"ecefvAcc":0.01,"velN":0.000,"velE":0.000,"velD":-0.000,"geoidSep":-22.155,"eph":1899.810,"sep":1899.810}
$GPZDA,021541.00,07,02,2019,00,00*6A
$GPGGA,021541.00,4404.1290,N,12118.8590,W,7,18,99.99,1132.39,M,-22.155,M,,*54
$GPRMC,021541.00,A,4404.1290,N,12118.8590,W,0.0000,0.000,070219,14.4,E*44
$GPGSA,A,3,1,6,11,13,15,17,19,24,28,30,,,100.0,100.0,100.0*33
$GPGBS,021541.00,6.204,6.268,2299.770,,,,*78
{"class":"TPV","status":7,"mode":3,"time":"2019-02-07T02:15:41.000Z","leapseconds":18,"ept":0.005,"lat":44.068817081,"lon":-121.314317437,"altHAE":1110.233,"altMSL":1132.388,"epx":6.204,"epy":6.268,"epv":2299.770,"track":0.0000,"magtrack":14.4185,"magvar":14.4,"speed":0.000,"climb":0.000,"eps":0.01,"epc":4599.54,"ecefx":-2386071.16,"ecefy":-3922189.40,"ecefz":4414361.02,"ecefvx":0.00,"ecefvy":0.00,"ecefvz":0.00,"ecefpAcc":0.99,"ecefvAcc":0.01,"velN":0.000,"velE":0.000,"velD":-0.000,"geoidSep":-22.155,"eph":1899.810,"sep":1899.810}
{"class":"TPV","status":7,"mode":3,"time":"2019-02-07T02:15:41.000Z","leapseconds":18,"ept":0.005,"lat":44.068817081,"lon":-121.314317437,"altHAE":1110.233,"altMSL":1132.388,"epx":6.204,"epy":6.268,"epv":2299.770,"track":0.0000,"magtrack":14.4185,"magvar":14.4,"speed":0.000,"climb":0.000,"eps":0.01,"epc":4599.54,"ecefx":-2386071.16,"ecefy":-3922189.40,"ecefz":4414361.02,"ecefvx":0.00,"ecefvy":0.00,"ecefvz":0.00,"ecefpAcc":0.99,"ecefvAcc":0.01,"velN":0.000,"velE":0.000,"velD":-0.000,"geoidSep":-22.155,"eph":1899.810,"sep":1899.810}
$GPZDA,021542.00,07,02,2019,00,00*69
$GPGGA,021542.00,4404.1290,N,12118.8590,W,7,18,99.99,1132.39,M,-22.155,M,,*57
$GPRMC,021542.00,A,4404.1290,N,12118.8590,W,0.0000,0.000,070219,14.4,E*47
$GPGSA,A,3,1,6,11,13,15,17,19,24,28,30,,,100.0,100.0,100.0*33
$GPGBS,021542.00,6.204,6.268,2299.770,,,,*7B
{"class":"TPV","status":7,"mode":3,"time":"2019-02-07T02:15:42.000Z","leapseconds":18,"ept":0.005,"lat":44.068817081,"lon":-121.314317437,"altHAE":1110.233,"altMSL":1132.388,"epx":6.204,"epy":6.268,"epv":2299.770,"track":0.0000,"magtrack":14.4185,"magvar":14.4,"speed":0.000,"climb":0.000,"eps":0.01,"epc":4599.54,"ecefx":-2386071.16,"ecefy":-3922189.40,"ecefz":4414361.02,"ecefvx":0.00,"ecefvy":0.00,"ecefvz":0.00,"ecefpAcc":0.99,"ecefvAcc":0.01,"velN":0.000,"velE":0.000,"velD":-0.000,"geoidSep":-22.155,"eph":1899.810,"sep":1899.810}
$GPZDA,021543.00,07,02,2019,00,00*68
$GPGGA,021543.00,4404.1290,N,12118.8590,W,7,18,99.99,1132.39,M,-22.155,M,,*56
$GPRMC,021543.00,A,4404.1290,N,12118.8590,W,0.0000,0.000,070219,14.4,E*46
$GPGSA,A,3,1,6,11,13,15,17,19,24,28,30,,,100.0,100.0,100.0*33
$GPGBS,021543.00,6.204,6.268,2299.770,,,,*7A
{"class":"TPV","status":7,"mode":3,"time":"2019-02-07T02:15:43.000Z","leapseconds":18,"ept":0.005,"lat":44.068817081,"lon":-121.314317437,"altHAE":1110.233,"altMSL":1132.388,"epx":6.204,"epy":6.268,"epv":2299.770,"track":0.0000,"magtrack":14.4185,"magvar":14.4,"speed":0.000,"climb":0.000,"eps":0.01,"epc":4599.54,"ecefx":-2386071.16,"ecefy":-3922189.40,"ecefz":4414361.02,"ecefvx":0.00,"ecefvy":0.00,"ecefvz":0.00,"ecefpAcc":0.99,"ecefvAcc":0.01,"velN":0.000,"velE":0.000,"velD":-0.000,"geoidSep":-22.155,"eph":1899.810,"sep":1899.810}
$GPGSV,6,1,24,01,22,049,43,06,13,165,40,11,11,042,35,12,01,272,00*74
$GPGSV,6,2,24,13,32,224,44,15,27,265,44,17,81,089,53,18,03,029,25*72
$GPGSV,6,3,24,19,63,204,49,24,29,309,35,28,48,069,50,30,22,140,44*77
$GPGSV,6,4,24,194,02,294,00,65,03,256,20,66,13,311,29,67,03,358,00*49
$GPGSV,6,5,24,73,09,116,43,74,52,095,46,75,57,332,50,76,15,311,35*7D
$GPGSV,6,6,24,83,01,024,21,84,52,047,44,85,58,170,51,86,06,196,45*7D
{"class":"SKY","xdop":0.41,"ydop":0.42,"vdop":99.99,"tdop":0.24,"hdop":99.99,"gdop":0.24,"pdop":99.99,"satellites":[{"PRN":1,"el":22.0,"az":49.0,"ss":43.0,"used":true,"gnssid":0,"svid":1,"health":1},{"PRN":6,"el":13.0,"az":165.0,"ss":40.0,"used":true,"gnssid":0,"svid":6,"health":1},{"PRN":11,"el":11.0,"az":42.0,"ss":35.0,"used":true,"gnssid":0,"svid":11,"health":1},{"PRN":12,"el":1.0,"az":272.0,"ss":0.0,"used":false,"gnssid":0,"svid":12,"health":1},{"PRN":13,"el":32.0,"az":224.0,"ss":44.0,"used":true,"gnssid":0,"svid":13,"health":1},{"PRN":15,"el":27.0,"az":265.0,"ss":44.0,"used":true,"gnssid":0,"svid":15,"health":1},{"PRN":17,"el":81.0,"az":89.0,"ss":53.0,"used":true,"gnssid":0,"svid":17,"health":1},{"PRN":18,"el":3.0,"az":29.0,"ss":25.0,"used":false,"gnssid":0,"svid":18,"health":1},{"PRN":19,"el":63.0,"az":204.0,"ss":49.0,"used":true,"gnssid":0,"svid":19,"health":1},{"PRN":24,"el":29.0,"az":309.0,"ss":35.0,"used":true,"gnssid":0,"svid":24,"health":1},{"PRN":28,"el":48.0,"az":69.0,"ss":50.0,"used":true,"gnssid":0,"svid":28,"health":1},{"PRN":30,"el":22.0,"az":140.0,"ss":44.0,"used":true,"gnssid":0,"svid":30,"health":1},{"PRN":194,"el":2.0,"az":294.0,"ss":0.0,"used":false,"gnssid":5,"svid":2,"health":1},{"PRN":65,"el":3.0,"az":256.0,"ss":20.0,"used":false,"gnssid":6,"svid":1,"health":1},{"PRN":66,"el":13.0,"az":311.0,"ss":29.0,"used":true,"gnssid":6,"svid":2,"health":1},{"PRN":67,"el":3.0,"az":358.0,"ss":0.0,"used":false,"gnssid":6,"svid":3,"health":1},{"PRN":73,"el":9.0,"az":116.0,"ss":43.0,"used":true,"gnssid":6,"svid":9,"health":1},{"PRN":74,"el":52.0,"az":95.0,"ss":46.0,"used":true,"gnssid":6,"svid":10,"health":1},{"PRN":75,"el":57.0,"az":332.0,"ss":50.0,"used":true,"gnssid":6,"svid":11,"health":1},{"PRN":76,"el":15.0,"az":311.0,"ss":35.0,"used":true,"gnssid":6,"svid":12,"health":1},{"PRN":83,"el":1.0,"az":24.0,"ss":21.0,"used":false,"gnssid":6,"svid":19,"health":1},{"PRN":84,"el":52.0,"az":47.0,"ss":44.0,"used":true,"gnssid":6,"svid":20,"health":1},{"PRN":85,"el":58.0,"az":170.0,"ss":51.0,"used":true,"gnssid":6,"svid":21,"health":1},{"PRN":86,"el":6.0,"az":196.0,"ss":45.0,"used":true,"gnssid":6,"svid":22,"health":1}]}
{"class":"TPV","status":7,"mode":3,"time":"2019-02-07T02:15:43.000Z","leapseconds":18,"ept":0.005,"lat":44.068817081,"lon":-121.314317437,"altHAE":1110.233,"altMSL":1132.388,"epx":6.204,"epy":6.268,"epv":2299.770,"track":0.0000,"magtrack":14.4185,"magvar":14.4,"speed":0.000,"climb":0.000,"eps":0.01,"epc":4599.54,"ecefx":-2386071.16,"ecefy":-3922189.40,"ecefz":4414361.02,"ecefvx":0.00,"ecefvy":0.00,"ecefvz":0.00,"ecefpAcc":0.99,"ecefvAcc":0.01,"velN":0.000,"velE":0.000,"velD":-0.000,"geoidSep":-22.155,"eph":1899.810,"sep":1899.810}
$GPZDA,021544.00,07,02,2019,00,00*6F
$GPGGA,021544.00,4404.1290,N,12118.8590,W,7,18,99.99,1132.39,M,-22.155,M,,*51
$GPRMC,021544.00,A,4404.1290,N,12118.8590,W,0.0000,0.000,070219,14.4,E*41
$GPGSA,A,3,1,6,11,13,15,17,19,24,28,30,,,100.0,100.0,100.0*33
$GPGBS,021544.00,6.204,6.268,2299.770,,,,*7D
{"class":"TPV","status":7,"mode":3,"time":"2019-02-07T02:15:44.000Z","leapseconds":18,"ept":0.005,"lat":44.068817081,"lon":-121.314317437,"altHAE":1110.233,"altMSL":1132.388,"epx":6.204,"epy":6.268,"epv":2299.770,"track":0.0000,"magtrack":14.4185,"magvar":14.4,"speed":0.000,"climb":0.000,"eps":0.01,"epc":4599.54,"ecefx":-2386071.16,"ecefy":-3922189.40,"ecefz":4414361.02,"ecefvx":0.00,"ecefvy":0.00,"ecefvz":0.00,"ecefpAcc":0.99,"ecefvAcc":0.01,"velN":0.000,"velE":0.000,"velD":-0.000,"geoidSep":-22.155,"eph":1899.810,"sep":1899.810}
$GPZDA,021545.00,07,02,2019,00,00*6E
$GPGGA,021545.00,4404.1290,N,12118.8590,W,7,18,99.99,1132.39,M,-22.155,M,,*50
$GPRMC,021545.00,A,4404.1290,N,12118.8590,W,0.0000,0.000,070219,14.4,E*40
$GPGSA,A,3,1,6,11,13,15,17,19,24,28,30,,,100.0,100.0,100.0*33
$GPGBS,021545.00,6.204,6.268,2299.770,,,,*7C
{"class":"TPV","status":7,"mode":3,"time":"2019-02-07T02:15:45.000Z","leapseconds":18,"ept":0.005,"lat":44.068817081,"lon":-121.314317437,"altHAE":1110.233,"altMSL":1132.388,"epx":6.204,"epy":6.268,"epv":2299.770,"track":0.0000,"magtrack":14.4185,"magvar":14.4,"speed":0.000,"climb":0.000,"eps":0.01,"epc":4599.54,"ecefx":-2386071.16,"ecefy":-3922189.40,"ecefz":4414361.02,"ecefvx":0.00,"ecefvy":0.00,"ecefvz":0.00,"ecefpAcc":0.99,"ecefvAcc":0.01,"velN":0.000,"velE":0.000,"velD":-0.000,"geoidSep":-22.155,"eph":1899.810,"sep":1899.810}
{"class":"TPV","status":7,"mode":3,"time":"2019-02-07T02:15:45.000Z","leapseconds":18,"ept":0.005,"lat":44.068817081,"lon":-121.314317437,"altHAE":1110.233,"altMSL":1132.388,"epx":6.204,"epy":6.268,"epv":2299.770,"track":0.0000,"magtrack":14.4185,"magvar":14.4,"speed":0.000,"climb":0.000,"eps":0.01,"epc":4599.54,"ecefx":-2386071.16,"ecefy":-3922189.40,"ecefz":4414361.02,"ecefvx":0.00,"ecefvy":0.00,"ecefvz":0.00,"ecefpAcc":0.99,"ecefvAcc":0.01,"velN":0.000,"velE":0.000,"velD":-0.000,"geoidSep":-22.155,"eph":1899.810,"sep":1899.810}
