$GPZDA,203539.00,28,01,2009,00,00*68
$GPGGA,203539.00,5333.7954,N,11326.3727,W,1,08,,654.41,M,-18.954,M,,*47
$GPRMC,203539.00,A,5333.7954,N,11326.3727,W,0.0000,0.000,280109,13.9,E*42
$GPGSA,A,3,,,,,,,,,,,,,,,*1C
{"class":"TPV","mode":3,"time":"2009-01-28T20:35:39.001Z","ept":0.005,"lat":53.563256267,"lon":-113.439544853,"altHAE":635.459,"altMSL":654.413,"track":0.0000,"magtrack":13.9113,"magvar":13.9,"speed":0.000,"climb":0.000,"eps":0.18,"ecefx":-1510299.52,"ecefy":-3483497.94,"ecefz":5108533.23,"ecefvx":0.00,"ecefvy":0.00,"ecefvz":0.00,"ecefpAcc":5.52,"ecefvAcc":0.18,"velN":0.000,"velE":0.000,"velD":-0.000,"geoidSep":-18.954}
$GPGSV,4,1,14,21,73,276,33,24,56,094,46,15,40,113,30,18,40,217,43*79
$GPGSV,4,2,14,26,40,087,45,29,40,164,34,16,28,280,33,06,21,311,00*7E
$GPGSV,4,3,14,10,21,056,38,03,10,317,00,22,09,225,29,08,06,036,00*7A
$GPGSV,4,4,14,27,06,055,24,07,05,000,25*7C
{"class":"SKY","xdop":0.60,"ydop":0.98,"vdop":2.13,"tdop":1.40,"hdop":1.15,"gdop":2.80,"pdop":2.42,"satellites":[{"PRN":21,"el":73.0,"az":276.0,"ss":33.0,"used":true,"gnssid":0,"svid":21,"health":1},{"PRN":24,"el":56.0,"az":94.0,"ss":46.0,"used":true,"gnssid":0,"svid":24,"health":1},{"PRN":15,"el":40.0,"az":113.0,"ss":30.0,"used":true,"gnssid":0,"svid":15,"health":1},{"PRN":18,"el":40.0,"az":217.0,"ss":43.0,"used":true,"gnssid":0,"svid":18,"health":1},{"PRN":26,"el":40.0,"az":87.0,"ss":45.0,"used":true,"gnssid":0,"svid":26,"health":1},{"PRN":29,"el":40.0,"az":164.0,"ss":34.0,"used":true,"gnssid":0,"svid":29,"health":1},{"PRN":16,"el":28.0,"az":280.0,"ss":33.0,"used":true,"gnssid":0,"svid":16,"health":1},{"PRN":6,"el":21.0,"az":311.0,"ss":0.0,"used":false,"gnssid":0,"svid":6,"health":1},{"PRN":10,"el":21.0,"az":56.0,"ss":38.0,"used":true,"gnssid":0,"svid":10,"health":1},{"PRN":3,"el":10.0,"az":317.0,"ss":0.0,"used":false,"gnssid":0,"svid":3,"health":1},{"PRN":22,"el":9.0,"az":225.0,"ss":29.0,"used":false,"gnssid":0,"svid":22,"health":1},{"PRN":8,"el":6.0,"az":36.0,"ss":0.0,"used":false,"gnssid":0,"svid":8,"health":1},{"PRN":27,"el":6.0,"az":55.0,"ss":24.0,"used":false,"gnssid":0,"svid":27,"health":1},{"PRN":7,"el":5.0,"az":0.0,"ss":25.0,"used":false,"gnssid":0,"svid":7,"health":1}]}
$GPZDA,203544.00,28,01,2009,00,00*62
$GPGGA,203544.00,5333.7954,N,11326.3727,W,1,08,1.15,654.41,M,-18.954,M,,*56
$GPRMC,203544.00,A,5333.7954,N,11326.3727,W,0.0000,0.000,280109,13.9,E*48
$GPGSA,A,3,21,24,15,18,26,29,16,10,,,,,2.4,1.1,2.1*36
$GPGBS,203544.00,9.054,14.659,48.990,,,,*4E
{"class":"TPV","mode":3,"time":"2009-01-28T20:35:44.001Z","leapseconds":15,"ept":0.005,"lat":53.563256267,"lon":-113.439544853,"altHAE":635.459,"altMSL":654.413,"epx":9.054,"epy":14.659,"epv":48.990,"track":0.0000,"magtrack":13.9113,"magvar":13.9,"speed":0.000,"climb":0.000,"eps":0.18,"epc":24.49,"ecefx":-1510299.62,"ecefy":-3483498.12,"ecefz":5108533.10,"ecefvx":0.00,"ecefvy":0.00,"ecefvz":0.00,"ecefpAcc":5.44,"ecefvAcc":0.18,"velN":0.000,"velE":0.000,"velD":-0.000,"geoidSep":-18.954,"eph":21.850,"sep":45.980}
$GPGSV,4,1,14,21,73,276,32,24,56,094,46,15,40,113,30,18,40,217,43*78
$GPGSV,4,2,14,26,40,087,45,29,40,164,34,16,28,280,33,06,21,311,00*7E
$GPGSV,4,3,14,10,21,056,39,03,10,317,00,22,09,225,29,08,06,036,00*7B
$GPGSV,4,4,14,27,06,055,24,07,05,000,26*7F
{"class":"SKY","xdop":0.60,"ydop":0.98,"vdop":2.13,"tdop":1.40,"hdop":1.15,"gdop":2.80,"pdop":2.42,"satellites":[{"PRN":21,"el":73.0,"az":276.0,"ss":32.0,"used":true,"gnssid":0,"svid":21,"health":1},{"PRN":24,"el":56.0,"az":94.0,"ss":46.0,"used":true,"gnssid":0,"svid":24,"health":1},{"PRN":15,"el":40.0,"az":113.0,"ss":30.0,"used":true,"gnssid":0,"svid":15,"health":1},{"PRN":18,"el":40.0,"az":217.0,"ss":43.0,"used":true,"gnssid":0,"svid":18,"health":1},{"PRN":26,"el":40.0,"az":87.0,"ss":45.0,"used":true,"gnssid":0,"svid":26,"health":1},{"PRN":29,"el":40.0,"az":164.0,"ss":34.0,"used":true,"gnssid":0,"svid":29,"health":1},{"PRN":16,"el":28.0,"az":280.0,"ss":33.0,"used":true,"gnssid":0,"svid":16,"health":1},{"PRN":6,"el":21.0,"az":311.0,"ss":0.0,"used":false,"gnssid":0,"svid":6,"health":1},{"PRN":10,"el":21.0,"az":56.0,"ss":39.0,"used":true,"gnssid":0,"svid":10,"health":1},{"PRN":3,"el":10.0,"az":317.0,"ss":0.0,"used":false,"gnssid":0,"svid":3,"health":1},{"PRN":22,"el":9.0,"az":225.0,"ss":29.0,"used":false,"gnssid":0,"svid":22,"health":1},{"PRN":8,"el":6.0,"az":36.0,"ss":0.0,"used":false,"gnssid":0,"svid":8,"health":1},{"PRN":27,"el":6.0,"az":55.0,"ss":24.0,"used":false,"gnssid":0,"svid":27,"health":1},{"PRN":7,"el":5.0,"az":0.0,"ss":26.0,"used":false,"gnssid":0,"svid":7,"health":1}]}
