$GNRMC,000941.00,A,4404.13387,N,12118.85628,W,0.029,,100117,,,A*7D
{"class":"TPV","mode":2,"time":"2017-01-10T00:09:41.000Z","ept":0.005,"lat":44.068897833,"lon":-121.314271333,"track":0.0000,"speed":0.015}
$GNVTG,,T,,M,0.029,N,0.053,K,A*30
$GNGGA,000941.00,4404.13387,N,12118.85628,W,1,12,1.01,1144.8,M,-21.4,M,,*4D
{"class":"TPV","mode":3,"time":"2017-01-10T00:09:41.000Z","ept":0.005,"lat":44.068897833,"lon":-121.314271333,"alt":1144.800,"track":0.0000,"speed":0.015}
$GNGSA,A,3,23,09,16,07,26,03,27,22,,,,,1.71,1.01,1.38*1B
{"class":"TPV","mode":3,"time":"2017-01-10T00:09:41.000Z","ept":0.005,"lat":44.068897833,"lon":-121.314271333,"alt":1144.800,"epv":31.740,"track":0.0000,"speed":0.015,"climb":0.000}
$GNGSA,A,3,80,70,73,79,69,71,,,,,,,1.71,1.01,1.38*1D
{"class":"TPV","mode":3,"time":"2017-01-10T00:09:41.000Z","ept":0.005,"lat":44.068897833,"lon":-121.314271333,"alt":1144.800,"epv":31.740,"track":0.0000,"speed":0.015,"climb":0.000}
$GPGSV,4,1,16,02,05,307,,03,21,174,29,04,12,038,23,06,07,270,06*7E
$GPGSV,4,2,16,07,46,259,26,08,01,143,28,09,67,312,39,16,47,064,35*70
$GPGSV,4,3,16,22,08,167,29,23,68,103,28,26,23,045,27,27,12,109,21*71
$GPGSV,4,4,16,30,12,249,17,46,31,150,,48,38,197,,51,37,160,*7C
{"class":"SKY","xdop":0.91,"ydop":0.89,"vdop":1.38,"tdop":1.27,"hdop":1.01,"gdop":2.53,"pdop":1.71,"satellites":[{"PRN":2,"el":5,"az":307,"ss":0,"used":false,"gnssid":0,"svid":2},{"PRN":3,"el":21,"az":174,"ss":29,"used":true,"gnssid":0,"svid":3},{"PRN":4,"el":12,"az":38,"ss":23,"used":false,"gnssid":0,"svid":4},{"PRN":6,"el":7,"az":270,"ss":6,"used":false,"gnssid":0,"svid":6},{"PRN":7,"el":46,"az":259,"ss":26,"used":true,"gnssid":0,"svid":7},{"PRN":8,"el":1,"az":143,"ss":28,"used":false,"gnssid":0,"svid":8},{"PRN":9,"el":67,"az":312,"ss":39,"used":true,"gnssid":0,"svid":9},{"PRN":16,"el":47,"az":64,"ss":35,"used":true,"gnssid":0,"svid":16},{"PRN":22,"el":8,"az":167,"ss":29,"used":true,"gnssid":0,"svid":22},{"PRN":23,"el":68,"az":103,"ss":28,"used":true,"gnssid":0,"svid":23},{"PRN":26,"el":23,"az":45,"ss":27,"used":true,"gnssid":0,"svid":26},{"PRN":27,"el":12,"az":109,"ss":21,"used":true,"gnssid":0,"svid":27},{"PRN":30,"el":12,"az":249,"ss":17,"used":false,"gnssid":0,"svid":30},{"PRN":133,"el":31,"az":150,"ss":0,"used":false,"gnssid":1,"svid":133},{"PRN":135,"el":38,"az":197,"ss":0,"used":false,"gnssid":1,"svid":135},{"PRN":138,"el":37,"az":160,"ss":0,"used":false,"gnssid":1,"svid":138}]}
$GLGSV,3,1,09,69,40,156,22,70,76,297,23,71,24,325,14,73,33,233,24*6D
$GLGSV,3,2,09,79,32,038,19,80,78,285,24,81,00,075,,87,01,345,*68
$GLGSV,3,3,09,88,07,028,*51
{"class":"SKY","xdop":0.58,"ydop":0.51,"vdop":1.38,"tdop":0.74,"hdop":1.01,"gdop":1.54,"pdop":1.71,"satellites":[{"PRN":2,"el":5,"az":307,"ss":0,"used":false,"gnssid":0,"svid":2},{"PRN":3,"el":21,"az":174,"ss":29,"used":true,"gnssid":0,"svid":3},{"PRN":4,"el":12,"az":38,"ss":23,"used":false,"gnssid":0,"svid":4},{"PRN":6,"el":7,"az":270,"ss":6,"used":false,"gnssid":0,"svid":6},{"PRN":7,"el":46,"az":259,"ss":26,"used":true,"gnssid":0,"svid":7},{"PRN":8,"el":1,"az":143,"ss":28,"used":false,"gnssid":0,"svid":8},{"PRN":9,"el":67,"az":312,"ss":39,"used":true,"gnssid":0,"svid":9},{"PRN":16,"el":47,"az":64,"ss":35,"used":true,"gnssid":0,"svid":16},{"PRN":22,"el":8,"az":167,"ss":29,"used":true,"gnssid":0,"svid":22},{"PRN":23,"el":68,"az":103,"ss":28,"used":true,"gnssid":0,"svid":23},{"PRN":26,"el":23,"az":45,"ss":27,"used":true,"gnssid":0,"svid":26},{"PRN":27,"el":12,"az":109,"ss":21,"used":true,"gnssid":0,"svid":27},{"PRN":30,"el":12,"az":249,"ss":17,"used":false,"gnssid":0,"svid":30},{"PRN":133,"el":31,"az":150,"ss":0,"used":false,"gnssid":1,"svid":133},{"PRN":135,"el":38,"az":197,"ss":0,"used":false,"gnssid":1,"svid":135},{"PRN":138,"el":37,"az":160,"ss":0,"used":false,"gnssid":1,"svid":138},{"PRN":69,"el":40,"az":156,"ss":22,"used":true,"gnssid":6,"svid":4},{"PRN":70,"el":76,"az":297,"ss":23,"used":true,"gnssid":6,"svid":5},{"PRN":71,"el":24,"az":325,"ss":14,"used":true,"gnssid":6,"svid":6},{"PRN":73,"el":33,"az":233,"ss":24,"used":true,"gnssid":6,"svid":8},{"PRN":79,"el":32,"az":38,"ss":19,"used":true,"gnssid":6,"svid":14},{"PRN":80,"el":78,"az":285,"ss":24,"used":true,"gnssid":6,"svid":15},{"PRN":81,"el":0,"az":75,"ss":0,"used":false,"gnssid":6,"svid":16},{"PRN":87,"el":1,"az":345,"ss":0,"used":false,"gnssid":6,"svid":22},{"PRN":88,"el":7,"az":28,"ss":0,"used":false,"gnssid":6,"svid":23}]}
$GNGLL,4404.13387,N,12118.85628,W,000941.00,A,A*69
{"class":"TPV","mode":3,"time":"2017-01-10T00:09:41.000Z","ept":0.005,"lat":44.068897833,"lon":-121.314271333,"alt":1144.800,"epx":13.609,"epy":13.292,"epv":31.740,"track":0.0000,"speed":0.015,"climb":0.000}
$GNZDA,000941.00,10,01,2017,00,00*70
$GNRMC,000942.00,A,4404.13401,N,12118.85633,W,0.041,,100117,,,A*73
$GNVTG,,T,,M,0.041,N,0.076,K,A*39
$GNGGA,000942.00,4404.13401,N,12118.85633,W,1,12,1.01,1144.9,M,-21.4,M,,*4C
$GNGSA,A,3,23,09,16,07,26,03,27,22,,,,,1.71,1.01,1.38*1B
$GNGSA,A,3,80,70,73,79,69,71,,,,,,,1.71,1.01,1.38*1D
$GPGSV,4,1,16,02,05,307,,03,21,174,29,04,12,038,24,06,07,270,08*77
$GPGSV,4,2,16,07,46,259,27,08,01,143,28,09,67,312,39,16,47,064,35*71
$GPGSV,4,3,16,22,08,167,29,23,68,103,28,26,23,045,27,27,12,109,20*70
$GPGSV,4,4,16,30,12,249,18,46,31,150,,48,38,197,,51,37,160,*73
$GLGSV,3,1,09,69,40,156,22,70,76,297,23,71,24,325,14,73,33,233,23*6A
$GLGSV,3,2,09,79,32,038,19,80,78,285,24,81,00,075,,87,01,345,*68
$GLGSV,3,3,09,88,07,028,*51
{"class":"SKY","xdop":0.58,"ydop":0.51,"vdop":1.38,"tdop":0.74,"hdop":1.01,"gdop":1.54,"pdop":1.71,"satellites":[{"PRN":2,"el":5,"az":307,"ss":0,"used":false,"gnssid":0,"svid":2},{"PRN":3,"el":21,"az":174,"ss":29,"used":true,"gnssid":0,"svid":3},{"PRN":4,"el":12,"az":38,"ss":24,"used":false,"gnssid":0,"svid":4},{"PRN":6,"el":7,"az":270,"ss":8,"used":false,"gnssid":0,"svid":6},{"PRN":7,"el":46,"az":259,"ss":27,"used":true,"gnssid":0,"svid":7},{"PRN":8,"el":1,"az":143,"ss":28,"used":false,"gnssid":0,"svid":8},{"PRN":9,"el":67,"az":312,"ss":39,"used":true,"gnssid":0,"svid":9},{"PRN":16,"el":47,"az":64,"ss":35,"used":true,"gnssid":0,"svid":16},{"PRN":22,"el":8,"az":167,"ss":29,"used":true,"gnssid":0,"svid":22},{"PRN":23,"el":68,"az":103,"ss":28,"used":true,"gnssid":0,"svid":23},{"PRN":26,"el":23,"az":45,"ss":27,"used":true,"gnssid":0,"svid":26},{"PRN":27,"el":12,"az":109,"ss":20,"used":true,"gnssid":0,"svid":27},{"PRN":30,"el":12,"az":249,"ss":18,"used":false,"gnssid":0,"svid":30},{"PRN":133,"el":31,"az":150,"ss":0,"used":false,"gnssid":1,"svid":133},{"PRN":135,"el":38,"az":197,"ss":0,"used":false,"gnssid":1,"svid":135},{"PRN":138,"el":37,"az":160,"ss":0,"used":false,"gnssid":1,"svid":138},{"PRN":69,"el":40,"az":156,"ss":22,"used":true,"gnssid":6,"svid":4},{"PRN":70,"el":76,"az":297,"ss":23,"used":true,"gnssid":6,"svid":5},{"PRN":71,"el":24,"az":325,"ss":14,"used":true,"gnssid":6,"svid":6},{"PRN":73,"el":33,"az":233,"ss":23,"used":true,"gnssid":6,"svid":8},{"PRN":79,"el":32,"az":38,"ss":19,"used":true,"gnssid":6,"svid":14},{"PRN":80,"el":78,"az":285,"ss":24,"used":true,"gnssid":6,"svid":15},{"PRN":81,"el":0,"az":75,"ss":0,"used":false,"gnssid":6,"svid":16},{"PRN":87,"el":1,"az":345,"ss":0,"used":false,"gnssid":6,"svid":22},{"PRN":88,"el":7,"az":28,"ss":0,"used":false,"gnssid":6,"svid":23}]}
$GNGLL,4404.13401,N,12118.85633,W,000942.00,A,A*69
{"class":"TPV","mode":3,"time":"2017-01-10T00:09:42.000Z","ept":0.005,"lat":44.068900167,"lon":-121.314272167,"alt":1144.900,"epx":8.626,"epy":7.711,"epv":31.740,"track":0.0000,"speed":0.021,"climb":0.000,"eps":22.23}
$GNZDA,000942.00,10,01,2017,00,00*73
$GNRMC,000943.00,A,4404.13403,N,12118.85633,W,0.023,,100117,,,A*74
$GNVTG,,T,,M,0.023,N,0.043,K,A*3B
$GNGGA,000943.00,4404.13403,N,12118.85633,W,1,12,1.01,1145.1,M,-21.4,M,,*46
$GNGSA,A,3,23,09,16,07,26,03,27,22,,,,,1.71,1.01,1.38*1B
$GNGSA,A,3,80,70,73,79,69,71,,,,,,,1.71,1.01,1.38*1D
$GPGSV,4,1,16,02,05,307,,03,21,174,29,04,12,038,24,06,07,270,09*76
$GPGSV,4,2,16,07,46,259,27,08,01,143,27,09,67,312,39,16,47,064,35*7E
$GPGSV,4,3,16,22,08,167,28,23,68,103,28,26,23,045,27,27,12,109,20*71
$GPGSV,4,4,16,30,12,249,17,46,31,150,,48,38,197,,51,37,160,*7C
$GLGSV,3,1,09,69,40,156,22,70,76,297,22,71,24,325,15,73,33,233,24*6D
$GLGSV,3,2,09,79,32,038,19,80,78,285,24,81,00,075,,87,01,345,*68
$GLGSV,3,3,09,88,07,028,*51
{"class":"SKY","xdop":0.58,"ydop":0.51,"vdop":1.38,"tdop":0.74,"hdop":1.01,"gdop":1.54,"pdop":1.71,"satellites":[{"PRN":2,"el":5,"az":307,"ss":0,"used":false,"gnssid":0,"svid":2},{"PRN":3,"el":21,"az":174,"ss":29,"used":true,"gnssid":0,"svid":3},{"PRN":4,"el":12,"az":38,"ss":24,"used":false,"gnssid":0,"svid":4},{"PRN":6,"el":7,"az":270,"ss":9,"used":false,"gnssid":0,"svid":6},{"PRN":7,"el":46,"az":259,"ss":27,"used":true,"gnssid":0,"svid":7},{"PRN":8,"el":1,"az":143,"ss":27,"used":false,"gnssid":0,"svid":8},{"PRN":9,"el":67,"az":312,"ss":39,"used":true,"gnssid":0,"svid":9},{"PRN":16,"el":47,"az":64,"ss":35,"used":true,"gnssid":0,"svid":16},{"PRN":22,"el":8,"az":167,"ss":28,"used":true,"gnssid":0,"svid":22},{"PRN":23,"el":68,"az":103,"ss":28,"used":true,"gnssid":0,"svid":23},{"PRN":26,"el":23,"az":45,"ss":27,"used":true,"gnssid":0,"svid":26},{"PRN":27,"el":12,"az":109,"ss":20,"used":true,"gnssid":0,"svid":27},{"PRN":30,"el":12,"az":249,"ss":17,"used":false,"gnssid":0,"svid":30},{"PRN":133,"el":31,"az":150,"ss":0,"used":false,"gnssid":1,"svid":133},{"PRN":135,"el":38,"az":197,"ss":0,"used":false,"gnssid":1,"svid":135},{"PRN":138,"el":37,"az":160,"ss":0,"used":false,"gnssid":1,"svid":138},{"PRN":69,"el":40,"az":156,"ss":22,"used":true,"gnssid":6,"svid":4},{"PRN":70,"el":76,"az":297,"ss":22,"used":true,"gnssid":6,"svid":5},{"PRN":71,"el":24,"az":325,"ss":15,"used":true,"gnssid":6,"svid":6},{"PRN":73,"el":33,"az":233,"ss":24,"used":true,"gnssid":6,"svid":8},{"PRN":79,"el":32,"az":38,"ss":19,"used":true,"gnssid":6,"svid":14},{"PRN":80,"el":78,"az":285,"ss":24,"used":true,"gnssid":6,"svid":15},{"PRN":81,"el":0,"az":75,"ss":0,"used":false,"gnssid":6,"svid":16},{"PRN":87,"el":1,"az":345,"ss":0,"used":false,"gnssid":6,"svid":22},{"PRN":88,"el":7,"az":28,"ss":0,"used":false,"gnssid":6,"svid":23}]}
$GNGLL,4404.13403,N,12118.85633,W,000943.00,A,A*6A
{"class":"TPV","mode":3,"time":"2017-01-10T00:09:43.000Z","ept":0.005,"lat":44.068900500,"lon":-121.314272167,"alt":1145.100,"epx":8.626,"epy":7.711,"epv":31.740,"track":0.0000,"speed":0.012,"climb":0.000,"eps":17.25}
$GNZDA,000943.00,10,01,2017,00,00*72
$GNRMC,000944.00,A,4404.13400,N,12118.85623,W,0.023,,100117,,,A*71
$GNVTG,,T,,M,0.023,N,0.042,K,A*3A
$GNGGA,000944.00,4404.13400,N,12118.85623,W,1,12,1.01,1145.3,M,-21.4,M,,*41
$GNGSA,A,3,23,09,16,07,26,03,27,22,,,,,1.71,1.01,1.38*1B
$GNGSA,A,3,80,70,73,79,69,71,,,,,,,1.71,1.01,1.38*1D
$GPGSV,4,1,16,02,05,307,,03,21,174,29,04,12,038,24,06,07,270,08*77
$GPGSV,4,2,16,07,46,259,27,08,01,143,27,09,67,312,39,16,47,064,36*7D
$GPGSV,4,3,16,22,08,167,28,23,68,103,28,26,23,045,27,27,12,109,19*7B
$GPGSV,4,4,16,30,12,249,17,46,31,150,,48,38,197,,51,37,160,*7C
$GLGSV,3,1,09,69,40,156,22,70,76,297,22,71,24,325,14,73,33,233,24*6C
$GLGSV,3,2,09,79,32,038,20,80,78,285,24,81,00,075,,87,01,345,*62
$GLGSV,3,3,09,88,07,028,*51
{"class":"SKY","xdop":0.58,"ydop":0.51,"vdop":1.38,"tdop":0.74,"hdop":1.01,"gdop":1.54,"pdop":1.71,"satellites":[{"PRN":2,"el":5,"az":307,"ss":0,"used":false,"gnssid":0,"svid":2},{"PRN":3,"el":21,"az":174,"ss":29,"used":true,"gnssid":0,"svid":3},{"PRN":4,"el":12,"az":38,"ss":24,"used":false,"gnssid":0,"svid":4},{"PRN":6,"el":7,"az":270,"ss":8,"used":false,"gnssid":0,"svid":6},{"PRN":7,"el":46,"az":259,"ss":27,"used":true,"gnssid":0,"svid":7},{"PRN":8,"el":1,"az":143,"ss":27,"used":false,"gnssid":0,"svid":8},{"PRN":9,"el":67,"az":312,"ss":39,"used":true,"gnssid":0,"svid":9},{"PRN":16,"el":47,"az":64,"ss":36,"used":true,"gnssid":0,"svid":16},{"PRN":22,"el":8,"az":167,"ss":28,"used":true,"gnssid":0,"svid":22},{"PRN":23,"el":68,"az":103,"ss":28,"used":true,"gnssid":0,"svid":23},{"PRN":26,"el":23,"az":45,"ss":27,"used":true,"gnssid":0,"svid":26},{"PRN":27,"el":12,"az":109,"ss":19,"used":true,"gnssid":0,"svid":27},{"PRN":30,"el":12,"az":249,"ss":17,"used":false,"gnssid":0,"svid":30},{"PRN":133,"el":31,"az":150,"ss":0,"used":false,"gnssid":1,"svid":133},{"PRN":135,"el":38,"az":197,"ss":0,"used":false,"gnssid":1,"svid":135},{"PRN":138,"el":37,"az":160,"ss":0,"used":false,"gnssid":1,"svid":138},{"PRN":69,"el":40,"az":156,"ss":22,"used":true,"gnssid":6,"svid":4},{"PRN":70,"el":76,"az":297,"ss":22,"used":true,"gnssid":6,"svid":5},{"PRN":71,"el":24,"az":325,"ss":14,"used":true,"gnssid":6,"svid":6},{"PRN":73,"el":33,"az":233,"ss":24,"used":true,"gnssid":6,"svid":8},{"PRN":79,"el":32,"az":38,"ss":20,"used":true,"gnssid":6,"svid":14},{"PRN":80,"el":78,"az":285,"ss":24,"used":true,"gnssid":6,"svid":15},{"PRN":81,"el":0,"az":75,"ss":0,"used":false,"gnssid":6,"svid":16},{"PRN":87,"el":1,"az":345,"ss":0,"used":false,"gnssid":6,"svid":22},{"PRN":88,"el":7,"az":28,"ss":0,"used":false,"gnssid":6,"svid":23}]}
$GNGLL,4404.13400,N,12118.85623,W,000944.00,A,A*6F
{"class":"TPV","mode":3,"time":"2017-01-10T00:09:44.000Z","ept":0.005,"lat":44.068900000,"lon":-121.314270500,"alt":1145.300,"epx":8.626,"epy":7.711,"epv":31.740,"track":0.0000,"speed":0.012,"climb":0.000,"eps":17.25}
$GNZDA,000944.00,10,01,2017,00,00*75
$GNRMC,000945.00,A,4404.13412,N,12118.85626,W,0.062,,100117,,,A*73
$GNVTG,,T,,M,0.062,N,0.115,K,A*3C
$GNGGA,000945.00,4404.13412,N,12118.85626,W,1,12,1.01,1145.1,M,-21.4,M,,*44
$GNGSA,A,3,23,09,16,07,26,03,27,22,,,,,1.71,1.01,1.38*1B
$GNGSA,A,3,80,70,73,79,69,71,,,,,,,1.71,1.01,1.38*1D
$GPGSV,4,1,16,02,05,307,,03,21,174,29,04,12,038,24,06,07,270,08*77
$GPGSV,4,2,16,07,46,259,27,08,01,143,27,09,67,312,39,16,47,064,36*7D
$GPGSV,4,3,16,22,08,167,28,23,68,103,29,26,23,045,26,27,12,109,20*71
$GPGSV,4,4,16,30,12,249,17,46,31,150,,48,38,197,,51,37,160,*7C
$GLGSV,3,1,09,69,40,156,22,70,76,297,22,71,24,325,14,73,33,233,24*6C
$GLGSV,3,2,09,79,32,038,20,80,78,285,25,81,00,075,,87,01,345,*63
$GLGSV,3,3,09,88,07,028,*51
{"class":"SKY","xdop":0.58,"ydop":0.51,"vdop":1.38,"tdop":0.74,"hdop":1.01,"gdop":1.54,"pdop":1.71,"satellites":[{"PRN":2,"el":5,"az":307,"ss":0,"used":false,"gnssid":0,"svid":2},{"PRN":3,"el":21,"az":174,"ss":29,"used":true,"gnssid":0,"svid":3},{"PRN":4,"el":12,"az":38,"ss":24,"used":false,"gnssid":0,"svid":4},{"PRN":6,"el":7,"az":270,"ss":8,"used":false,"gnssid":0,"svid":6},{"PRN":7,"el":46,"az":259,"ss":27,"used":true,"gnssid":0,"svid":7},{"PRN":8,"el":1,"az":143,"ss":27,"used":false,"gnssid":0,"svid":8},{"PRN":9,"el":67,"az":312,"ss":39,"used":true,"gnssid":0,"svid":9},{"PRN":16,"el":47,"az":64,"ss":36,"used":true,"gnssid":0,"svid":16},{"PRN":22,"el":8,"az":167,"ss":28,"used":true,"gnssid":0,"svid":22},{"PRN":23,"el":68,"az":103,"ss":29,"used":true,"gnssid":0,"svid":23},{"PRN":26,"el":23,"az":45,"ss":26,"used":true,"gnssid":0,"svid":26},{"PRN":27,"el":12,"az":109,"ss":20,"used":true,"gnssid":0,"svid":27},{"PRN":30,"el":12,"az":249,"ss":17,"used":false,"gnssid":0,"svid":30},{"PRN":133,"el":31,"az":150,"ss":0,"used":false,"gnssid":1,"svid":133},{"PRN":135,"el":38,"az":197,"ss":0,"used":false,"gnssid":1,"svid":135},{"PRN":138,"el":37,"az":160,"ss":0,"used":false,"gnssid":1,"svid":138},{"PRN":69,"el":40,"az":156,"ss":22,"used":true,"gnssid":6,"svid":4},{"PRN":70,"el":76,"az":297,"ss":22,"used":true,"gnssid":6,"svid":5},{"PRN":71,"el":24,"az":325,"ss":14,"used":true,"gnssid":6,"svid":6},{"PRN":73,"el":33,"az":233,"ss":24,"used":true,"gnssid":6,"svid":8},{"PRN":79,"el":32,"az":38,"ss":20,"used":true,"gnssid":6,"svid":14},{"PRN":80,"el":78,"az":285,"ss":25,"used":true,"gnssid":6,"svid":15},{"PRN":81,"el":0,"az":75,"ss":0,"used":false,"gnssid":6,"svid":16},{"PRN":87,"el":1,"az":345,"ss":0,"used":false,"gnssid":6,"svid":22},{"PRN":88,"el":7,"az":28,"ss":0,"used":false,"gnssid":6,"svid":23}]}
$GNGLL,4404.13412,N,12118.85626,W,000945.00,A,A*68
{"class":"TPV","mode":3,"time":"2017-01-10T00:09:45.000Z","ept":0.005,"lat":44.068902000,"lon":-121.314271000,"alt":1145.100,"epx":8.626,"epy":7.711,"epv":31.740,"track":0.0000,"speed":0.032,"climb":0.000,"eps":17.25}
$GNZDA,000945.00,10,01,2017,00,00*74
$GNRMC,000946.00,A,4404.13427,N,12118.85631,W,0.112,,100117,,,A*76
$GNVTG,,T,,M,0.112,N,0.207,K,A*3A
$GNGGA,000946.00,4404.13427,N,12118.85631,W,1,12,1.01,1144.7,M,-21.4,M,,*40
$GNGSA,A,3,23,09,16,07,26,03,27,22,,,,,1.71,1.01,1.38*1B
$GNGSA,A,3,80,70,73,79,69,71,,,,,,,1.71,1.01,1.38*1D
$GPGSV,4,1,16,02,05,307,,03,21,174,30,04,12,038,24,06,07,270,08*7F
$GPGSV,4,2,16,07,46,259,27,08,01,143,27,09,67,312,39,16,47,064,36*7D
$GPGSV,4,3,16,22,08,167,28,23,68,103,29,26,23,045,26,27,12,109,19*7B
$GPGSV,4,4,16,30,12,249,17,46,31,150,,48,38,197,,51,37,160,*7C
$GLGSV,3,1,09,69,40,156,23,70,76,297,22,71,24,325,14,73,33,233,25*6C
$GLGSV,3,2,09,79,32,038,19,80,78,285,24,81,00,075,,87,01,345,*68
$GLGSV,3,3,09,88,07,028,*51
{"class":"SKY","xdop":0.58,"ydop":0.51,"vdop":1.38,"tdop":0.74,"hdop":1.01,"gdop":1.54,"pdop":1.71,"satellites":[{"PRN":2,"el":5,"az":307,"ss":0,"used":false,"gnssid":0,"svid":2},{"PRN":3,"el":21,"az":174,"ss":30,"used":true,"gnssid":0,"svid":3},{"PRN":4,"el":12,"az":38,"ss":24,"used":false,"gnssid":0,"svid":4},{"PRN":6,"el":7,"az":270,"ss":8,"used":false,"gnssid":0,"svid":6},{"PRN":7,"el":46,"az":259,"ss":27,"used":true,"gnssid":0,"svid":7},{"PRN":8,"el":1,"az":143,"ss":27,"used":false,"gnssid":0,"svid":8},{"PRN":9,"el":67,"az":312,"ss":39,"used":true,"gnssid":0,"svid":9},{"PRN":16,"el":47,"az":64,"ss":36,"used":true,"gnssid":0,"svid":16},{"PRN":22,"el":8,"az":167,"ss":28,"used":true,"gnssid":0,"svid":22},{"PRN":23,"el":68,"az":103,"ss":29,"used":true,"gnssid":0,"svid":23},{"PRN":26,"el":23,"az":45,"ss":26,"used":true,"gnssid":0,"svid":26},{"PRN":27,"el":12,"az":109,"ss":19,"used":true,"gnssid":0,"svid":27},{"PRN":30,"el":12,"az":249,"ss":17,"used":false,"gnssid":0,"svid":30},{"PRN":133,"el":31,"az":150,"ss":0,"used":false,"gnssid":1,"svid":133},{"PRN":135,"el":38,"az":197,"ss":0,"used":false,"gnssid":1,"svid":135},{"PRN":138,"el":37,"az":160,"ss":0,"used":false,"gnssid":1,"svid":138},{"PRN":69,"el":40,"az":156,"ss":23,"used":true,"gnssid":6,"svid":4},{"PRN":70,"el":76,"az":297,"ss":22,"used":true,"gnssid":6,"svid":5},{"PRN":71,"el":24,"az":325,"ss":14,"used":true,"gnssid":6,"svid":6},{"PRN":73,"el":33,"az":233,"ss":25,"used":true,"gnssid":6,"svid":8},{"PRN":79,"el":32,"az":38,"ss":19,"used":true,"gnssid":6,"svid":14},{"PRN":80,"el":78,"az":285,"ss":24,"used":true,"gnssid":6,"svid":15},{"PRN":81,"el":0,"az":75,"ss":0,"used":false,"gnssid":6,"svid":16},{"PRN":87,"el":1,"az":345,"ss":0,"used":false,"gnssid":6,"svid":22},{"PRN":88,"el":7,"az":28,"ss":0,"used":false,"gnssid":6,"svid":23}]}
$GNGLL,4404.13427,N,12118.85631,W,000946.00,A,A*6B
{"class":"TPV","mode":3,"time":"2017-01-10T00:09:46.000Z","ept":0.005,"lat":44.068904500,"lon":-121.314271833,"alt":1144.700,"epx":8.626,"epy":7.711,"epv":31.740,"track":0.0000,"speed":0.058,"climb":0.000,"eps":17.25}
$GNZDA,000946.00,10,01,2017,00,00*77
$GNRMC,000947.00,A,4404.13449,N,12118.85655,W,0.130,,100117,,,A*7D
$GNVTG,,T,,M,0.130,N,0.240,K,A*39
$GNGGA,000947.00,4404.13449,N,12118.85655,W,1,12,1.01,1143.8,M,-21.4,M,,*43
$GNGSA,A,3,23,09,16,07,26,03,27,22,,,,,1.71,1.01,1.38*1B
$GNGSA,A,3,80,70,73,79,69,71,,,,,,,1.71,1.01,1.38*1D
$GPGSV,4,1,16,02,05,307,,03,21,174,30,04,12,038,24,06,07,270,08*7F
$GPGSV,4,2,16,07,46,259,27,08,01,143,27,09,67,312,39,16,47,064,35*7E
$GPGSV,4,3,16,22,08,167,28,23,68,103,30,26,23,045,26,27,12,109,20*79
$GPGSV,4,4,16,30,12,249,18,46,31,150,,48,38,197,,51,37,160,*73
$GLGSV,3,1,09,69,40,156,23,70,76,297,21,71,24,325,13,73,33,233,25*68
$GLGSV,3,2,09,79,32,038,18,80,78,285,25,81,00,075,,87,01,345,*68
$GLGSV,3,3,09,88,07,028,*51
{"class":"SKY","xdop":0.58,"ydop":0.51,"vdop":1.38,"tdop":0.74,"hdop":1.01,"gdop":1.54,"pdop":1.71,"satellites":[{"PRN":2,"el":5,"az":307,"ss":0,"used":false,"gnssid":0,"svid":2},{"PRN":3,"el":21,"az":174,"ss":30,"used":true,"gnssid":0,"svid":3},{"PRN":4,"el":12,"az":38,"ss":24,"used":false,"gnssid":0,"svid":4},{"PRN":6,"el":7,"az":270,"ss":8,"used":false,"gnssid":0,"svid":6},{"PRN":7,"el":46,"az":259,"ss":27,"used":true,"gnssid":0,"svid":7},{"PRN":8,"el":1,"az":143,"ss":27,"used":false,"gnssid":0,"svid":8},{"PRN":9,"el":67,"az":312,"ss":39,"used":true,"gnssid":0,"svid":9},{"PRN":16,"el":47,"az":64,"ss":35,"used":true,"gnssid":0,"svid":16},{"PRN":22,"el":8,"az":167,"ss":28,"used":true,"gnssid":0,"svid":22},{"PRN":23,"el":68,"az":103,"ss":30,"used":true,"gnssid":0,"svid":23},{"PRN":26,"el":23,"az":45,"ss":26,"used":true,"gnssid":0,"svid":26},{"PRN":27,"el":12,"az":109,"ss":20,"used":true,"gnssid":0,"svid":27},{"PRN":30,"el":12,"az":249,"ss":18,"used":false,"gnssid":0,"svid":30},{"PRN":133,"el":31,"az":150,"ss":0,"used":false,"gnssid":1,"svid":133},{"PRN":135,"el":38,"az":197,"ss":0,"used":false,"gnssid":1,"svid":135},{"PRN":138,"el":37,"az":160,"ss":0,"used":false,"gnssid":1,"svid":138},{"PRN":69,"el":40,"az":156,"ss":23,"used":true,"gnssid":6,"svid":4},{"PRN":70,"el":76,"az":297,"ss":21,"used":true,"gnssid":6,"svid":5},{"PRN":71,"el":24,"az":325,"ss":13,"used":true,"gnssid":6,"svid":6},{"PRN":73,"el":33,"az":233,"ss":25,"used":true,"gnssid":6,"svid":8},{"PRN":79,"el":32,"az":38,"ss":18,"used":true,"gnssid":6,"svid":14},{"PRN":80,"el":78,"az":285,"ss":25,"used":true,"gnssid":6,"svid":15},{"PRN":81,"el":0,"az":75,"ss":0,"used":false,"gnssid":6,"svid":16},{"PRN":87,"el":1,"az":345,"ss":0,"used":false,"gnssid":6,"svid":22},{"PRN":88,"el":7,"az":28,"ss":0,"used":false,"gnssid":6,"svid":23}]}
$GNGLL,4404.13449,N,12118.85655,W,000947.00,A,A*60
{"class":"TPV","mode":3,"time":"2017-01-10T00:09:47.000Z","ept":0.005,"lat":44.068908167,"lon":-121.314275833,"alt":1143.800,"epx":8.626,"epy":7.711,"epv":31.740,"track":0.0000,"speed":0.067,"climb":0.000,"eps":17.25}
$GNZDA,000947.00,10,01,2017,00,00*76
$GNRMC,000948.00,A,4404.13479,N,12118.85677,W,0.068,,100117,,,A*7D
$GNVTG,,T,,M,0.068,N,0.126,K,A*36
$GNGGA,000948.00,4404.13479,N,12118.85677,W,1,12,1.01,1142.9,M,-21.4,M,,*4F
$GNGSA,A,3,23,09,16,07,26,03,27,22,,,,,1.71,1.01,1.38*1B
$GNGSA,A,3,80,70,73,79,69,,,,,,,,1.71,1.01,1.38*1B
$GPGSV,4,1,16,02,05,307,,03,21,174,30,04,12,038,25,06,07,270,08*7E
$GPGSV,4,2,16,07,46,259,27,08,01,143,27,09,67,312,39,16,47,064,36*7D
$GPGSV,4,3,16,22,08,167,29,23,68,103,31,26,23,045,26,27,12,109,20*79
$GPGSV,4,4,16,30,12,249,18,46,31,150,,48,38,197,,51,37,160,*73
$GLGSV,3,1,09,69,40,156,23,70,76,297,21,71,24,325,,73,33,233,25*6A
$GLGSV,3,2,09,79,32,038,18,80,78,285,25,81,00,075,,87,01,345,*68
$GLGSV,3,3,09,88,07,028,*51
{"class":"SKY","xdop":0.71,"ydop":0.66,"vdop":1.38,"tdop":0.99,"hdop":1.01,"gdop":1.94,"pdop":1.71,"satellites":[{"PRN":2,"el":5,"az":307,"ss":0,"used":false,"gnssid":0,"svid":2},{"PRN":3,"el":21,"az":174,"ss":30,"used":true,"gnssid":0,"svid":3},{"PRN":4,"el":12,"az":38,"ss":25,"used":false,"gnssid":0,"svid":4},{"PRN":6,"el":7,"az":270,"ss":8,"used":false,"gnssid":0,"svid":6},{"PRN":7,"el":46,"az":259,"ss":27,"used":true,"gnssid":0,"svid":7},{"PRN":8,"el":1,"az":143,"ss":27,"used":false,"gnssid":0,"svid":8},{"PRN":9,"el":67,"az":312,"ss":39,"used":true,"gnssid":0,"svid":9},{"PRN":16,"el":47,"az":64,"ss":36,"used":true,"gnssid":0,"svid":16},{"PRN":22,"el":8,"az":167,"ss":29,"used":true,"gnssid":0,"svid":22},{"PRN":23,"el":68,"az":103,"ss":31,"used":true,"gnssid":0,"svid":23},{"PRN":26,"el":23,"az":45,"ss":26,"used":true,"gnssid":0,"svid":26},{"PRN":27,"el":12,"az":109,"ss":20,"used":true,"gnssid":0,"svid":27},{"PRN":30,"el":12,"az":249,"ss":18,"used":false,"gnssid":0,"svid":30},{"PRN":133,"el":31,"az":150,"ss":0,"used":false,"gnssid":1,"svid":133},{"PRN":135,"el":38,"az":197,"ss":0,"used":false,"gnssid":1,"svid":135},{"PRN":138,"el":37,"az":160,"ss":0,"used":false,"gnssid":1,"svid":138},{"PRN":69,"el":40,"az":156,"ss":23,"used":true,"gnssid":6,"svid":4},{"PRN":70,"el":76,"az":297,"ss":21,"used":true,"gnssid":6,"svid":5},{"PRN":71,"el":24,"az":325,"ss":0,"used":false,"gnssid":6,"svid":6},{"PRN":73,"el":33,"az":233,"ss":25,"used":true,"gnssid":6,"svid":8},{"PRN":79,"el":32,"az":38,"ss":18,"used":true,"gnssid":6,"svid":14},{"PRN":80,"el":78,"az":285,"ss":25,"used":true,"gnssid":6,"svid":15},{"PRN":81,"el":0,"az":75,"ss":0,"used":false,"gnssid":6,"svid":16},{"PRN":87,"el":1,"az":345,"ss":0,"used":false,"gnssid":6,"svid":22},{"PRN":88,"el":7,"az":28,"ss":0,"used":false,"gnssid":6,"svid":23}]}
$GNGLL,4404.13479,N,12118.85677,W,000948.00,A,A*6C
{"class":"TPV","mode":3,"time":"2017-01-10T00:09:48.000Z","ept":0.005,"lat":44.068913167,"lon":-121.314279500,"alt":1142.900,"epx":8.626,"epy":7.711,"epv":31.740,"track":0.0000,"speed":0.035,"climb":0.000,"eps":17.25}
$GNZDA,000948.00,10,01,2017,00,00*79
$GNRMC,000949.00,A,4404.13518,N,12118.85712,W,0.165,,100117,,,A*74
$GNVTG,,T,,M,0.165,N,0.306,K,A*3A
$GNGGA,000949.00,4404.13518,N,12118.85712,W,1,12,1.01,1141.5,M,-21.4,M,,*45
$GNGSA,A,3,23,09,16,07,26,03,27,22,,,,,1.71,1.01,1.38*1B
$GNGSA,A,3,80,70,73,79,69,,,,,,,,1.71,1.01,1.38*1B
$GPGSV,4,1,16,02,05,307,,03,21,174,30,04,12,038,25,06,07,270,08*7E
$GPGSV,4,2,16,07,46,259,27,08,01,143,27,09,67,312,39,16,47,064,36*7D
$GPGSV,4,3,16,22,08,167,29,23,68,103,31,26,23,045,26,27,12,109,20*79
$GPGSV,4,4,16,30,12,249,18,46,31,150,,48,38,197,,51,37,160,*73
$GLGSV,3,1,09,69,40,156,23,70,76,297,23,71,24,325,,73,33,233,25*68
$GLGSV,3,2,09,79,32,038,18,80,78,285,25,81,00,075,,87,01,345,*68
$GLGSV,3,3,09,88,07,028,*51
{"class":"SKY","xdop":0.71,"ydop":0.66,"vdop":1.38,"tdop":0.99,"hdop":1.01,"gdop":1.94,"pdop":1.71,"satellites":[{"PRN":2,"el":5,"az":307,"ss":0,"used":false,"gnssid":0,"svid":2},{"PRN":3,"el":21,"az":174,"ss":30,"used":true,"gnssid":0,"svid":3},{"PRN":4,"el":12,"az":38,"ss":25,"used":false,"gnssid":0,"svid":4},{"PRN":6,"el":7,"az":270,"ss":8,"used":false,"gnssid":0,"svid":6},{"PRN":7,"el":46,"az":259,"ss":27,"used":true,"gnssid":0,"svid":7},{"PRN":8,"el":1,"az":143,"ss":27,"used":false,"gnssid":0,"svid":8},{"PRN":9,"el":67,"az":312,"ss":39,"used":true,"gnssid":0,"svid":9},{"PRN":16,"el":47,"az":64,"ss":36,"used":true,"gnssid":0,"svid":16},{"PRN":22,"el":8,"az":167,"ss":29,"used":true,"gnssid":0,"svid":22},{"PRN":23,"el":68,"az":103,"ss":31,"used":true,"gnssid":0,"svid":23},{"PRN":26,"el":23,"az":45,"ss":26,"used":true,"gnssid":0,"svid":26},{"PRN":27,"el":12,"az":109,"ss":20,"used":true,"gnssid":0,"svid":27},{"PRN":30,"el":12,"az":249,"ss":18,"used":false,"gnssid":0,"svid":30},{"PRN":133,"el":31,"az":150,"ss":0,"used":false,"gnssid":1,"svid":133},{"PRN":135,"el":38,"az":197,"ss":0,"used":false,"gnssid":1,"svid":135},{"PRN":138,"el":37,"az":160,"ss":0,"used":false,"gnssid":1,"svid":138},{"PRN":69,"el":40,"az":156,"ss":23,"used":true,"gnssid":6,"svid":4},{"PRN":70,"el":76,"az":297,"ss":23,"used":true,"gnssid":6,"svid":5},{"PRN":71,"el":24,"az":325,"ss":0,"used":false,"gnssid":6,"svid":6},{"PRN":73,"el":33,"az":233,"ss":25,"used":true,"gnssid":6,"svid":8},{"PRN":79,"el":32,"az":38,"ss":18,"used":true,"gnssid":6,"svid":14},{"PRN":80,"el":78,"az":285,"ss":25,"used":true,"gnssid":6,"svid":15},{"PRN":81,"el":0,"az":75,"ss":0,"used":false,"gnssid":6,"svid":16},{"PRN":87,"el":1,"az":345,"ss":0,"used":false,"gnssid":6,"svid":22},{"PRN":88,"el":7,"az":28,"ss":0,"used":false,"gnssid":6,"svid":23}]}
$GNGLL,4404.13518,N,12118.85712,W,000949.00,A,A*69
{"class":"TPV","mode":3,"time":"2017-01-10T00:09:49.000Z","ept":0.005,"lat":44.068919667,"lon":-121.314285333,"alt":1141.500,"epx":10.708,"epy":9.923,"epv":31.740,"track":0.0000,"speed":0.085,"climb":0.000,"eps":19.33}
$GNZDA,000949.00,10,01,2017,00,00*78
$GNRMC,000950.00,A,4404.13542,N,12118.85744,W,0.108,,100117,,,A*7B
$GNVTG,,T,,M,0.108,N,0.199,K,A*35
$GNGGA,000950.00,4404.13542,N,12118.85744,W,1,12,1.01,1140.6,M,-21.4,M,,*43
$GNGSA,A,3,23,09,16,07,26,03,27,22,,,,,1.71,1.01,1.38*1B
$GNGSA,A,3,80,70,73,79,69,,,,,,,,1.71,1.01,1.38*1B
$GPGSV,4,1,16,02,05,307,,03,21,174,30,04,12,038,25,06,07,270,08*7E
$GPGSV,4,2,16,07,46,259,27,08,01,143,27,09,67,312,39,16,47,064,35*7E
$GPGSV,4,3,16,22,08,167,29,23,68,103,31,26,23,045,26,27,12,109,21*78
$GPGSV,4,4,16,30,12,249,19,46,31,150,,48,38,197,,51,37,160,*72
$GLGSV,3,1,09,69,40,156,23,70,76,297,22,71,24,325,,73,33,233,26*6A
$GLGSV,3,2,09,79,32,038,19,80,78,285,25,81,00,075,,87,01,345,*69
$GLGSV,3,3,09,88,07,028,*51
{"class":"SKY","xdop":0.71,"ydop":0.66,"vdop":1.38,"tdop":0.99,"hdop":1.01,"gdop":1.94,"pdop":1.71,"satellites":[{"PRN":2,"el":5,"az":307,"ss":0,"used":false,"gnssid":0,"svid":2},{"PRN":3,"el":21,"az":174,"ss":30,"used":true,"gnssid":0,"svid":3},{"PRN":4,"el":12,"az":38,"ss":25,"used":false,"gnssid":0,"svid":4},{"PRN":6,"el":7,"az":270,"ss":8,"used":false,"gnssid":0,"svid":6},{"PRN":7,"el":46,"az":259,"ss":27,"used":true,"gnssid":0,"svid":7},{"PRN":8,"el":1,"az":143,"ss":27,"used":false,"gnssid":0,"svid":8},{"PRN":9,"el":67,"az":312,"ss":39,"used":true,"gnssid":0,"svid":9},{"PRN":16,"el":47,"az":64,"ss":35,"used":true,"gnssid":0,"svid":16},{"PRN":22,"el":8,"az":167,"ss":29,"used":true,"gnssid":0,"svid":22},{"PRN":23,"el":68,"az":103,"ss":31,"used":true,"gnssid":0,"svid":23},{"PRN":26,"el":23,"az":45,"ss":26,"used":true,"gnssid":0,"svid":26},{"PRN":27,"el":12,"az":109,"ss":21,"used":true,"gnssid":0,"svid":27},{"PRN":30,"el":12,"az":249,"ss":19,"used":false,"gnssid":0,"svid":30},{"PRN":133,"el":31,"az":150,"ss":0,"used":false,"gnssid":1,"svid":133},{"PRN":135,"el":38,"az":197,"ss":0,"used":false,"gnssid":1,"svid":135},{"PRN":138,"el":37,"az":160,"ss":0,"used":false,"gnssid":1,"svid":138},{"PRN":69,"el":40,"az":156,"ss":23,"used":true,"gnssid":6,"svid":4},{"PRN":70,"el":76,"az":297,"ss":22,"used":true,"gnssid":6,"svid":5},{"PRN":71,"el":24,"az":325,"ss":0,"used":false,"gnssid":6,"svid":6},{"PRN":73,"el":33,"az":233,"ss":26,"used":true,"gnssid":6,"svid":8},{"PRN":79,"el":32,"az":38,"ss":19,"used":true,"gnssid":6,"svid":14},{"PRN":80,"el":78,"az":285,"ss":25,"used":true,"gnssid":6,"svid":15},{"PRN":81,"el":0,"az":75,"ss":0,"used":false,"gnssid":6,"svid":16},{"PRN":87,"el":1,"az":345,"ss":0,"used":false,"gnssid":6,"svid":22},{"PRN":88,"el":7,"az":28,"ss":0,"used":false,"gnssid":6,"svid":23}]}
$GNGLL,4404.13542,N,12118.85744,W,000950.00,A,A*6D
{"class":"TPV","mode":3,"time":"2017-01-10T00:09:50.000Z","ept":0.005,"lat":44.068923667,"lon":-121.314290667,"alt":1140.600,"epx":10.708,"epy":9.923,"epv":31.740,"track":0.0000,"speed":0.056,"climb":0.000,"eps":21.42}
$GNZDA,000950.00,10,01,2017,00,00*70
$GNRMC,000951.00,A,4404.13570,N,12118.85775,W,0.124,,100117,,,A*77
$GNVTG,,T,,M,0.124,N,0.230,K,A*3B
$GNGGA,000951.00,4404.13570,N,12118.85775,W,1,12,1.01,1139.7,M,-21.4,M,,*4E
$GNGSA,A,3,23,09,16,07,26,03,27,22,,,,,1.71,1.01,1.38*1B
$GNGSA,A,3,80,70,73,79,69,,,,,,,,1.71,1.01,1.38*1B
$GPGSV,4,1,16,02,05,307,,03,21,174,30,04,12,038,26,06,07,270,08*7D
$GPGSV,4,2,16,07,46,259,27,08,01,143,28,09,67,312,39,16,47,064,35*71
$GPGSV,4,3,16,22,08,167,29,23,68,103,31,26,23,045,26,27,12,109,21*78
$GPGSV,4,4,16,30,12,249,19,46,31,150,,48,38,197,,51,37,160,*72
$GLGSV,3,1,09,69,40,156,23,70,76,297,22,71,24,325,,73,33,233,26*6A
$GLGSV,3,2,09,79,32,038,19,80,78,285,25,81,00,075,,87,01,345,*69
$GLGSV,3,3,09,88,07,028,*51
{"class":"SKY","xdop":0.71,"ydop":0.66,"vdop":1.38,"tdop":0.99,"hdop":1.01,"gdop":1.94,"pdop":1.71,"satellites":[{"PRN":2,"el":5,"az":307,"ss":0,"used":false,"gnssid":0,"svid":2},{"PRN":3,"el":21,"az":174,"ss":30,"used":true,"gnssid":0,"svid":3},{"PRN":4,"el":12,"az":38,"ss":26,"used":false,"gnssid":0,"svid":4},{"PRN":6,"el":7,"az":270,"ss":8,"used":false,"gnssid":0,"svid":6},{"PRN":7,"el":46,"az":259,"ss":27,"used":true,"gnssid":0,"svid":7},{"PRN":8,"el":1,"az":143,"ss":28,"used":false,"gnssid":0,"svid":8},{"PRN":9,"el":67,"az":312,"ss":39,"used":true,"gnssid":0,"svid":9},{"PRN":16,"el":47,"az":64,"ss":35,"used":true,"gnssid":0,"svid":16},{"PRN":22,"el":8,"az":167,"ss":29,"used":true,"gnssid":0,"svid":22},{"PRN":23,"el":68,"az":103,"ss":31,"used":true,"gnssid":0,"svid":23},{"PRN":26,"el":23,"az":45,"ss":26,"used":true,"gnssid":0,"svid":26},{"PRN":27,"el":12,"az":109,"ss":21,"used":true,"gnssid":0,"svid":27},{"PRN":30,"el":12,"az":249,"ss":19,"used":false,"gnssid":0,"svid":30},{"PRN":133,"el":31,"az":150,"ss":0,"used":false,"gnssid":1,"svid":133},{"PRN":135,"el":38,"az":197,"ss":0,"used":false,"gnssid":1,"svid":135},{"PRN":138,"el":37,"az":160,"ss":0,"used":false,"gnssid":1,"svid":138},{"PRN":69,"el":40,"az":156,"ss":23,"used":true,"gnssid":6,"svid":4},{"PRN":70,"el":76,"az":297,"ss":22,"used":true,"gnssid":6,"svid":5},{"PRN":71,"el":24,"az":325,"ss":0,"used":false,"gnssid":6,"svid":6},{"PRN":73,"el":33,"az":233,"ss":26,"used":true,"gnssid":6,"svid":8},{"PRN":79,"el":32,"az":38,"ss":19,"used":true,"gnssid":6,"svid":14},{"PRN":80,"el":78,"az":285,"ss":25,"used":true,"gnssid":6,"svid":15},{"PRN":81,"el":0,"az":75,"ss":0,"used":false,"gnssid":6,"svid":16},{"PRN":87,"el":1,"az":345,"ss":0,"used":false,"gnssid":6,"svid":22},{"PRN":88,"el":7,"az":28,"ss":0,"used":false,"gnssid":6,"svid":23}]}
$GNGLL,4404.13570,N,12118.85775,W,000951.00,A,A*6F
{"class":"TPV","mode":3,"time":"2017-01-10T00:09:51.000Z","ept":0.005,"lat":44.068928333,"lon":-121.314295833,"alt":1139.700,"epx":10.708,"epy":9.923,"epv":31.740,"track":0.0000,"speed":0.064,"climb":0.000,"eps":21.42}
$GNZDA,000951.00,10,01,2017,00,00*71
$GNRMC,000952.00,A,4404.13594,N,12118.85806,W,0.159,,100117,,,A*7F
$GNVTG,,T,,M,0.159,N,0.295,K,A*3E
$GNGGA,000952.00,4404.13594,N,12118.85806,W,1,12,1.01,1138.7,M,-21.4,M,,*4D
$GNGSA,A,3,23,09,16,07,26,03,27,22,,,,,1.71,1.01,1.38*1B
$GNGSA,A,3,80,70,73,79,69,,,,,,,,1.71,1.01,1.38*1B
$GPGSV,4,1,16,02,05,307,,03,21,174,30,04,12,038,26,06,07,270,08*7D
$GPGSV,4,2,16,07,46,259,28,08,01,143,28,09,67,312,39,16,47,064,35*7E
$GPGSV,4,3,16,22,08,167,29,23,68,103,31,26,23,045,26,27,12,108,23*7B
$GPGSV,4,4,16,30,12,249,19,46,31,150,,48,38,197,,51,37,160,*72
$GLGSV,3,1,09,69,40,156,23,70,76,297,21,71,24,325,,73,33,233,26*69
$GLGSV,3,2,09,79,32,038,19,80,78,285,25,81,00,075,,87,01,345,*69
$GLGSV,3,3,09,88,07,028,*51
{"class":"SKY","xdop":0.71,"ydop":0.66,"vdop":1.38,"tdop":0.99,"hdop":1.01,"gdop":1.94,"pdop":1.71,"satellites":[{"PRN":2,"el":5,"az":307,"ss":0,"used":false,"gnssid":0,"svid":2},{"PRN":3,"el":21,"az":174,"ss":30,"used":true,"gnssid":0,"svid":3},{"PRN":4,"el":12,"az":38,"ss":26,"used":false,"gnssid":0,"svid":4},{"PRN":6,"el":7,"az":270,"ss":8,"used":false,"gnssid":0,"svid":6},{"PRN":7,"el":46,"az":259,"ss":28,"used":true,"gnssid":0,"svid":7},{"PRN":8,"el":1,"az":143,"ss":28,"used":false,"gnssid":0,"svid":8},{"PRN":9,"el":67,"az":312,"ss":39,"used":true,"gnssid":0,"svid":9},{"PRN":16,"el":47,"az":64,"ss":35,"used":true,"gnssid":0,"svid":16},{"PRN":22,"el":8,"az":167,"ss":29,"used":true,"gnssid":0,"svid":22},{"PRN":23,"el":68,"az":103,"ss":31,"used":true,"gnssid":0,"svid":23},{"PRN":26,"el":23,"az":45,"ss":26,"used":true,"gnssid":0,"svid":26},{"PRN":27,"el":12,"az":108,"ss":23,"used":true,"gnssid":0,"svid":27},{"PRN":30,"el":12,"az":249,"ss":19,"used":false,"gnssid":0,"svid":30},{"PRN":133,"el":31,"az":150,"ss":0,"used":false,"gnssid":1,"svid":133},{"PRN":135,"el":38,"az":197,"ss":0,"used":false,"gnssid":1,"svid":135},{"PRN":138,"el":37,"az":160,"ss":0,"used":false,"gnssid":1,"svid":138},{"PRN":69,"el":40,"az":156,"ss":23,"used":true,"gnssid":6,"svid":4},{"PRN":70,"el":76,"az":297,"ss":21,"used":true,"gnssid":6,"svid":5},{"PRN":71,"el":24,"az":325,"ss":0,"used":false,"gnssid":6,"svid":6},{"PRN":73,"el":33,"az":233,"ss":26,"used":true,"gnssid":6,"svid":8},{"PRN":79,"el":32,"az":38,"ss":19,"used":true,"gnssid":6,"svid":14},{"PRN":80,"el":78,"az":285,"ss":25,"used":true,"gnssid":6,"svid":15},{"PRN":81,"el":0,"az":75,"ss":0,"used":false,"gnssid":6,"svid":16},{"PRN":87,"el":1,"az":345,"ss":0,"used":false,"gnssid":6,"svid":22},{"PRN":88,"el":7,"az":28,"ss":0,"used":false,"gnssid":6,"svid":23}]}
$GNGLL,4404.13594,N,12118.85806,W,000952.00,A,A*6D
{"class":"TPV","mode":3,"time":"2017-01-10T00:09:52.000Z","ept":0.005,"lat":44.068932333,"lon":-121.314301000,"alt":1138.700,"epx":10.708,"epy":9.923,"epv":31.740,"track":0.0000,"speed":0.082,"climb":0.000,"eps":21.42}
$GNZDA,000952.00,10,01,2017,00,00*72
$GNRMC,000953.00,A,4404.13621,N,12118.85837,W,0.035,,100117,,,A*7A
$GNVTG,,T,,M,0.035,N,0.065,K,A*38
$GNGGA,000953.00,4404.13621,N,12118.85837,W,1,12,1.01,1137.6,M,-21.4,M,,*4D
$GNGSA,A,3,23,09,16,07,26,03,27,22,,,,,1.71,1.01,1.38*1B
$GNGSA,A,3,80,70,73,79,69,,,,,,,,1.71,1.01,1.38*1B
$GPGSV,4,1,16,02,05,307,,03,21,174,29,04,12,038,26,06,07,270,08*75
$GPGSV,4,2,16,07,46,259,28,08,01,143,28,09,67,312,39,16,47,064,35*7E
$GPGSV,4,3,16,22,08,167,29,23,68,103,31,26,23,045,26,27,12,108,23*7B
$GPGSV,4,4,16,30,12,249,20,46,31,150,,48,38,197,,51,37,160,*78
$GLGSV,3,1,09,69,40,156,23,70,76,297,22,71,24,325,,73,33,233,26*6A
$GLGSV,3,2,09,79,32,038,19,80,78,285,25,81,00,075,,87,01,345,*69
$GLGSV,3,3,09,88,07,028,*51
{"class":"SKY","xdop":0.71,"ydop":0.66,"vdop":1.38,"tdop":0.99,"hdop":1.01,"gdop":1.94,"pdop":1.71,"satellites":[{"PRN":2,"el":5,"az":307,"ss":0,"used":false,"gnssid":0,"svid":2},{"PRN":3,"el":21,"az":174,"ss":29,"used":true,"gnssid":0,"svid":3},{"PRN":4,"el":12,"az":38,"ss":26,"used":false,"gnssid":0,"svid":4},{"PRN":6,"el":7,"az":270,"ss":8,"used":false,"gnssid":0,"svid":6},{"PRN":7,"el":46,"az":259,"ss":28,"used":true,"gnssid":0,"svid":7},{"PRN":8,"el":1,"az":143,"ss":28,"used":false,"gnssid":0,"svid":8},{"PRN":9,"el":67,"az":312,"ss":39,"used":true,"gnssid":0,"svid":9},{"PRN":16,"el":47,"az":64,"ss":35,"used":true,"gnssid":0,"svid":16},{"PRN":22,"el":8,"az":167,"ss":29,"used":true,"gnssid":0,"svid":22},{"PRN":23,"el":68,"az":103,"ss":31,"used":true,"gnssid":0,"svid":23},{"PRN":26,"el":23,"az":45,"ss":26,"used":true,"gnssid":0,"svid":26},{"PRN":27,"el":12,"az":108,"ss":23,"used":true,"gnssid":0,"svid":27},{"PRN":30,"el":12,"az":249,"ss":20,"used":false,"gnssid":0,"svid":30},{"PRN":133,"el":31,"az":150,"ss":0,"used":false,"gnssid":1,"svid":133},{"PRN":135,"el":38,"az":197,"ss":0,"used":false,"gnssid":1,"svid":135},{"PRN":138,"el":37,"az":160,"ss":0,"used":false,"gnssid":1,"svid":138},{"PRN":69,"el":40,"az":156,"ss":23,"used":true,"gnssid":6,"svid":4},{"PRN":70,"el":76,"az":297,"ss":22,"used":true,"gnssid":6,"svid":5},{"PRN":71,"el":24,"az":325,"ss":0,"used":false,"gnssid":6,"svid":6},{"PRN":73,"el":33,"az":233,"ss":26,"used":true,"gnssid":6,"svid":8},{"PRN":79,"el":32,"az":38,"ss":19,"used":true,"gnssid":6,"svid":14},{"PRN":80,"el":78,"az":285,"ss":25,"used":true,"gnssid":6,"svid":15},{"PRN":81,"el":0,"az":75,"ss":0,"used":false,"gnssid":6,"svid":16},{"PRN":87,"el":1,"az":345,"ss":0,"used":false,"gnssid":6,"svid":22},{"PRN":88,"el":7,"az":28,"ss":0,"used":false,"gnssid":6,"svid":23}]}
$GNGLL,4404.13621,N,12118.85837,W,000953.00,A,A*63
{"class":"TPV","mode":3,"time":"2017-01-10T00:09:53.000Z","ept":0.005,"lat":44.068936833,"lon":-121.314306167,"alt":1137.600,"epx":10.712,"epy":9.930,"epv":31.740,"track":0.0000,"speed":0.018,"climb":0.000,"eps":21.42}
$GNZDA,000953.00,10,01,2017,00,00*73
$GNRMC,000954.00,A,4404.13651,N,12118.85869,W,0.008,,100117,,,A*7F
$GNVTG,,T,,M,0.008,N,0.015,K,A*31
$GNGGA,000954.00,4404.13651,N,12118.85869,W,1,12,1.01,1136.4,M,-21.4,M,,*45
$GNGSA,A,3,23,09,16,07,26,03,27,22,,,,,1.71,1.01,1.38*1B
$GNGSA,A,3,80,70,73,79,69,,,,,,,,1.71,1.01,1.38*1B
$GPGSV,4,1,16,02,05,307,,03,21,174,29,04,12,038,26,06,07,270,08*75
$GPGSV,4,2,16,07,46,259,28,08,01,143,29,09,67,312,39,16,47,064,35*7F
$GPGSV,4,3,16,22,08,167,28,23,68,103,32,26,23,045,25,27,12,108,24*7D
$GPGSV,4,4,16,30,12,249,20,46,31,150,,48,38,197,,51,37,160,*78
$GLGSV,3,1,09,69,40,156,23,70,76,297,22,71,24,325,,73,33,233,26*6A
$GLGSV,3,2,09,79,32,038,19,80,78,285,25,81,00,075,,87,01,345,*69
$GLGSV,3,3,09,88,07,028,*51
{"class":"SKY","xdop":0.71,"ydop":0.66,"vdop":1.38,"tdop":0.99,"hdop":1.01,"gdop":1.94,"pdop":1.71,"satellites":[{"PRN":2,"el":5,"az":307,"ss":0,"used":false,"gnssid":0,"svid":2},{"PRN":3,"el":21,"az":174,"ss":29,"used":true,"gnssid":0,"svid":3},{"PRN":4,"el":12,"az":38,"ss":26,"used":false,"gnssid":0,"svid":4},{"PRN":6,"el":7,"az":270,"ss":8,"used":false,"gnssid":0,"svid":6},{"PRN":7,"el":46,"az":259,"ss":28,"used":true,"gnssid":0,"svid":7},{"PRN":8,"el":1,"az":143,"ss":29,"used":false,"gnssid":0,"svid":8},{"PRN":9,"el":67,"az":312,"ss":39,"used":true,"gnssid":0,"svid":9},{"PRN":16,"el":47,"az":64,"ss":35,"used":true,"gnssid":0,"svid":16},{"PRN":22,"el":8,"az":167,"ss":28,"used":true,"gnssid":0,"svid":22},{"PRN":23,"el":68,"az":103,"ss":32,"used":true,"gnssid":0,"svid":23},{"PRN":26,"el":23,"az":45,"ss":25,"used":true,"gnssid":0,"svid":26},{"PRN":27,"el":12,"az":108,"ss":24,"used":true,"gnssid":0,"svid":27},{"PRN":30,"el":12,"az":249,"ss":20,"used":false,"gnssid":0,"svid":30},{"PRN":133,"el":31,"az":150,"ss":0,"used":false,"gnssid":1,"svid":133},{"PRN":135,"el":38,"az":197,"ss":0,"used":false,"gnssid":1,"svid":135},{"PRN":138,"el":37,"az":160,"ss":0,"used":false,"gnssid":1,"svid":138},{"PRN":69,"el":40,"az":156,"ss":23,"used":true,"gnssid":6,"svid":4},{"PRN":70,"el":76,"az":297,"ss":22,"used":true,"gnssid":6,"svid":5},{"PRN":71,"el":24,"az":325,"ss":0,"used":false,"gnssid":6,"svid":6},{"PRN":73,"el":33,"az":233,"ss":26,"used":true,"gnssid":6,"svid":8},{"PRN":79,"el":32,"az":38,"ss":19,"used":true,"gnssid":6,"svid":14},{"PRN":80,"el":78,"az":285,"ss":25,"used":true,"gnssid":6,"svid":15},{"PRN":81,"el":0,"az":75,"ss":0,"used":false,"gnssid":6,"svid":16},{"PRN":87,"el":1,"az":345,"ss":0,"used":false,"gnssid":6,"svid":22},{"PRN":88,"el":7,"az":28,"ss":0,"used":false,"gnssid":6,"svid":23}]}
$GNGLL,4404.13651,N,12118.85869,W,000954.00,A,A*68
{"class":"TPV","mode":3,"time":"2017-01-10T00:09:54.000Z","ept":0.005,"lat":44.068941833,"lon":-121.314311500,"alt":1136.400,"epx":10.712,"epy":9.930,"epv":31.740,"track":0.0000,"speed":0.004,"climb":0.000,"eps":21.42}
$GNZDA,000954.00,10,01,2017,00,00*74
$GNRMC,000955.00,A,4404.13679,N,12118.85900,W,0.148,,100117,,,A*7F
$GNVTG,,T,,M,0.148,N,0.273,K,A*36
$GNGGA,000955.00,4404.13679,N,12118.85900,W,1,12,1.01,1135.2,M,-21.4,M,,*45
$GNGSA,A,3,23,09,16,07,26,03,27,22,,,,,1.71,1.01,1.38*1B
$GNGSA,A,3,80,70,73,79,69,,,,,,,,1.71,1.01,1.38*1B
$GPGSV,4,1,16,02,05,307,,03,21,174,29,04,12,038,26,06,07,270,08*75
$GPGSV,4,2,16,07,46,259,28,08,01,143,29,09,67,312,39,16,47,064,35*7F
$GPGSV,4,3,16,22,08,167,29,23,68,103,32,26,23,045,24,27,12,108,24*7D
$GPGSV,4,4,16,30,12,249,21,46,31,150,,48,38,197,,51,37,160,*79
$GLGSV,3,1,09,69,40,156,23,70,76,297,21,71,24,325,,73,33,233,26*69
$GLGSV,3,2,09,79,32,038,20,80,78,285,25,81,00,075,,87,01,345,*63
$GLGSV,3,3,09,88,07,028,*51
{"class":"SKY","xdop":0.71,"ydop":0.66,"vdop":1.38,"tdop":0.99,"hdop":1.01,"gdop":1.94,"pdop":1.71,"satellites":[{"PRN":2,"el":5,"az":307,"ss":0,"used":false,"gnssid":0,"svid":2},{"PRN":3,"el":21,"az":174,"ss":29,"used":true,"gnssid":0,"svid":3},{"PRN":4,"el":12,"az":38,"ss":26,"used":false,"gnssid":0,"svid":4},{"PRN":6,"el":7,"az":270,"ss":8,"used":false,"gnssid":0,"svid":6},{"PRN":7,"el":46,"az":259,"ss":28,"used":true,"gnssid":0,"svid":7},{"PRN":8,"el":1,"az":143,"ss":29,"used":false,"gnssid":0,"svid":8},{"PRN":9,"el":67,"az":312,"ss":39,"used":true,"gnssid":0,"svid":9},{"PRN":16,"el":47,"az":64,"ss":35,"used":true,"gnssid":0,"svid":16},{"PRN":22,"el":8,"az":167,"ss":29,"used":true,"gnssid":0,"svid":22},{"PRN":23,"el":68,"az":103,"ss":32,"used":true,"gnssid":0,"svid":23},{"PRN":26,"el":23,"az":45,"ss":24,"used":true,"gnssid":0,"svid":26},{"PRN":27,"el":12,"az":108,"ss":24,"used":true,"gnssid":0,"svid":27},{"PRN":30,"el":12,"az":249,"ss":21,"used":false,"gnssid":0,"svid":30},{"PRN":133,"el":31,"az":150,"ss":0,"used":false,"gnssid":1,"svid":133},{"PRN":135,"el":38,"az":197,"ss":0,"used":false,"gnssid":1,"svid":135},{"PRN":138,"el":37,"az":160,"ss":0,"used":false,"gnssid":1,"svid":138},{"PRN":69,"el":40,"az":156,"ss":23,"used":true,"gnssid":6,"svid":4},{"PRN":70,"el":76,"az":297,"ss":21,"used":true,"gnssid":6,"svid":5},{"PRN":71,"el":24,"az":325,"ss":0,"used":false,"gnssid":6,"svid":6},{"PRN":73,"el":33,"az":233,"ss":26,"used":true,"gnssid":6,"svid":8},{"PRN":79,"el":32,"az":38,"ss":20,"used":true,"gnssid":6,"svid":14},{"PRN":80,"el":78,"az":285,"ss":25,"used":true,"gnssid":6,"svid":15},{"PRN":81,"el":0,"az":75,"ss":0,"used":false,"gnssid":6,"svid":16},{"PRN":87,"el":1,"az":345,"ss":0,"used":false,"gnssid":6,"svid":22},{"PRN":88,"el":7,"az":28,"ss":0,"used":false,"gnssid":6,"svid":23}]}
$GNGLL,4404.13679,N,12118.85900,W,000955.00,A,A*6D
{"class":"TPV","mode":3,"time":"2017-01-10T00:09:55.000Z","ept":0.005,"lat":44.068946500,"lon":-121.314316667,"alt":1135.200,"epx":10.712,"epy":9.930,"epv":31.740,"track":0.0000,"speed":0.076,"climb":0.000,"eps":21.42}
$GNZDA,000955.00,10,01,2017,00,00*75
$GNRMC,000956.00,A,4404.13702,N,12118.85921,W,0.130,,100117,,,A*7D
$GNVTG,,T,,M,0.130,N,0.241,K,A*38
$GNGGA,000956.00,4404.13702,N,12118.85921,W,1,12,1.01,1134.4,M,-21.4,M,,*4F
$GNGSA,A,3,23,09,16,07,26,03,27,22,,,,,1.71,1.01,1.38*1B
$GNGSA,A,3,80,70,73,79,69,,,,,,,,1.71,1.01,1.38*1B
$GPGSV,4,1,16,02,05,307,,03,21,174,29,04,12,038,26,06,07,270,08*75
$GPGSV,4,2,16,07,46,259,29,08,01,143,29,09,67,312,39,16,47,064,35*7E
$GPGSV,4,3,16,22,08,167,29,23,68,103,31,26,23,045,24,27,12,108,24*7E
$GPGSV,4,4,16,30,12,249,21,46,31,150,,48,38,197,,51,37,160,*79
$GLGSV,3,1,09,69,40,156,23,70,76,297,20,71,24,325,,73,33,233,26*68
$GLGSV,3,2,09,79,32,038,19,80,78,285,24,81,00,075,,87,01,345,*68
$GLGSV,3,3,09,88,07,028,*51
{"class":"SKY","xdop":0.71,"ydop":0.66,"vdop":1.38,"tdop":0.99,"hdop":1.01,"gdop":1.94,"pdop":1.71,"satellites":[{"PRN":2,"el":5,"az":307,"ss":0,"used":false,"gnssid":0,"svid":2},{"PRN":3,"el":21,"az":174,"ss":29,"used":true,"gnssid":0,"svid":3},{"PRN":4,"el":12,"az":38,"ss":26,"used":false,"gnssid":0,"svid":4},{"PRN":6,"el":7,"az":270,"ss":8,"used":false,"gnssid":0,"svid":6},{"PRN":7,"el":46,"az":259,"ss":29,"used":true,"gnssid":0,"svid":7},{"PRN":8,"el":1,"az":143,"ss":29,"used":false,"gnssid":0,"svid":8},{"PRN":9,"el":67,"az":312,"ss":39,"used":true,"gnssid":0,"svid":9},{"PRN":16,"el":47,"az":64,"ss":35,"used":true,"gnssid":0,"svid":16},{"PRN":22,"el":8,"az":167,"ss":29,"used":true,"gnssid":0,"svid":22},{"PRN":23,"el":68,"az":103,"ss":31,"used":true,"gnssid":0,"svid":23},{"PRN":26,"el":23,"az":45,"ss":24,"used":true,"gnssid":0,"svid":26},{"PRN":27,"el":12,"az":108,"ss":24,"used":true,"gnssid":0,"svid":27},{"PRN":30,"el":12,"az":249,"ss":21,"used":false,"gnssid":0,"svid":30},{"PRN":133,"el":31,"az":150,"ss":0,"used":false,"gnssid":1,"svid":133},{"PRN":135,"el":38,"az":197,"ss":0,"used":false,"gnssid":1,"svid":135},{"PRN":138,"el":37,"az":160,"ss":0,"used":false,"gnssid":1,"svid":138},{"PRN":69,"el":40,"az":156,"ss":23,"used":true,"gnssid":6,"svid":4},{"PRN":70,"el":76,"az":297,"ss":20,"used":true,"gnssid":6,"svid":5},{"PRN":71,"el":24,"az":325,"ss":0,"used":false,"gnssid":6,"svid":6},{"PRN":73,"el":33,"az":233,"ss":26,"used":true,"gnssid":6,"svid":8},{"PRN":79,"el":32,"az":38,"ss":19,"used":true,"gnssid":6,"svid":14},{"PRN":80,"el":78,"az":285,"ss":24,"used":true,"gnssid":6,"svid":15},{"PRN":81,"el":0,"az":75,"ss":0,"used":false,"gnssid":6,"svid":16},{"PRN":87,"el":1,"az":345,"ss":0,"used":false,"gnssid":6,"svid":22},{"PRN":88,"el":7,"az":28,"ss":0,"used":false,"gnssid":6,"svid":23}]}
$GNGLL,4404.13702,N,12118.85921,W,000956.00,A,A*60
{"class":"TPV","mode":3,"time":"2017-01-10T00:09:56.000Z","ept":0.005,"lat":44.068950333,"lon":-121.314320167,"alt":1134.400,"epx":10.712,"epy":9.930,"epv":31.740,"track":0.0000,"speed":0.067,"climb":0.000,"eps":21.42}
$GNZDA,000956.00,10,01,2017,00,00*76
$GNRMC,000957.00,A,4404.13717,N,12118.85939,W,0.088,,100117,,,A*73
$GNVTG,,T,,M,0.088,N,0.164,K,A*3E
$GNGGA,000957.00,4404.13717,N,12118.85939,W,1,12,1.01,1133.7,M,-21.4,M,,*47
$GNGSA,A,3,23,09,16,07,26,03,27,22,,,,,1.71,1.01,1.38*1B
$GNGSA,A,3,80,70,73,79,69,,,,,,,,1.71,1.01,1.38*1B
$GPGSV,4,1,16,02,05,307,,03,21,174,29,04,12,038,27,06,07,270,08*74
$GPGSV,4,2,16,07,46,259,30,08,01,143,29,09,67,312,40,16,47,064,35*78
$GPGSV,4,3,16,22,08,167,28,23,68,103,31,26,23,045,25,27,12,108,25*7F
$GPGSV,4,4,16,30,12,249,21,46,31,150,,48,38,197,,51,37,160,*79
$GLGSV,3,1,09,69,40,156,23,70,76,297,20,71,24,325,,73,33,233,25*6B
$GLGSV,3,2,09,79,32,038,19,80,78,285,25,81,00,075,,87,01,345,*69
$GLGSV,3,3,09,88,07,028,*51
{"class":"SKY","xdop":0.71,"ydop":0.66,"vdop":1.38,"tdop":0.99,"hdop":1.01,"gdop":1.94,"pdop":1.71,"satellites":[{"PRN":2,"el":5,"az":307,"ss":0,"used":false,"gnssid":0,"svid":2},{"PRN":3,"el":21,"az":174,"ss":29,"used":true,"gnssid":0,"svid":3},{"PRN":4,"el":12,"az":38,"ss":27,"used":false,"gnssid":0,"svid":4},{"PRN":6,"el":7,"az":270,"ss":8,"used":false,"gnssid":0,"svid":6},{"PRN":7,"el":46,"az":259,"ss":30,"used":true,"gnssid":0,"svid":7},{"PRN":8,"el":1,"az":143,"ss":29,"used":false,"gnssid":0,"svid":8},{"PRN":9,"el":67,"az":312,"ss":40,"used":true,"gnssid":0,"svid":9},{"PRN":16,"el":47,"az":64,"ss":35,"used":true,"gnssid":0,"svid":16},{"PRN":22,"el":8,"az":167,"ss":28,"used":true,"gnssid":0,"svid":22},{"PRN":23,"el":68,"az":103,"ss":31,"used":true,"gnssid":0,"svid":23},{"PRN":26,"el":23,"az":45,"ss":25,"used":true,"gnssid":0,"svid":26},{"PRN":27,"el":12,"az":108,"ss":25,"used":true,"gnssid":0,"svid":27},{"PRN":30,"el":12,"az":249,"ss":21,"used":false,"gnssid":0,"svid":30},{"PRN":133,"el":31,"az":150,"ss":0,"used":false,"gnssid":1,"svid":133},{"PRN":135,"el":38,"az":197,"ss":0,"used":false,"gnssid":1,"svid":135},{"PRN":138,"el":37,"az":160,"ss":0,"used":false,"gnssid":1,"svid":138},{"PRN":69,"el":40,"az":156,"ss":23,"used":true,"gnssid":6,"svid":4},{"PRN":70,"el":76,"az":297,"ss":20,"used":true,"gnssid":6,"svid":5},{"PRN":71,"el":24,"az":325,"ss":0,"used":false,"gnssid":6,"svid":6},{"PRN":73,"el":33,"az":233,"ss":25,"used":true,"gnssid":6,"svid":8},{"PRN":79,"el":32,"az":38,"ss":19,"used":true,"gnssid":6,"svid":14},{"PRN":80,"el":78,"az":285,"ss":25,"used":true,"gnssid":6,"svid":15},{"PRN":81,"el":0,"az":75,"ss":0,"used":false,"gnssid":6,"svid":16},{"PRN":87,"el":1,"az":345,"ss":0,"used":false,"gnssid":6,"svid":22},{"PRN":88,"el":7,"az":28,"ss":0,"used":false,"gnssid":6,"svid":23}]}
$GNGLL,4404.13717,N,12118.85939,W,000957.00,A,A*6C
{"class":"TPV","mode":3,"time":"2017-01-10T00:09:57.000Z","ept":0.005,"lat":44.068952833,"lon":-121.314323167,"alt":1133.700,"epx":10.712,"epy":9.930,"epv":31.740,"track":0.0000,"speed":0.045,"climb":0.000,"eps":21.42}
$GNZDA,000957.00,10,01,2017,00,00*77
$GNRMC,000958.00,A,4404.13739,N,12118.85957,W,0.045,,100117,,,A*79
$GNVTG,,T,,M,0.045,N,0.083,K,A*37
$GNGGA,000958.00,4404.13739,N,12118.85957,W,1,12,0.98,1132.4,M,-21.4,M,,*4F
$GNGSA,A,3,23,09,16,07,26,03,27,22,,,,,1.67,0.98,1.36*13
$GNGSA,A,3,80,70,73,79,69,,,,,,,,1.67,0.98,1.36*13
$GPGSV,4,1,16,02,05,307,,03,21,174,29,04,12,038,27,06,07,270,08*74
$GPGSV,4,2,16,07,46,259,30,08,01,143,29,09,67,312,40,16,47,064,35*78
$GPGSV,4,3,16,22,08,167,28,23,68,103,32,26,23,045,24,27,12,108,26*7E
$GPGSV,4,4,16,30,12,249,21,46,31,150,,48,38,197,,51,37,160,*79
$GLGSV,3,1,09,69,40,156,22,70,76,297,18,71,24,325,,73,33,233,25*61
$GLGSV,3,2,09,79,32,038,19,80,78,285,24,81,00,075,,87,01,345,*68
$GLGSV,3,3,09,88,07,028,*51
{"class":"SKY","xdop":0.71,"ydop":0.66,"vdop":1.36,"tdop":0.99,"hdop":0.98,"gdop":1.94,"pdop":1.67,"satellites":[{"PRN":2,"el":5,"az":307,"ss":0,"used":false,"gnssid":0,"svid":2},{"PRN":3,"el":21,"az":174,"ss":29,"used":true,"gnssid":0,"svid":3},{"PRN":4,"el":12,"az":38,"ss":27,"used":false,"gnssid":0,"svid":4},{"PRN":6,"el":7,"az":270,"ss":8,"used":false,"gnssid":0,"svid":6},{"PRN":7,"el":46,"az":259,"ss":30,"used":true,"gnssid":0,"svid":7},{"PRN":8,"el":1,"az":143,"ss":29,"used":false,"gnssid":0,"svid":8},{"PRN":9,"el":67,"az":312,"ss":40,"used":true,"gnssid":0,"svid":9},{"PRN":16,"el":47,"az":64,"ss":35,"used":true,"gnssid":0,"svid":16},{"PRN":22,"el":8,"az":167,"ss":28,"used":true,"gnssid":0,"svid":22},{"PRN":23,"el":68,"az":103,"ss":32,"used":true,"gnssid":0,"svid":23},{"PRN":26,"el":23,"az":45,"ss":24,"used":true,"gnssid":0,"svid":26},{"PRN":27,"el":12,"az":108,"ss":26,"used":true,"gnssid":0,"svid":27},{"PRN":30,"el":12,"az":249,"ss":21,"used":false,"gnssid":0,"svid":30},{"PRN":133,"el":31,"az":150,"ss":0,"used":false,"gnssid":1,"svid":133},{"PRN":135,"el":38,"az":197,"ss":0,"used":false,"gnssid":1,"svid":135},{"PRN":138,"el":37,"az":160,"ss":0,"used":false,"gnssid":1,"svid":138},{"PRN":69,"el":40,"az":156,"ss":22,"used":true,"gnssid":6,"svid":4},{"PRN":70,"el":76,"az":297,"ss":18,"used":true,"gnssid":6,"svid":5},{"PRN":71,"el":24,"az":325,"ss":0,"used":false,"gnssid":6,"svid":6},{"PRN":73,"el":33,"az":233,"ss":25,"used":true,"gnssid":6,"svid":8},{"PRN":79,"el":32,"az":38,"ss":19,"used":true,"gnssid":6,"svid":14},{"PRN":80,"el":78,"az":285,"ss":24,"used":true,"gnssid":6,"svid":15},{"PRN":81,"el":0,"az":75,"ss":0,"used":false,"gnssid":6,"svid":16},{"PRN":87,"el":1,"az":345,"ss":0,"used":false,"gnssid":6,"svid":22},{"PRN":88,"el":7,"az":28,"ss":0,"used":false,"gnssid":6,"svid":23}]}
$GNGLL,4404.13739,N,12118.85957,W,000958.00,A,A*67
{"class":"TPV","mode":3,"time":"2017-01-10T00:09:58.000Z","ept":0.005,"lat":44.068956500,"lon":-121.314326167,"alt":1132.400,"epx":10.712,"epy":9.930,"epv":31.740,"track":0.0000,"speed":0.023,"climb":0.000,"eps":21.42}
$GNZDA,000958.00,10,01,2017,00,00*78
$GNRMC,000959.00,A,4404.13755,N,12118.85967,W,0.038,,100117,,,A*7B
$GNVTG,,T,,M,0.038,N,0.071,K,A*30
$GNGGA,000959.00,4404.13755,N,12118.85967,W,1,12,0.98,1131.5,M,-21.4,M,,*45
$GNGSA,A,3,23,09,16,07,26,03,27,22,,,,,1.67,0.98,1.36*13
$GNGSA,A,3,80,70,73,79,69,,,,,,,,1.67,0.98,1.36*13
$GPGSV,4,1,16,02,05,307,,03,21,174,29,04,12,038,27,06,07,270,08*74
$GPGSV,4,2,16,07,46,259,30,08,01,143,30,09,67,312,40,16,47,064,35*70
$GPGSV,4,3,16,22,08,167,28,23,68,103,31,26,23,045,24,27,12,108,26*7D
$GPGSV,4,4,16,30,12,249,22,46,31,150,,48,38,197,,51,37,160,*7A
$GLGSV,3,1,09,69,40,156,22,70,76,297,18,71,24,325,,73,33,233,26*62
$GLGSV,3,2,09,79,32,038,20,80,78,285,23,81,00,075,,87,01,345,*65
$GLGSV,3,3,09,88,07,028,*51
{"class":"SKY","xdop":0.71,"ydop":0.66,"vdop":1.36,"tdop":0.99,"hdop":0.98,"gdop":1.94,"pdop":1.67,"satellites":[{"PRN":2,"el":5,"az":307,"ss":0,"used":false,"gnssid":0,"svid":2},{"PRN":3,"el":21,"az":174,"ss":29,"used":true,"gnssid":0,"svid":3},{"PRN":4,"el":12,"az":38,"ss":27,"used":false,"gnssid":0,"svid":4},{"PRN":6,"el":7,"az":270,"ss":8,"used":false,"gnssid":0,"svid":6},{"PRN":7,"el":46,"az":259,"ss":30,"used":true,"gnssid":0,"svid":7},{"PRN":8,"el":1,"az":143,"ss":30,"used":false,"gnssid":0,"svid":8},{"PRN":9,"el":67,"az":312,"ss":40,"used":true,"gnssid":0,"svid":9},{"PRN":16,"el":47,"az":64,"ss":35,"used":true,"gnssid":0,"svid":16},{"PRN":22,"el":8,"az":167,"ss":28,"used":true,"gnssid":0,"svid":22},{"PRN":23,"el":68,"az":103,"ss":31,"used":true,"gnssid":0,"svid":23},{"PRN":26,"el":23,"az":45,"ss":24,"used":true,"gnssid":0,"svid":26},{"PRN":27,"el":12,"az":108,"ss":26,"used":true,"gnssid":0,"svid":27},{"PRN":30,"el":12,"az":249,"ss":22,"used":false,"gnssid":0,"svid":30},{"PRN":133,"el":31,"az":150,"ss":0,"used":false,"gnssid":1,"svid":133},{"PRN":135,"el":38,"az":197,"ss":0,"used":false,"gnssid":1,"svid":135},{"PRN":138,"el":37,"az":160,"ss":0,"used":false,"gnssid":1,"svid":138},{"PRN":69,"el":40,"az":156,"ss":22,"used":true,"gnssid":6,"svid":4},{"PRN":70,"el":76,"az":297,"ss":18,"used":true,"gnssid":6,"svid":5},{"PRN":71,"el":24,"az":325,"ss":0,"used":false,"gnssid":6,"svid":6},{"PRN":73,"el":33,"az":233,"ss":26,"used":true,"gnssid":6,"svid":8},{"PRN":79,"el":32,"az":38,"ss":20,"used":true,"gnssid":6,"svid":14},{"PRN":80,"el":78,"az":285,"ss":23,"used":true,"gnssid":6,"svid":15},{"PRN":81,"el":0,"az":75,"ss":0,"used":false,"gnssid":6,"svid":16},{"PRN":87,"el":1,"az":345,"ss":0,"used":false,"gnssid":6,"svid":22},{"PRN":88,"el":7,"az":28,"ss":0,"used":false,"gnssid":6,"svid":23}]}
$GNGLL,4404.13755,N,12118.85967,W,000959.00,A,A*6F
{"class":"TPV","mode":3,"time":"2017-01-10T00:09:59.000Z","ept":0.005,"lat":44.068959167,"lon":-121.314327833,"alt":1131.500,"epx":10.712,"epy":9.930,"epv":31.280,"track":0.0000,"speed":0.020,"climb":0.000,"eps":21.42}
$GNZDA,000959.00,10,01,2017,00,00*79
$GNRMC,001000.00,A,4404.13771,N,12118.85976,W,0.060,,100117,,,A*74
$GNVTG,,T,,M,0.060,N,0.112,K,A*39
$GNGGA,001000.00,4404.13771,N,12118.85976,W,1,12,0.98,1130.7,M,-21.4,M,,*44
$GNGSA,A,3,23,09,16,07,26,03,27,22,,,,,1.67,0.98,1.35*10
$GNGSA,A,3,80,70,73,79,69,,,,,,,,1.67,0.98,1.35*10
$GPGSV,4,1,16,02,05,307,,03,21,174,30,04,12,038,27,06,07,270,08*7C
$GPGSV,4,2,16,07,46,259,30,08,01,143,30,09,67,312,40,16,47,064,35*70
$GPGSV,4,3,16,22,08,167,28,23,68,103,31,26,23,045,24,27,12,108,26*7D
$GPGSV,4,4,16,30,12,249,22,46,31,150,,48,38,197,,51,37,160,*7A
$GLGSV,3,1,09,69,40,156,22,70,76,297,16,71,24,325,,73,33,233,26*6C
$GLGSV,3,2,09,79,32,038,19,80,78,285,23,81,00,075,,87,01,345,*6F
$GLGSV,3,3,09,88,07,028,*51
{"class":"SKY","xdop":0.71,"ydop":0.66,"vdop":1.35,"tdop":0.99,"hdop":0.98,"gdop":1.94,"pdop":1.67,"satellites":[{"PRN":2,"el":5,"az":307,"ss":0,"used":false,"gnssid":0,"svid":2},{"PRN":3,"el":21,"az":174,"ss":30,"used":true,"gnssid":0,"svid":3},{"PRN":4,"el":12,"az":38,"ss":27,"used":false,"gnssid":0,"svid":4},{"PRN":6,"el":7,"az":270,"ss":8,"used":false,"gnssid":0,"svid":6},{"PRN":7,"el":46,"az":259,"ss":30,"used":true,"gnssid":0,"svid":7},{"PRN":8,"el":1,"az":143,"ss":30,"used":false,"gnssid":0,"svid":8},{"PRN":9,"el":67,"az":312,"ss":40,"used":true,"gnssid":0,"svid":9},{"PRN":16,"el":47,"az":64,"ss":35,"used":true,"gnssid":0,"svid":16},{"PRN":22,"el":8,"az":167,"ss":28,"used":true,"gnssid":0,"svid":22},{"PRN":23,"el":68,"az":103,"ss":31,"used":true,"gnssid":0,"svid":23},{"PRN":26,"el":23,"az":45,"ss":24,"used":true,"gnssid":0,"svid":26},{"PRN":27,"el":12,"az":108,"ss":26,"used":true,"gnssid":0,"svid":27},{"PRN":30,"el":12,"az":249,"ss":22,"used":false,"gnssid":0,"svid":30},{"PRN":133,"el":31,"az":150,"ss":0,"used":false,"gnssid":1,"svid":133},{"PRN":135,"el":38,"az":197,"ss":0,"used":false,"gnssid":1,"svid":135},{"PRN":138,"el":37,"az":160,"ss":0,"used":false,"gnssid":1,"svid":138},{"PRN":69,"el":40,"az":156,"ss":22,"used":true,"gnssid":6,"svid":4},{"PRN":70,"el":76,"az":297,"ss":16,"used":true,"gnssid":6,"svid":5},{"PRN":71,"el":24,"az":325,"ss":0,"used":false,"gnssid":6,"svid":6},{"PRN":73,"el":33,"az":233,"ss":26,"used":true,"gnssid":6,"svid":8},{"PRN":79,"el":32,"az":38,"ss":19,"used":true,"gnssid":6,"svid":14},{"PRN":80,"el":78,"az":285,"ss":23,"used":true,"gnssid":6,"svid":15},{"PRN":81,"el":0,"az":75,"ss":0,"used":false,"gnssid":6,"svid":16},{"PRN":87,"el":1,"az":345,"ss":0,"used":false,"gnssid":6,"svid":22},{"PRN":88,"el":7,"az":28,"ss":0,"used":false,"gnssid":6,"svid":23}]}
$GNGLL,4404.13771,N,12118.85976,W,001000.00,A,A*6D
{"class":"TPV","mode":3,"time":"2017-01-10T00:10:00.000Z","ept":0.005,"lat":44.068961833,"lon":-121.314329333,"alt":1130.700,"epx":10.712,"epy":9.930,"epv":31.280,"track":0.0000,"speed":0.031,"climb":0.000,"eps":21.42}
$GNZDA,001000.00,10,01,2017,00,00*7D
$GNRMC,001001.00,A,4404.13785,N,12118.85985,W,0.065,,100117,,,A*77
$GNVTG,,T,,M,0.065,N,0.121,K,A*3C
$GNGGA,001001.00,4404.13785,N,12118.85985,W,1,12,0.98,1129.9,M,-21.4,M,,*44
$GNGSA,A,3,23,09,16,07,26,03,27,22,,,,,1.67,0.98,1.35*10
$GNGSA,A,3,80,70,73,79,69,,,,,,,,1.67,0.98,1.35*10
$GPGSV,4,1,16,02,05,307,,03,21,174,29,04,12,038,28,06,07,270,*73
$GPGSV,4,2,16,07,46,259,31,08,01,143,30,09,67,312,40,16,47,064,35*71
$GPGSV,4,3,16,22,08,167,28,23,68,103,31,26,23,045,24,27,12,108,26*7D
$GPGSV,4,4,16,30,12,249,22,46,31,150,,48,38,197,,51,37,160,*7A
$GLGSV,3,1,09,69,40,156,23,70,76,297,15,71,24,325,,73,33,233,26*6E
$GLGSV,3,2,09,79,32,038,19,80,78,285,23,81,00,075,,87,01,345,*6F
$GLGSV,3,3,09,88,07,028,*51
