$GPZDA,172236.00,01,12,2017,00,00*63
$GPGGA,172236.00,4513.1125,N,00548.4306,E,2,06,,230.23,M,48.648,M,,*7E
$GPRMC,172236.00,A,4513.1125,N,00548.4306,E,0.0911,158.924,011217,1.9,E*61
$GPGSA,A,2,,,,,,,,,,,,,,,*1D
{"class":"TPV","status":2,"mode":2,"time":"2017-12-01T17:22:36.000Z","ept":0.005,"lat":45.218541146,"lon":5.807177490,"altHAE":278.879,"altMSL":230.231,"track":158.9240,"magtrack":160.8293,"magvar":1.9,"speed":0.047,"eps":0.01}
$GPZDA,172238.00,01,12,2017,00,00*6D
$GPGGA,172238.00,4513.1125,N,00548.4306,E,2,06,1.36,230.23,M,48.648,M,,*6A
$GPRMC,172238.00,A,4513.1125,N,00548.4306,E,0.0911,158.924,011217,1.9,E*6F
$GPGSA,A,2,,,,,,,,,,,,,1.7,1.4,1.0*31
{"class":"TPV","status":2,"mode":2,"time":"2017-12-01T17:22:38.000Z","leapseconds":18,"ept":0.005,"lat":45.218541146,"lon":5.807177490,"altHAE":278.879,"altMSL":230.231,"track":158.9240,"magtrack":160.8293,"magvar":1.9,"speed":0.047,"eps":0.01,"eph":6.460,"sep":7.932}
{"class":"TPV","status":2,"mode":2,"time":"2017-12-01T17:22:38.000Z","leapseconds":18,"ept":0.005,"lat":45.218541146,"lon":5.807177490,"altHAE":278.879,"altMSL":230.231,"track":158.9240,"magtrack":160.8293,"magvar":1.9,"speed":0.047,"eps":0.01,"eph":6.460,"sep":7.932}
$GPZDA,172239.00,01,12,2017,00,00*6C
$GPGGA,172239.00,4513.1125,N,00548.4306,E,2,05,1.36,230.23,M,48.648,M,,*68
$GPRMC,172239.00,A,4513.1125,N,00548.4306,E,0.0911,158.924,011217,1.9,E*6E
$GPGSA,A,2,,,,,,,,,,,,,1.7,1.4,1.0*31
{"class":"TPV","status":2,"mode":2,"time":"2017-12-01T17:22:39.000Z","leapseconds":18,"ept":0.005,"lat":45.218541146,"lon":5.807177490,"altHAE":278.879,"altMSL":230.231,"track":158.9240,"magtrack":160.8293,"magvar":1.9,"speed":0.047,"eps":0.01,"eph":6.460,"sep":7.932}
$GPZDA,172240.00,01,12,2017,00,00*62
$GPGGA,172240.00,4513.1125,N,00548.4306,E,2,06,1.61,230.23,M,48.648,M,,*67
$GPRMC,172240.00,A,4513.1125,N,00548.4306,E,0.0911,158.924,011217,1.9,E*60
$GPGSA,A,2,,,,,,,,,,,,,1.9,1.6,1.0*3D
{"class":"TPV","status":2,"mode":2,"time":"2017-12-01T17:22:40.000Z","leapseconds":18,"ept":0.005,"lat":45.218541146,"lon":5.807177490,"altHAE":278.879,"altMSL":230.231,"track":158.9240,"magtrack":160.8293,"magvar":1.9,"speed":0.047,"eps":0.01,"eph":6.460,"sep":7.932}
{"class":"TPV","status":2,"mode":2,"time":"2017-12-01T17:22:40.000Z","leapseconds":18,"ept":0.005,"lat":45.218541146,"lon":5.807177490,"altHAE":278.879,"altMSL":230.231,"track":158.9240,"magtrack":160.8293,"magvar":1.9,"speed":0.047,"eps":0.01,"eph":6.460,"sep":7.932}
$GPZDA,172241.00,01,12,2017,00,00*63
$GPGGA,172241.00,4513.1125,N,00548.4306,E,2,06,1.36,230.23,M,48.648,M,,*64
$GPRMC,172241.00,A,4513.1125,N,00548.4306,E,0.0911,158.924,011217,1.9,E*61
$GPGSA,A,2,,,,,,,,,,,,,1.7,1.4,1.0*31
{"class":"TPV","status":2,"mode":2,"time":"2017-12-01T17:22:41.000Z","leapseconds":18,"ept":0.005,"lat":45.218541146,"lon":5.807177490,"altHAE":278.879,"altMSL":230.231,"track":158.9240,"magtrack":160.8293,"magvar":1.9,"speed":0.047,"eps":0.01,"eph":6.460,"sep":7.932}
$GPZDA,172242.00,01,12,2017,00,00*60
$GPGGA,172242.00,4513.1125,N,00548.4306,E,2,06,1.36,230.23,M,48.648,M,,*67
$GPRMC,172242.00,A,4513.1125,N,00548.4306,E,0.0911,158.924,011217,1.9,E*62
$GPGSA,A,2,,,,,,,,,,,,,1.7,1.4,1.0*31
{"class":"TPV","status":2,"mode":2,"time":"2017-12-01T17:22:42.000Z","leapseconds":18,"ept":0.005,"lat":45.218541146,"lon":5.807177490,"altHAE":278.879,"altMSL":230.231,"track":158.9240,"magtrack":160.8293,"magvar":1.9,"speed":0.047,"eps":0.01,"eph":6.460,"sep":7.932}
{"class":"TPV","status":2,"mode":2,"time":"2017-12-01T17:22:42.000Z","leapseconds":18,"ept":0.005,"lat":45.218541146,"lon":5.807177490,"altHAE":278.879,"altMSL":230.231,"track":158.9240,"magtrack":160.8293,"magvar":1.9,"speed":0.047,"eps":0.01,"eph":6.460,"sep":7.932}
$GPZDA,172243.00,01,12,2017,00,00*61
$GPGGA,172243.00,4513.1125,N,00548.4306,E,2,06,1.36,230.23,M,48.648,M,,*66
$GPRMC,172243.00,A,4513.1125,N,00548.4306,E,0.0911,158.924,011217,1.9,E*63
$GPGSA,A,2,,,,,,,,,,,,,1.7,1.4,1.0*31
{"class":"TPV","status":2,"mode":2,"time":"2017-12-01T17:22:43.000Z","leapseconds":18,"ept":0.005,"lat":45.218541146,"lon":5.807177490,"altHAE":278.879,"altMSL":230.231,"track":158.9240,"magtrack":160.8293,"magvar":1.9,"speed":0.047,"eps":0.01,"eph":6.460,"sep":7.932}
$GPGSV,6,1,23,05,44,201,37,07,10,065,00,08,05,028,00,13,72,321,30*7B
$GPGSV,6,2,23,15,40,301,27,17,02,130,00,18,02,326,00,20,44,281,29*73
$GPGSV,6,3,23,21,06,304,00,24,08,253,21,28,56,087,35,30,38,061,19*71
$GPGSV,6,4,23,33,34,209,00,36,32,146,45,37,36,158,00,70,48,155,33*77
$GPGSV,6,5,23,71,74,308,23,72,22,324,00,73,76,251,30,74,21,228,13*7E
$GPGSV,6,6,23,80,44,037,29,81,07,032,25,88,04,346,00*42
{"class":"SKY","xdop":0.76,"ydop":1.13,"vdop":0.96,"tdop":0.83,"hdop":1.36,"gdop":1.86,"pdop":1.67,"satellites":[{"PRN":5,"el":44.0,"az":201.0,"ss":37.0,"used":true,"gnssid":0,"svid":5,"health":1},{"PRN":7,"el":10.0,"az":65.0,"ss":0.0,"used":false,"gnssid":0,"svid":7,"health":1},{"PRN":8,"el":5.0,"az":28.0,"ss":0.0,"used":false,"gnssid":0,"svid":8,"health":1},{"PRN":13,"el":72.0,"az":321.0,"ss":30.0,"used":true,"gnssid":0,"svid":13,"health":1},{"PRN":15,"el":40.0,"az":301.0,"ss":27.0,"used":true,"gnssid":0,"svid":15,"health":1},{"PRN":17,"el":2.0,"az":130.0,"ss":0.0,"used":false,"gnssid":0,"svid":17,"health":1},{"PRN":18,"el":2.0,"az":326.0,"ss":0.0,"used":false,"gnssid":0,"svid":18,"health":1},{"PRN":20,"el":44.0,"az":281.0,"ss":29.0,"used":true,"gnssid":0,"svid":20,"health":1},{"PRN":21,"el":6.0,"az":304.0,"ss":0.0,"used":false,"gnssid":0,"svid":21,"health":1},{"PRN":24,"el":8.0,"az":253.0,"ss":21.0,"used":false,"gnssid":0,"svid":24,"health":1},{"PRN":28,"el":56.0,"az":87.0,"ss":35.0,"used":true,"gnssid":0,"svid":28,"health":1},{"PRN":30,"el":38.0,"az":61.0,"ss":19.0,"used":true,"gnssid":0,"svid":30,"health":1},{"PRN":33,"el":34.0,"az":209.0,"ss":0.0,"used":false,"gnssid":1,"svid":120,"health":1},{"PRN":36,"el":32.0,"az":146.0,"ss":45.0,"used":false,"gnssid":1,"svid":123,"health":1},{"PRN":37,"el":36.0,"az":158.0,"ss":0.0,"used":false,"gnssid":1,"svid":124,"health":1},{"PRN":193,"az":0.0,"ss":0.0,"used":false,"gnssid":5,"svid":1,"health":1},{"PRN":194,"az":0.0,"ss":0.0,"used":false,"gnssid":5,"svid":2,"health":1},{"PRN":197,"az":0.0,"ss":0.0,"used":false,"gnssid":5,"svid":5,"health":1},{"PRN":70,"el":48.0,"az":155.0,"ss":33.0,"used":false,"gnssid":6,"svid":6,"health":1},{"PRN":71,"el":74.0,"az":308.0,"ss":23.0,"used":false,"gnssid":6,"svid":7,"health":1},{"PRN":72,"el":22.0,"az":324.0,"ss":0.0,"used":false,"gnssid":6,"svid":8,"health":1},{"PRN":73,"el":76.0,"az":251.0,"ss":30.0,"used":false,"gnssid":6,"svid":9,"health":1},{"PRN":74,"el":21.0,"az":228.0,"ss":13.0,"used":false,"gnssid":6,"svid":10,"health":1},{"PRN":80,"el":44.0,"az":37.0,"ss":29.0,"used":false,"gnssid":6,"svid":16,"health":1},{"PRN":81,"el":7.0,"az":32.0,"ss":25.0,"used":false,"gnssid":6,"svid":17,"health":1},{"PRN":88,"el":4.0,"az":346.0,"ss":0.0,"used":false,"gnssid":6,"svid":24,"health":1}]}
$GPZDA,172244.00,01,12,2017,00,00*66
$GPGGA,172244.00,4513.1125,N,00548.4306,E,2,06,1.36,230.23,M,48.648,M,,*61
$GPRMC,172244.00,A,4513.1125,N,00548.4306,E,0.0911,158.924,011217,1.9,E*64
$GPGSA,A,2,5,13,15,20,28,30,,,,,,,1.7,1.4,1.0*09
$GPGBS,172244.00,2.840,4.246,,,,,*63
{"class":"TPV","status":2,"mode":2,"time":"2017-12-01T17:22:44.000Z","leapseconds":18,"ept":0.005,"lat":45.218541146,"lon":5.807177490,"altHAE":278.879,"altMSL":230.231,"epx":2.840,"epy":4.246,"track":158.9240,"magtrack":160.8293,"magvar":1.9,"speed":0.047,"eps":0.01,"eph":6.460,"sep":7.932}
$GPZDA,172245.00,01,12,2017,00,00*67
$GPGGA,172245.00,4513.1125,N,00548.4306,E,2,06,1.36,230.23,M,48.648,M,,*60
$GPRMC,172245.00,A,4513.1125,N,00548.4306,E,0.0911,158.924,011217,1.9,E*65
$GPGSA,A,2,5,13,15,20,28,30,,,,,,,1.7,1.4,1.0*09
$GPGBS,172245.00,2.840,4.246,,,,,*62
{"class":"TPV","status":2,"mode":2,"time":"2017-12-01T17:22:45.000Z","leapseconds":18,"ept":0.005,"lat":45.218541146,"lon":5.807177490,"altHAE":278.879,"altMSL":230.231,"epx":2.840,"epy":4.246,"track":158.9240,"magtrack":160.8293,"magvar":1.9,"speed":0.047,"eps":0.01,"eph":6.460,"sep":7.932}
{"class":"TPV","status":2,"mode":2,"time":"2017-12-01T17:22:45.000Z","leapseconds":18,"ept":0.005,"lat":45.218541146,"lon":5.807177490,"altHAE":278.879,"altMSL":230.231,"epx":2.840,"epy":4.246,"track":158.9240,"magtrack":160.8293,"magvar":1.9,"speed":0.047,"eps":0.01,"eph":6.460,"sep":7.932}
$GPZDA,172246.00,01,12,2017,00,00*64
$GPGGA,172246.00,4513.1125,N,00548.4306,E,2,06,1.36,230.23,M,48.648,M,,*63
$GPRMC,172246.00,A,4513.1125,N,00548.4306,E,0.0911,158.924,011217,1.9,E*66
$GPGSA,A,2,5,13,15,20,28,30,,,,,,,1.7,1.4,1.0*09
$GPGBS,172246.00,2.840,4.246,,,,,*61
{"class":"TPV","status":2,"mode":2,"time":"2017-12-01T17:22:46.000Z","leapseconds":18,"ept":0.005,"lat":45.218541146,"lon":5.807177490,"altHAE":278.879,"altMSL":230.231,"epx":2.840,"epy":4.246,"track":158.9240,"magtrack":160.8293,"magvar":1.9,"speed":0.047,"eps":0.01,"eph":6.460,"sep":7.932}
$GPZDA,172247.00,01,12,2017,00,00*65
$GPGGA,172247.00,4513.1125,N,00548.4306,E,2,06,1.36,230.23,M,48.648,M,,*62
$GPRMC,172247.00,A,4513.1125,N,00548.4306,E,0.0911,158.924,011217,1.9,E*67
$GPGSA,A,2,5,13,15,20,28,30,,,,,,,1.7,1.4,1.0*09
$GPGBS,172247.00,2.840,4.246,,,,,*60
{"class":"TPV","status":2,"mode":2,"time":"2017-12-01T17:22:47.000Z","leapseconds":18,"ept":0.005,"lat":45.218541146,"lon":5.807177490,"altHAE":278.879,"altMSL":230.231,"epx":2.840,"epy":4.246,"track":158.9240,"magtrack":160.8293,"magvar":1.9,"speed":0.047,"eps":0.01,"eph":6.460,"sep":7.932}
{"class":"TPV","status":2,"mode":2,"time":"2017-12-01T17:22:47.000Z","leapseconds":18,"ept":0.005,"lat":45.218541146,"lon":5.807177490,"altHAE":278.879,"altMSL":230.231,"epx":2.840,"epy":4.246,"track":158.9240,"magtrack":160.8293,"magvar":1.9,"speed":0.047,"eps":0.01,"eph":6.460,"sep":7.932}
$GPZDA,172248.00,01,12,2017,00,00*6A
$GPGGA,172248.00,4513.1125,N,00548.4306,E,2,06,1.36,230.23,M,48.648,M,,*6D
$GPRMC,172248.00,A,4513.1125,N,00548.4306,E,0.0911,158.924,011217,1.9,E*68
$GPGSA,A,2,5,13,15,20,28,30,,,,,,,1.7,1.4,1.0*09
$GPGBS,172248.00,2.840,4.246,,,,,*6F
{"class":"TPV","status":2,"mode":2,"time":"2017-12-01T17:22:48.000Z","leapseconds":18,"ept":0.005,"lat":45.218541146,"lon":5.807177490,"altHAE":278.879,"altMSL":230.231,"epx":2.840,"epy":4.246,"track":158.9240,"magtrack":160.8293,"magvar":1.9,"speed":0.047,"eps":0.01,"eph":6.460,"sep":7.932}
$GPZDA,172249.00,01,12,2017,00,00*6B
$GPGGA,172249.00,4513.1125,N,00548.4306,E,2,06,1.36,230.23,M,48.648,M,,*6C
$GPRMC,172249.00,A,4513.1125,N,00548.4306,E,0.0911,158.924,011217,1.9,E*69
$GPGSA,A,2,5,13,15,20,28,30,,,,,,,1.7,1.4,1.0*09
$GPGBS,172249.00,2.840,4.246,,,,,*6E
{"class":"TPV","status":2,"mode":2,"time":"2017-12-01T17:22:49.000Z","leapseconds":18,"ept":0.005,"lat":45.218541146,"lon":5.807177490,"altHAE":278.879,"altMSL":230.231,"epx":2.840,"epy":4.246,"track":158.9240,"magtrack":160.8293,"magvar":1.9,"speed":0.047,"eps":0.01,"eph":6.460,"sep":7.932}
{"class":"TPV","status":2,"mode":2,"time":"2017-12-01T17:22:49.000Z","leapseconds":18,"ept":0.005,"lat":45.218541146,"lon":5.807177490,"altHAE":278.879,"altMSL":230.231,"epx":2.840,"epy":4.246,"track":158.9240,"magtrack":160.8293,"magvar":1.9,"speed":0.047,"eps":0.01,"eph":6.460,"sep":7.932}
$GPZDA,172250.00,01,12,2017,00,00*63
$GPGGA,172250.00,4513.1125,N,00548.4306,E,2,06,1.36,230.23,M,48.648,M,,*64
$GPRMC,172250.00,A,4513.1125,N,00548.4306,E,0.0911,158.924,011217,1.9,E*61
$GPGSA,A,2,5,13,15,20,28,30,,,,,,,1.7,1.4,1.0*09
$GPGBS,172250.00,2.840,4.246,,,,,*66
{"class":"TPV","status":2,"mode":2,"time":"2017-12-01T17:22:50.000Z","leapseconds":18,"ept":0.005,"lat":45.218541146,"lon":5.807177490,"altHAE":278.879,"altMSL":230.231,"epx":2.840,"epy":4.246,"track":158.9240,"magtrack":160.8293,"magvar":1.9,"speed":0.047,"eps":0.01,"eph":6.460,"sep":7.932}
$GPZDA,172251.00,01,12,2017,00,00*62
$GPGGA,172251.00,4513.1125,N,00548.4306,E,2,06,1.36,230.23,M,48.648,M,,*65
$GPRMC,172251.00,A,4513.1125,N,00548.4306,E,0.0911,158.924,011217,1.9,E*60
$GPGSA,A,2,5,13,15,20,28,30,,,,,,,1.7,1.4,1.0*09
$GPGBS,172251.00,2.840,4.246,,,,,*67
{"class":"TPV","status":2,"mode":2,"time":"2017-12-01T17:22:51.000Z","leapseconds":18,"ept":0.005,"lat":45.218541146,"lon":5.807177490,"altHAE":278.879,"altMSL":230.231,"epx":2.840,"epy":4.246,"track":158.9240,"magtrack":160.8293,"magvar":1.9,"speed":0.047,"eps":0.01,"eph":6.460,"sep":7.932}
{"class":"TPV","status":2,"mode":2,"time":"2017-12-01T17:22:51.000Z","leapseconds":18,"ept":0.005,"lat":45.218541146,"lon":5.807177490,"altHAE":278.879,"altMSL":230.231,"epx":2.840,"epy":4.246,"track":158.9240,"magtrack":160.8293,"magvar":1.9,"speed":0.047,"eps":0.01,"eph":6.460,"sep":7.932}
$GPZDA,172252.00,01,12,2017,00,00*61
$GPGGA,172252.00,4513.1125,N,00548.4306,E,2,06,1.36,230.23,M,48.648,M,,*66
$GPRMC,172252.00,A,4513.1125,N,00548.4306,E,0.0911,158.924,011217,1.9,E*63
$GPGSA,A,2,5,13,15,20,28,30,,,,,,,1.7,1.4,1.0*09
$GPGBS,172252.00,2.840,4.246,,,,,*64
{"class":"TPV","status":2,"mode":2,"time":"2017-12-01T17:22:52.000Z","leapseconds":18,"ept":0.005,"lat":45.218541146,"lon":5.807177490,"altHAE":278.879,"altMSL":230.231,"epx":2.840,"epy":4.246,"track":158.9240,"magtrack":160.8293,"magvar":1.9,"speed":0.047,"eps":0.01,"eph":6.460,"sep":7.932}
$GPZDA,172253.00,01,12,2017,00,00*60
$GPGGA,172253.00,4513.1125,N,00548.4306,E,2,06,1.36,230.23,M,48.648,M,,*67
$GPRMC,172253.00,A,4513.1125,N,00548.4306,E,0.0911,158.924,011217,1.9,E*62
$GPGSA,A,2,5,13,15,20,28,30,,,,,,,1.7,1.4,1.0*09
$GPGBS,172253.00,2.840,4.246,,,,,*65
{"class":"TPV","status":2,"mode":2,"time":"2017-12-01T17:22:53.000Z","leapseconds":18,"ept":0.005,"lat":45.218541146,"lon":5.807177490,"altHAE":278.879,"altMSL":230.231,"epx":2.840,"epy":4.246,"track":158.9240,"magtrack":160.8293,"magvar":1.9,"speed":0.047,"eps":0.01,"eph":6.460,"sep":7.932}
$GPGSV,6,1,23,05,44,201,37,07,10,065,00,08,05,028,00,13,72,321,30*7B
$GPGSV,6,2,23,15,40,301,26,17,02,130,00,18,03,326,00,20,44,281,25*7F
$GPGSV,6,3,23,21,06,304,00,24,09,253,21,28,56,087,35,30,38,061,22*78
$GPGSV,6,4,23,33,34,209,00,36,32,146,44,37,36,158,00,70,48,155,34*71
$GPGSV,6,5,23,71,74,308,22,72,22,324,00,73,76,251,30,74,21,228,16*7A
$GPGSV,6,6,23,80,44,037,28,81,07,032,24,88,04,346,00*42
{"class":"SKY","xdop":0.76,"ydop":1.13,"vdop":0.96,"tdop":0.83,"hdop":1.36,"gdop":1.86,"pdop":1.67,"satellites":[{"PRN":5,"el":44.0,"az":201.0,"ss":37.0,"used":true,"gnssid":0,"svid":5,"health":1},{"PRN":7,"el":10.0,"az":65.0,"ss":0.0,"used":false,"gnssid":0,"svid":7,"health":1},{"PRN":8,"el":5.0,"az":28.0,"ss":0.0,"used":false,"gnssid":0,"svid":8,"health":1},{"PRN":13,"el":72.0,"az":321.0,"ss":30.0,"used":true,"gnssid":0,"svid":13,"health":1},{"PRN":15,"el":40.0,"az":301.0,"ss":26.0,"used":true,"gnssid":0,"svid":15,"health":1},{"PRN":17,"el":2.0,"az":130.0,"ss":0.0,"used":false,"gnssid":0,"svid":17,"health":1},{"PRN":18,"el":3.0,"az":326.0,"ss":0.0,"used":false,"gnssid":0,"svid":18,"health":1},{"PRN":20,"el":44.0,"az":281.0,"ss":25.0,"used":true,"gnssid":0,"svid":20,"health":1},{"PRN":21,"el":6.0,"az":304.0,"ss":0.0,"used":false,"gnssid":0,"svid":21,"health":1},{"PRN":24,"el":9.0,"az":253.0,"ss":21.0,"used":false,"gnssid":0,"svid":24,"health":1},{"PRN":28,"el":56.0,"az":87.0,"ss":35.0,"used":true,"gnssid":0,"svid":28,"health":1},{"PRN":30,"el":38.0,"az":61.0,"ss":22.0,"used":true,"gnssid":0,"svid":30,"health":1},{"PRN":33,"el":34.0,"az":209.0,"ss":0.0,"used":false,"gnssid":1,"svid":120,"health":1},{"PRN":36,"el":32.0,"az":146.0,"ss":44.0,"used":false,"gnssid":1,"svid":123,"health":1},{"PRN":37,"el":36.0,"az":158.0,"ss":0.0,"used":false,"gnssid":1,"svid":124,"health":1},{"PRN":193,"az":0.0,"ss":0.0,"used":false,"gnssid":5,"svid":1,"health":1},{"PRN":195,"az":0.0,"ss":0.0,"used":false,"gnssid":5,"svid":3,"health":1},{"PRN":197,"az":0.0,"ss":0.0,"used":false,"gnssid":5,"svid":5,"health":1},{"PRN":70,"el":48.0,"az":155.0,"ss":34.0,"used":false,"gnssid":6,"svid":6,"health":1},{"PRN":71,"el":74.0,"az":308.0,"ss":22.0,"used":false,"gnssid":6,"svid":7,"health":1},{"PRN":72,"el":22.0,"az":324.0,"ss":0.0,"used":false,"gnssid":6,"svid":8,"health":1},{"PRN":73,"el":76.0,"az":251.0,"ss":30.0,"used":false,"gnssid":6,"svid":9,"health":1},{"PRN":74,"el":21.0,"az":228.0,"ss":16.0,"used":false,"gnssid":6,"svid":10,"health":1},{"PRN":80,"el":44.0,"az":37.0,"ss":28.0,"used":false,"gnssid":6,"svid":16,"health":1},{"PRN":81,"el":7.0,"az":32.0,"ss":24.0,"used":false,"gnssid":6,"svid":17,"health":1},{"PRN":88,"el":4.0,"az":346.0,"ss":0.0,"used":false,"gnssid":6,"svid":24,"health":1}]}
{"class":"TPV","status":2,"mode":2,"time":"2017-12-01T17:22:53.000Z","leapseconds":18,"ept":0.005,"lat":45.218541146,"lon":5.807177490,"altHAE":278.879,"altMSL":230.231,"epx":2.840,"epy":4.246,"track":158.9240,"magtrack":160.8293,"magvar":1.9,"speed":0.047,"eps":0.01,"eph":6.460,"sep":7.932}
$GPZDA,172254.00,01,12,2017,00,00*67
$GPGGA,172254.00,4513.1125,N,00548.4306,E,2,06,1.36,230.23,M,48.648,M,,*60
$GPRMC,172254.00,A,4513.1125,N,00548.4306,E,0.0911,158.924,011217,1.9,E*65
$GPGSA,A,2,5,13,15,20,28,30,,,,,,,1.7,1.4,1.0*09
$GPGBS,172254.00,2.840,4.246,,,,,*62
{"class":"TPV","status":2,"mode":2,"time":"2017-12-01T17:22:54.000Z","leapseconds":18,"ept":0.005,"lat":45.218541146,"lon":5.807177490,"altHAE":278.879,"altMSL":230.231,"epx":2.840,"epy":4.246,"track":158.9240,"magtrack":160.8293,"magvar":1.9,"speed":0.047,"eps":0.01,"eph":6.460,"sep":7.932}
$GPZDA,172255.00,01,12,2017,00,00*66
$GPGGA,172255.00,4513.1125,N,00548.4306,E,2,06,1.36,230.23,M,48.648,M,,*61
$GPRMC,172255.00,A,4513.1125,N,00548.4306,E,0.0911,158.924,011217,1.9,E*64
$GPGSA,A,2,5,13,15,20,28,30,,,,,,,1.7,1.4,1.0*09
$GPGBS,172255.00,2.840,4.246,,,,,*63
{"class":"TPV","status":2,"mode":2,"time":"2017-12-01T17:22:55.000Z","leapseconds":18,"ept":0.005,"lat":45.218541146,"lon":5.807177490,"altHAE":278.879,"altMSL":230.231,"epx":2.840,"epy":4.246,"track":158.9240,"magtrack":160.8293,"magvar":1.9,"speed":0.047,"eps":0.01,"eph":6.460,"sep":7.932}
{"class":"TPV","status":2,"mode":2,"time":"2017-12-01T17:22:55.000Z","leapseconds":18,"ept":0.005,"lat":45.218541146,"lon":5.807177490,"altHAE":278.879,"altMSL":230.231,"epx":2.840,"epy":4.246,"track":158.9240,"magtrack":160.8293,"magvar":1.9,"speed":0.047,"eps":0.01,"eph":6.460,"sep":7.932}
$GPZDA,172256.00,01,12,2017,00,00*65
$GPGGA,172256.00,4513.1125,N,00548.4306,E,2,06,1.36,230.23,M,48.648,M,,*62
$GPRMC,172256.00,A,4513.1125,N,00548.4306,E,0.0911,158.924,011217,1.9,E*67
$GPGSA,A,2,5,13,15,20,28,30,,,,,,,1.7,1.4,1.0*09
$GPGBS,172256.00,2.840,4.246,,,,,*60
{"class":"TPV","status":2,"mode":2,"time":"2017-12-01T17:22:56.000Z","leapseconds":18,"ept":0.005,"lat":45.218541146,"lon":5.807177490,"altHAE":278.879,"altMSL":230.231,"epx":2.840,"epy":4.246,"track":158.9240,"magtrack":160.8293,"magvar":1.9,"speed":0.047,"eps":0.01,"eph":6.460,"sep":7.932}
$GPZDA,172257.00,01,12,2017,00,00*64
$GPGGA,172257.00,4513.1125,N,00548.4306,E,2,06,1.36,230.23,M,48.648,M,,*63
$GPRMC,172257.00,A,4513.1125,N,00548.4306,E,0.0911,158.924,011217,1.9,E*66
$GPGSA,A,2,5,13,15,20,28,30,,,,,,,1.7,1.4,1.0*09
$GPGBS,172257.00,2.840,4.246,,,,,*61
{"class":"TPV","status":2,"mode":2,"time":"2017-12-01T17:22:57.000Z","leapseconds":18,"ept":0.005,"lat":45.218541146,"lon":5.807177490,"altHAE":278.879,"altMSL":230.231,"epx":2.840,"epy":4.246,"track":158.9240,"magtrack":160.8293,"magvar":1.9,"speed":0.047,"eps":0.01,"eph":6.460,"sep":7.932}
{"class":"TPV","status":2,"mode":2,"time":"2017-12-01T17:22:57.000Z","leapseconds":18,"ept":0.005,"lat":45.218541146,"lon":5.807177490,"altHAE":278.879,"altMSL":230.231,"epx":2.840,"epy":4.246,"track":158.9240,"magtrack":160.8293,"magvar":1.9,"speed":0.047,"eps":0.01,"eph":6.460,"sep":7.932}
$GPZDA,172258.00,01,12,2017,00,00*6B
$GPGGA,172258.00,4513.1125,N,00548.4306,E,2,06,1.36,230.23,M,48.648,M,,*6C
$GPRMC,172258.00,A,4513.1125,N,00548.4306,E,0.0911,158.924,011217,1.9,E*69
$GPGSA,A,2,5,13,15,20,28,30,,,,,,,1.7,1.4,1.0*09
$GPGBS,172258.00,2.840,4.246,,,,,*6E
{"class":"TPV","status":2,"mode":2,"time":"2017-12-01T17:22:58.000Z","leapseconds":18,"ept":0.005,"lat":45.218541146,"lon":5.807177490,"altHAE":278.879,"altMSL":230.231,"epx":2.840,"epy":4.246,"track":158.9240,"magtrack":160.8293,"magvar":1.9,"speed":0.047,"eps":0.01,"eph":6.460,"sep":7.932}
$GPZDA,172259.00,01,12,2017,00,00*6A
$GPGGA,172259.00,4513.1125,N,00548.4306,E,2,06,1.36,230.23,M,48.648,M,,*6D
$GPRMC,172259.00,A,4513.1125,N,00548.4306,E,0.0911,158.924,011217,1.9,E*68
$GPGSA,A,2,5,13,15,20,28,30,,,,,,,1.7,1.4,1.0*09
$GPGBS,172259.00,2.840,4.246,,,,,*6F
{"class":"TPV","status":2,"mode":2,"time":"2017-12-01T17:22:59.000Z","leapseconds":18,"ept":0.005,"lat":45.218541146,"lon":5.807177490,"altHAE":278.879,"altMSL":230.231,"epx":2.840,"epy":4.246,"track":158.9240,"magtrack":160.8293,"magvar":1.9,"speed":0.047,"eps":0.01,"eph":6.460,"sep":7.932}
{"class":"TPV","status":2,"mode":2,"time":"2017-12-01T17:22:59.000Z","leapseconds":18,"ept":0.005,"lat":45.218541146,"lon":5.807177490,"altHAE":278.879,"altMSL":230.231,"epx":2.840,"epy":4.246,"track":158.9240,"magtrack":160.8293,"magvar":1.9,"speed":0.047,"eps":0.01,"eph":6.460,"sep":7.932}
$GPZDA,172300.00,01,12,2017,00,00*67
$GPGGA,172300.00,4513.1125,N,00548.4306,E,2,06,1.36,230.23,M,48.648,M,,*60
$GPRMC,172300.00,A,4513.1125,N,00548.4306,E,0.0911,158.924,011217,1.9,E*65
$GPGSA,A,2,5,13,15,20,28,30,,,,,,,1.7,1.4,1.0*09
$GPGBS,172300.00,2.840,4.246,,,,,*62
{"class":"TPV","status":2,"mode":2,"time":"2017-12-01T17:23:00.000Z","leapseconds":18,"ept":0.005,"lat":45.218541146,"lon":5.807177490,"altHAE":278.879,"altMSL":230.231,"epx":2.840,"epy":4.246,"track":158.9240,"magtrack":160.8293,"magvar":1.9,"speed":0.047,"eps":0.01,"eph":6.460,"sep":7.932}
$GPZDA,172301.00,01,12,2017,00,00*66
$GPGGA,172301.00,4513.1125,N,00548.4306,E,2,06,1.36,230.23,M,48.648,M,,*61
$GPRMC,172301.00,A,4513.1125,N,00548.4306,E,0.0911,158.924,011217,1.9,E*64
$GPGSA,A,2,5,13,15,20,28,30,,,,,,,1.7,1.4,1.0*09
$GPGBS,172301.00,2.840,4.246,,,,,*63
{"class":"TPV","status":2,"mode":2,"time":"2017-12-01T17:23:01.000Z","leapseconds":18,"ept":0.005,"lat":45.218541146,"lon":5.807177490,"altHAE":278.879,"altMSL":230.231,"epx":2.840,"epy":4.246,"track":158.9240,"magtrack":160.8293,"magvar":1.9,"speed":0.047,"eps":0.01,"eph":6.460,"sep":7.932}
{"class":"TPV","status":2,"mode":2,"time":"2017-12-01T17:23:01.000Z","leapseconds":18,"ept":0.005,"lat":45.218541146,"lon":5.807177490,"altHAE":278.879,"altMSL":230.231,"epx":2.840,"epy":4.246,"track":158.9240,"magtrack":160.8293,"magvar":1.9,"speed":0.047,"eps":0.01,"eph":6.460,"sep":7.932}
$GPZDA,172302.00,01,12,2017,00,00*65
$GPGGA,172302.00,4513.1125,N,00548.4306,E,2,06,1.36,230.23,M,48.648,M,,*62
$GPRMC,172302.00,A,4513.1125,N,00548.4306,E,0.0911,158.924,011217,1.9,E*67
$GPGSA,A,2,5,13,15,20,28,30,,,,,,,1.7,1.4,1.0*09
$GPGBS,172302.00,2.840,4.246,,,,,*60
{"class":"TPV","status":2,"mode":2,"time":"2017-12-01T17:23:02.000Z","leapseconds":18,"ept":0.005,"lat":45.218541146,"lon":5.807177490,"altHAE":278.879,"altMSL":230.231,"epx":2.840,"epy":4.246,"track":158.9240,"magtrack":160.8293,"magvar":1.9,"speed":0.047,"eps":0.01,"eph":6.460,"sep":7.932}
$GPZDA,172303.00,01,12,2017,00,00*64
$GPGGA,172303.00,4513.1125,N,00548.4306,E,2,07,1.36,230.23,M,48.648,M,,*62
$GPRMC,172303.00,A,4513.1125,N,00548.4306,E,0.0911,158.924,011217,1.9,E*66
$GPGSA,A,2,5,13,15,20,28,30,,,,,,,1.7,1.4,1.0*09
$GPGBS,172303.00,2.840,4.246,,,,,*61
{"class":"TPV","status":2,"mode":2,"time":"2017-12-01T17:23:03.000Z","leapseconds":18,"ept":0.005,"lat":45.218541146,"lon":5.807177490,"altHAE":278.879,"altMSL":230.231,"epx":2.840,"epy":4.246,"track":158.9240,"magtrack":160.8293,"magvar":1.9,"speed":0.047,"eps":0.01,"eph":6.460,"sep":7.932}
$GPGSV,6,1,23,05,44,201,38,07,10,065,25,08,05,028,00,13,72,321,31*72
$GPGSV,6,2,23,15,40,301,25,17,02,130,00,18,03,326,00,20,44,281,22*7B
$GPGSV,6,3,23,21,06,304,00,24,09,253,20,28,56,086,35,30,37,061,23*76
$GPGSV,6,4,23,33,34,209,00,36,32,146,45,37,36,158,00,70,48,155,35*71
$GPGSV,6,5,23,71,74,308,21,72,22,324,00,73,76,251,31,74,21,228,20*7D
$GPGSV,6,6,23,80,44,037,27,81,07,032,25,88,04,346,00*4C
{"class":"SKY","xdop":0.71,"ydop":1.13,"vdop":0.96,"tdop":0.83,"hdop":1.36,"gdop":1.86,"pdop":1.67,"satellites":[{"PRN":5,"el":44.0,"az":201.0,"ss":38.0,"used":true,"gnssid":0,"svid":5,"health":1},{"PRN":7,"el":10.0,"az":65.0,"ss":25.0,"used":true,"gnssid":0,"svid":7,"health":1},{"PRN":8,"el":5.0,"az":28.0,"ss":0.0,"used":false,"gnssid":0,"svid":8,"health":1},{"PRN":13,"el":72.0,"az":321.0,"ss":31.0,"used":true,"gnssid":0,"svid":13,"health":1},{"PRN":15,"el":40.0,"az":301.0,"ss":25.0,"used":true,"gnssid":0,"svid":15,"health":1},{"PRN":17,"el":2.0,"az":130.0,"ss":0.0,"used":false,"gnssid":0,"svid":17,"health":1},{"PRN":18,"el":3.0,"az":326.0,"ss":0.0,"used":false,"gnssid":0,"svid":18,"health":1},{"PRN":20,"el":44.0,"az":281.0,"ss":22.0,"used":true,"gnssid":0,"svid":20,"health":1},{"PRN":21,"el":6.0,"az":304.0,"ss":0.0,"used":false,"gnssid":0,"svid":21,"health":1},{"PRN":24,"el":9.0,"az":253.0,"ss":20.0,"used":false,"gnssid":0,"svid":24,"health":1},{"PRN":28,"el":56.0,"az":86.0,"ss":35.0,"used":true,"gnssid":0,"svid":28,"health":1},{"PRN":30,"el":37.0,"az":61.0,"ss":23.0,"used":true,"gnssid":0,"svid":30,"health":1},{"PRN":33,"el":34.0,"az":209.0,"ss":0.0,"used":false,"gnssid":1,"svid":120,"health":1},{"PRN":36,"el":32.0,"az":146.0,"ss":45.0,"used":false,"gnssid":1,"svid":123,"health":1},{"PRN":37,"el":36.0,"az":158.0,"ss":0.0,"used":false,"gnssid":1,"svid":124,"health":1},{"PRN":193,"az":0.0,"ss":0.0,"used":false,"gnssid":5,"svid":1,"health":1},{"PRN":195,"az":0.0,"ss":0.0,"used":false,"gnssid":5,"svid":3,"health":1},{"PRN":197,"az":0.0,"ss":0.0,"used":false,"gnssid":5,"svid":5,"health":1},{"PRN":70,"el":48.0,"az":155.0,"ss":35.0,"used":false,"gnssid":6,"svid":6,"health":1},{"PRN":71,"el":74.0,"az":308.0,"ss":21.0,"used":false,"gnssid":6,"svid":7,"health":1},{"PRN":72,"el":22.0,"az":324.0,"ss":0.0,"used":false,"gnssid":6,"svid":8,"health":1},{"PRN":73,"el":76.0,"az":251.0,"ss":31.0,"used":false,"gnssid":6,"svid":9,"health":1},{"PRN":74,"el":21.0,"az":228.0,"ss":20.0,"used":false,"gnssid":6,"svid":10,"health":1},{"PRN":80,"el":44.0,"az":37.0,"ss":27.0,"used":false,"gnssid":6,"svid":16,"health":1},{"PRN":81,"el":7.0,"az":32.0,"ss":25.0,"used":false,"gnssid":6,"svid":17,"health":1},{"PRN":88,"el":4.0,"az":346.0,"ss":0.0,"used":false,"gnssid":6,"svid":24,"health":1}]}
{"class":"TPV","status":2,"mode":2,"time":"2017-12-01T17:23:03.000Z","leapseconds":18,"ept":0.005,"lat":45.218541146,"lon":5.807177490,"altHAE":278.879,"altMSL":230.231,"epx":2.840,"epy":4.246,"track":158.9240,"magtrack":160.8293,"magvar":1.9,"speed":0.047,"eps":0.01,"eph":6.460,"sep":7.932}
$GPZDA,172304.00,01,12,2017,00,00*63
$GPGGA,172304.00,4513.1125,N,00548.4306,E,2,07,1.29,230.23,M,48.648,M,,*6B
$GPRMC,172304.00,A,4513.1125,N,00548.4306,E,0.0911,158.924,011217,1.9,E*61
$GPGSA,A,2,5,7,13,15,20,28,30,,,,,,1.6,1.3,0.9*30
$GPGBS,172304.00,2.840,4.246,,,,,*66
{"class":"TPV","status":2,"mode":2,"time":"2017-12-01T17:23:04.000Z","leapseconds":18,"ept":0.005,"lat":45.218541146,"lon":5.807177490,"altHAE":278.879,"altMSL":230.231,"epx":2.840,"epy":4.246,"track":158.9240,"magtrack":160.8293,"magvar":1.9,"speed":0.047,"eps":0.01,"eph":6.460,"sep":7.932}
$GPZDA,172305.00,01,12,2017,00,00*62
$GPGGA,172305.00,4513.1125,N,00548.4306,E,2,07,1.29,230.23,M,48.648,M,,*6A
$GPRMC,172305.00,A,4513.1125,N,00548.4306,E,0.0911,158.924,011217,1.9,E*60
$GPGSA,A,2,5,7,13,15,20,28,30,,,,,,1.6,1.3,0.9*30
$GPGBS,172305.00,2.840,4.246,,,,,*67
{"class":"TPV","status":2,"mode":2,"time":"2017-12-01T17:23:05.000Z","leapseconds":18,"ept":0.005,"lat":45.218541146,"lon":5.807177490,"altHAE":278.879,"altMSL":230.231,"epx":2.840,"epy":4.246,"track":158.9240,"magtrack":160.8293,"magvar":1.9,"speed":0.047,"eps":0.01,"eph":6.460,"sep":7.932}
{"class":"TPV","status":2,"mode":2,"time":"2017-12-01T17:23:05.000Z","leapseconds":18,"ept":0.005,"lat":45.218541146,"lon":5.807177490,"altHAE":278.879,"altMSL":230.231,"epx":2.840,"epy":4.246,"track":158.9240,"magtrack":160.8293,"magvar":1.9,"speed":0.047,"eps":0.01,"eph":6.460,"sep":7.932}
$GPZDA,172306.00,01,12,2017,00,00*61
$GPGGA,172306.00,4513.1125,N,00548.4306,E,2,07,1.29,230.23,M,48.648,M,,*69
$GPRMC,172306.00,A,4513.1125,N,00548.4306,E,0.0911,158.924,011217,1.9,E*63
$GPGSA,A,2,5,7,13,15,20,28,30,,,,,,1.6,1.3,0.9*30
$GPGBS,172306.00,2.840,4.246,,,,,*64
{"class":"TPV","status":2,"mode":2,"time":"2017-12-01T17:23:06.000Z","leapseconds":18,"ept":0.005,"lat":45.218541146,"lon":5.807177490,"altHAE":278.879,"altMSL":230.231,"epx":2.840,"epy":4.246,"track":158.9240,"magtrack":160.8293,"magvar":1.9,"speed":0.047,"eps":0.01,"eph":6.460,"sep":7.932}
$GPZDA,172307.00,01,12,2017,00,00*60
$GPGGA,172307.00,4513.1125,N,00548.4306,E,2,07,1.29,230.23,M,48.648,M,,*68
$GPRMC,172307.00,A,4513.1125,N,00548.4306,E,0.0911,158.924,011217,1.9,E*62
$GPGSA,A,2,5,7,13,15,20,28,30,,,,,,1.6,1.3,0.9*30
$GPGBS,172307.00,2.840,4.246,,,,,*65
{"class":"TPV","status":2,"mode":2,"time":"2017-12-01T17:23:07.000Z","leapseconds":18,"ept":0.005,"lat":45.218541146,"lon":5.807177490,"altHAE":278.879,"altMSL":230.231,"epx":2.840,"epy":4.246,"track":158.9240,"magtrack":160.8293,"magvar":1.9,"speed":0.047,"eps":0.01,"eph":6.460,"sep":7.932}
{"class":"TPV","status":2,"mode":2,"time":"2017-12-01T17:23:07.000Z","leapseconds":18,"ept":0.005,"lat":45.218541146,"lon":5.807177490,"altHAE":278.879,"altMSL":230.231,"epx":2.840,"epy":4.246,"track":158.9240,"magtrack":160.8293,"magvar":1.9,"speed":0.047,"eps":0.01,"eph":6.460,"sep":7.932}
$GPZDA,172308.00,01,12,2017,00,00*6F
$GPGGA,172308.00,4513.1125,N,00548.4306,E,2,07,1.29,230.23,M,48.648,M,,*67
$GPRMC,172308.00,A,4513.1125,N,00548.4306,E,0.0911,158.924,011217,1.9,E*6D
$GPGSA,A,2,5,7,13,15,20,28,30,,,,,,1.6,1.3,0.9*30
$GPGBS,172308.00,2.840,4.246,,,,,*6A
{"class":"TPV","status":2,"mode":2,"time":"2017-12-01T17:23:08.000Z","leapseconds":18,"ept":0.005,"lat":45.218541146,"lon":5.807177490,"altHAE":278.879,"altMSL":230.231,"epx":2.840,"epy":4.246,"track":158.9240,"magtrack":160.8293,"magvar":1.9,"speed":0.047,"eps":0.01,"eph":6.460,"sep":7.932}
$GPZDA,172309.00,01,12,2017,00,00*6E
$GPGGA,172309.00,4513.1125,N,00548.4306,E,2,07,1.29,230.23,M,48.648,M,,*66
$GPRMC,172309.00,A,4513.1125,N,00548.4306,E,0.0911,158.924,011217,1.9,E*6C
$GPGSA,A,2,5,7,13,15,20,28,30,,,,,,1.6,1.3,0.9*30
$GPGBS,172309.00,2.840,4.246,,,,,*6B
{"class":"TPV","status":2,"mode":2,"time":"2017-12-01T17:23:09.000Z","leapseconds":18,"ept":0.005,"lat":45.218541146,"lon":5.807177490,"altHAE":278.879,"altMSL":230.231,"epx":2.840,"epy":4.246,"track":158.9240,"magtrack":160.8293,"magvar":1.9,"speed":0.047,"eps":0.01,"eph":6.460,"sep":7.932}
{"class":"TPV","status":2,"mode":2,"time":"2017-12-01T17:23:09.000Z","leapseconds":18,"ept":0.005,"lat":45.218541146,"lon":5.807177490,"altHAE":278.879,"altMSL":230.231,"epx":2.840,"epy":4.246,"track":158.9240,"magtrack":160.8293,"magvar":1.9,"speed":0.047,"eps":0.01,"eph":6.460,"sep":7.932}
$GPZDA,172310.00,01,12,2017,00,00*66
$GPGGA,172310.00,4513.1125,N,00548.4306,E,2,07,1.29,230.23,M,48.648,M,,*6E
$GPRMC,172310.00,A,4513.1125,N,00548.4306,E,0.0911,158.924,011217,1.9,E*64
$GPGSA,A,2,5,7,13,15,20,28,30,,,,,,1.6,1.3,0.9*30
$GPGBS,172310.00,2.840,4.246,,,,,*63
{"class":"TPV","status":2,"mode":2,"time":"2017-12-01T17:23:10.000Z","leapseconds":18,"ept":0.005,"lat":45.218541146,"lon":5.807177490,"altHAE":278.879,"altMSL":230.231,"epx":2.840,"epy":4.246,"track":158.9240,"magtrack":160.8293,"magvar":1.9,"speed":0.047,"eps":0.01,"eph":6.460,"sep":7.932}
$GPZDA,172311.00,01,12,2017,00,00*67
$GPGGA,172311.00,4513.1125,N,00548.4306,E,2,07,1.29,230.23,M,48.648,M,,*6F
$GPRMC,172311.00,A,4513.1125,N,00548.4306,E,0.0911,158.924,011217,1.9,E*65
$GPGSA,A,2,5,7,13,15,20,28,30,,,,,,1.6,1.3,0.9*30
$GPGBS,172311.00,2.840,4.246,,,,,*62
{"class":"TPV","status":2,"mode":2,"time":"2017-12-01T17:23:11.000Z","leapseconds":18,"ept":0.005,"lat":45.218541146,"lon":5.807177490,"altHAE":278.879,"altMSL":230.231,"epx":2.840,"epy":4.246,"track":158.9240,"magtrack":160.8293,"magvar":1.9,"speed":0.047,"eps":0.01,"eph":6.460,"sep":7.932}
{"class":"TPV","status":2,"mode":2,"time":"2017-12-01T17:23:11.000Z","leapseconds":18,"ept":0.005,"lat":45.218541146,"lon":5.807177490,"altHAE":278.879,"altMSL":230.231,"epx":2.840,"epy":4.246,"track":158.9240,"magtrack":160.8293,"magvar":1.9,"speed":0.047,"eps":0.01,"eph":6.460,"sep":7.932}
$GPZDA,172312.00,01,12,2017,00,00*64
$GPGGA,172312.00,4513.1125,N,00548.4306,E,2,07,1.29,230.23,M,48.648,M,,*6C
$GPRMC,172312.00,A,4513.1125,N,00548.4306,E,0.0911,158.924,011217,1.9,E*66
$GPGSA,A,2,5,7,13,15,20,28,30,,,,,,1.6,1.3,0.9*30
$GPGBS,172312.00,2.840,4.246,,,,,*61
{"class":"TPV","status":2,"mode":2,"time":"2017-12-01T17:23:12.000Z","leapseconds":18,"ept":0.005,"lat":45.218541146,"lon":5.807177490,"altHAE":278.879,"altMSL":230.231,"epx":2.840,"epy":4.246,"track":158.9240,"magtrack":160.8293,"magvar":1.9,"speed":0.047,"eps":0.01,"eph":6.460,"sep":7.932}
$GPZDA,172313.00,01,12,2017,00,00*65
$GPGGA,172313.00,4513.1125,N,00548.4306,E,2,07,1.29,230.23,M,48.648,M,,*6D
$GPRMC,172313.00,A,4513.1125,N,00548.4306,E,0.0911,158.924,011217,1.9,E*67
$GPGSA,A,2,5,7,13,15,20,28,30,,,,,,1.6,1.3,0.9*30
$GPGBS,172313.00,2.840,4.246,,,,,*60
{"class":"TPV","status":2,"mode":2,"time":"2017-12-01T17:23:13.000Z","leapseconds":18,"ept":0.005,"lat":45.218541146,"lon":5.807177490,"altHAE":278.879,"altMSL":230.231,"epx":2.840,"epy":4.246,"track":158.9240,"magtrack":160.8293,"magvar":1.9,"speed":0.047,"eps":0.01,"eph":6.460,"sep":7.932}
$GPGSV,6,1,23,05,44,201,39,07,10,065,26,08,05,028,00,13,72,321,31*70
$GPGSV,6,2,23,15,40,301,27,17,02,130,00,18,03,326,00,20,44,281,23*78
$GPGSV,6,3,23,21,06,304,00,24,09,253,19,28,56,086,34,30,37,061,21*7F
$GPGSV,6,4,23,33,34,209,00,36,32,146,45,37,36,158,00,70,48,155,35*71
$GPGSV,6,5,23,71,74,308,18,72,22,324,00,73,76,251,32,74,21,228,23*77
$GPGSV,6,6,23,80,44,037,27,81,07,032,23,88,04,346,00*4A
{"class":"SKY","xdop":0.71,"ydop":1.13,"vdop":0.89,"tdop":0.73,"hdop":1.29,"gdop":1.73,"pdop":1.57,"satellites":[{"PRN":5,"el":44.0,"az":201.0,"ss":39.0,"used":true,"gnssid":0,"svid":5,"health":1},{"PRN":7,"el":10.0,"az":65.0,"ss":26.0,"used":true,"gnssid":0,"svid":7,"health":1},{"PRN":8,"el":5.0,"az":28.0,"ss":0.0,"used":false,"gnssid":0,"svid":8,"health":1},{"PRN":13,"el":72.0,"az":321.0,"ss":31.0,"used":true,"gnssid":0,"svid":13,"health":1},{"PRN":15,"el":40.0,"az":301.0,"ss":27.0,"used":true,"gnssid":0,"svid":15,"health":1},{"PRN":17,"el":2.0,"az":130.0,"ss":0.0,"used":false,"gnssid":0,"svid":17,"health":1},{"PRN":18,"el":3.0,"az":326.0,"ss":0.0,"used":false,"gnssid":0,"svid":18,"health":1},{"PRN":20,"el":44.0,"az":281.0,"ss":23.0,"used":true,"gnssid":0,"svid":20,"health":1},{"PRN":21,"el":6.0,"az":304.0,"ss":0.0,"used":false,"gnssid":0,"svid":21,"health":1},{"PRN":24,"el":9.0,"az":253.0,"ss":19.0,"used":false,"gnssid":0,"svid":24,"health":1},{"PRN":28,"el":56.0,"az":86.0,"ss":34.0,"used":true,"gnssid":0,"svid":28,"health":1},{"PRN":30,"el":37.0,"az":61.0,"ss":21.0,"used":true,"gnssid":0,"svid":30,"health":1},{"PRN":33,"el":34.0,"az":209.0,"ss":0.0,"used":false,"gnssid":1,"svid":120,"health":1},{"PRN":36,"el":32.0,"az":146.0,"ss":45.0,"used":false,"gnssid":1,"svid":123,"health":1},{"PRN":37,"el":36.0,"az":158.0,"ss":0.0,"used":false,"gnssid":1,"svid":124,"health":1},{"PRN":193,"az":0.0,"ss":0.0,"used":false,"gnssid":5,"svid":1,"health":1},{"PRN":195,"az":0.0,"ss":0.0,"used":false,"gnssid":5,"svid":3,"health":1},{"PRN":197,"az":0.0,"ss":0.0,"used":false,"gnssid":5,"svid":5,"health":1},{"PRN":70,"el":48.0,"az":155.0,"ss":35.0,"used":false,"gnssid":6,"svid":6,"health":1},{"PRN":71,"el":74.0,"az":308.0,"ss":18.0,"used":false,"gnssid":6,"svid":7,"health":1},{"PRN":72,"el":22.0,"az":324.0,"ss":0.0,"used":false,"gnssid":6,"svid":8,"health":1},{"PRN":73,"el":76.0,"az":251.0,"ss":32.0,"used":false,"gnssid":6,"svid":9,"health":1},{"PRN":74,"el":21.0,"az":228.0,"ss":23.0,"used":false,"gnssid":6,"svid":10,"health":1},{"PRN":80,"el":44.0,"az":37.0,"ss":27.0,"used":false,"gnssid":6,"svid":16,"health":1},{"PRN":81,"el":7.0,"az":32.0,"ss":23.0,"used":false,"gnssid":6,"svid":17,"health":1},{"PRN":88,"el":4.0,"az":346.0,"ss":0.0,"used":false,"gnssid":6,"svid":24,"health":1}]}
{"class":"TPV","status":2,"mode":2,"time":"2017-12-01T17:23:13.000Z","leapseconds":18,"ept":0.005,"lat":45.218541146,"lon":5.807177490,"altHAE":278.879,"altMSL":230.231,"epx":2.840,"epy":4.246,"track":158.9240,"magtrack":160.8293,"magvar":1.9,"speed":0.047,"eps":0.01,"eph":6.460,"sep":7.932}
$GPZDA,172314.00,01,12,2017,00,00*62
$GPGGA,172314.00,4513.1125,N,00548.4306,E,2,07,1.29,230.23,M,48.648,M,,*6A
$GPRMC,172314.00,A,4513.1125,N,00548.4306,E,0.0911,158.924,011217,1.9,E*60
$GPGSA,A,2,5,7,13,15,20,28,30,,,,,,1.6,1.3,0.9*30
$GPGBS,172314.00,2.840,4.246,,,,,*67
{"class":"TPV","status":2,"mode":2,"time":"2017-12-01T17:23:14.000Z","leapseconds":18,"ept":0.005,"lat":45.218541146,"lon":5.807177490,"altHAE":278.879,"altMSL":230.231,"epx":2.840,"epy":4.246,"track":158.9240,"magtrack":160.8293,"magvar":1.9,"speed":0.047,"eps":0.01,"eph":6.460,"sep":7.932}
$GPZDA,172315.00,01,12,2017,00,00*63
$GPGGA,172315.00,4513.1125,N,00548.4306,E,2,07,1.29,230.23,M,48.648,M,,*6B
$GPRMC,172315.00,A,4513.1125,N,00548.4306,E,0.0911,158.924,011217,1.9,E*61
$GPGSA,A,2,5,7,13,15,20,28,30,,,,,,1.6,1.3,0.9*30
$GPGBS,172315.00,2.840,4.246,,,,,*66
{"class":"TPV","status":2,"mode":2,"time":"2017-12-01T17:23:15.000Z","leapseconds":18,"ept":0.005,"lat":45.218541146,"lon":5.807177490,"altHAE":278.879,"altMSL":230.231,"epx":2.840,"epy":4.246,"track":158.9240,"magtrack":160.8293,"magvar":1.9,"speed":0.047,"eps":0.01,"eph":6.460,"sep":7.932}
{"class":"TPV","status":2,"mode":2,"time":"2017-12-01T17:23:15.000Z","leapseconds":18,"ept":0.005,"lat":45.218541146,"lon":5.807177490,"altHAE":278.879,"altMSL":230.231,"epx":2.840,"epy":4.246,"track":158.9240,"magtrack":160.8293,"magvar":1.9,"speed":0.047,"eps":0.01,"eph":6.460,"sep":7.932}
$GPZDA,172316.00,01,12,2017,00,00*60
$GPGGA,172316.00,4513.1125,N,00548.4306,E,2,07,1.29,230.23,M,48.648,M,,*68
$GPRMC,172316.00,A,4513.1125,N,00548.4306,E,0.0911,158.924,011217,1.9,E*62
$GPGSA,A,2,5,7,13,15,20,28,30,,,,,,1.6,1.3,0.9*30
$GPGBS,172316.00,2.840,4.246,,,,,*65
{"class":"TPV","status":2,"mode":2,"time":"2017-12-01T17:23:16.000Z","leapseconds":18,"ept":0.005,"lat":45.218541146,"lon":5.807177490,"altHAE":278.879,"altMSL":230.231,"epx":2.840,"epy":4.246,"track":158.9240,"magtrack":160.8293,"magvar":1.9,"speed":0.047,"eps":0.01,"eph":6.460,"sep":7.932}
$GPZDA,172317.00,01,12,2017,00,00*61
$GPGGA,172317.00,4513.1125,N,00548.4306,E,2,07,1.29,230.23,M,48.648,M,,*69
$GPRMC,172317.00,A,4513.1125,N,00548.4306,E,0.0911,158.924,011217,1.9,E*63
$GPGSA,A,2,5,7,13,15,20,28,30,,,,,,1.6,1.3,0.9*30
$GPGBS,172317.00,2.840,4.246,,,,,*64
{"class":"TPV","status":2,"mode":2,"time":"2017-12-01T17:23:17.000Z","leapseconds":18,"ept":0.005,"lat":45.218541146,"lon":5.807177490,"altHAE":278.879,"altMSL":230.231,"epx":2.840,"epy":4.246,"track":158.9240,"magtrack":160.8293,"magvar":1.9,"speed":0.047,"eps":0.01,"eph":6.460,"sep":7.932}
{"class":"TPV","status":2,"mode":2,"time":"2017-12-01T17:23:17.000Z","leapseconds":18,"ept":0.005,"lat":45.218541146,"lon":5.807177490,"altHAE":278.879,"altMSL":230.231,"epx":2.840,"epy":4.246,"track":158.9240,"magtrack":160.8293,"magvar":1.9,"speed":0.047,"eps":0.01,"eph":6.460,"sep":7.932}
$GPZDA,172318.00,01,12,2017,00,00*6E
$GPGGA,172318.00,4513.1125,N,00548.4306,E,2,07,1.29,230.23,M,48.648,M,,*66
$GPRMC,172318.00,A,4513.1125,N,00548.4306,E,0.0911,158.924,011217,1.9,E*6C
$GPGSA,A,2,5,7,13,15,20,28,30,,,,,,1.6,1.3,0.9*30
$GPGBS,172318.00,2.840,4.246,,,,,*6B
{"class":"TPV","status":2,"mode":2,"time":"2017-12-01T17:23:18.000Z","leapseconds":18,"ept":0.005,"lat":45.218541146,"lon":5.807177490,"altHAE":278.879,"altMSL":230.231,"epx":2.840,"epy":4.246,"track":158.9240,"magtrack":160.8293,"magvar":1.9,"speed":0.047,"eps":0.03,"eph":6.460,"sep":7.932}
$GPZDA,172319.00,01,12,2017,00,00*6F
$GPGGA,172319.00,4513.1125,N,00548.4306,E,2,07,1.29,230.23,M,48.648,M,,*67
$GPRMC,172319.00,A,4513.1125,N,00548.4306,E,0.0911,158.924,011217,1.9,E*6D
$GPGSA,A,2,5,7,13,15,20,28,30,,,,,,1.6,1.3,0.9*30
$GPGBS,172319.00,2.840,4.246,,,,,*6A
{"class":"TPV","status":2,"mode":2,"time":"2017-12-01T17:23:19.000Z","leapseconds":18,"ept":0.005,"lat":45.218541146,"lon":5.807177490,"altHAE":278.879,"altMSL":230.231,"epx":2.840,"epy":4.246,"track":158.9240,"magtrack":160.8293,"magvar":1.9,"speed":0.047,"eps":0.03,"eph":6.460,"sep":7.932}
{"class":"TPV","status":2,"mode":2,"time":"2017-12-01T17:23:19.000Z","leapseconds":18,"ept":0.005,"lat":45.218541146,"lon":5.807177490,"altHAE":278.879,"altMSL":230.231,"epx":2.840,"epy":4.246,"track":158.9240,"magtrack":160.8293,"magvar":1.9,"speed":0.047,"eps":0.03,"eph":6.460,"sep":7.932}
$GPZDA,172320.00,01,12,2017,00,00*65
$GPGGA,172320.00,4513.1125,N,00548.4306,E,2,07,1.29,230.23,M,48.648,M,,*6D
$GPRMC,172320.00,A,4513.1125,N,00548.4306,E,0.0911,158.924,011217,1.9,E*67
$GPGSA,A,2,5,7,13,15,20,28,30,,,,,,1.6,1.3,0.9*30
$GPGBS,172320.00,2.840,4.246,,,,,*60
{"class":"TPV","status":2,"mode":2,"time":"2017-12-01T17:23:20.000Z","leapseconds":18,"ept":0.005,"lat":45.218541146,"lon":5.807177490,"altHAE":278.879,"altMSL":230.231,"epx":2.840,"epy":4.246,"track":158.9240,"magtrack":160.8293,"magvar":1.9,"speed":0.047,"eps":0.03,"eph":6.460,"sep":7.932}
$GPZDA,172321.00,01,12,2017,00,00*64
$GPGGA,172321.00,4513.1125,N,00548.4306,E,2,07,1.29,230.23,M,48.648,M,,*6C
$GPRMC,172321.00,A,4513.1125,N,00548.4306,E,0.0911,158.924,011217,1.9,E*66
$GPGSA,A,2,5,7,13,15,20,28,30,,,,,,1.6,1.3,0.9*30
$GPGBS,172321.00,2.840,4.246,,,,,*61
{"class":"TPV","status":2,"mode":2,"time":"2017-12-01T17:23:21.000Z","leapseconds":18,"ept":0.005,"lat":45.218541146,"lon":5.807177490,"altHAE":278.879,"altMSL":230.231,"epx":2.840,"epy":4.246,"track":158.9240,"magtrack":160.8293,"magvar":1.9,"speed":0.047,"eps":0.03,"eph":6.460,"sep":7.932}
{"class":"TPV","status":2,"mode":2,"time":"2017-12-01T17:23:21.000Z","leapseconds":18,"ept":0.005,"lat":45.218541146,"lon":5.807177490,"altHAE":278.879,"altMSL":230.231,"epx":2.840,"epy":4.246,"track":158.9240,"magtrack":160.8293,"magvar":1.9,"speed":0.047,"eps":0.03,"eph":6.460,"sep":7.932}
$GPZDA,172322.00,01,12,2017,00,00*67
$GPGGA,172322.00,4513.1125,N,00548.4306,E,2,07,1.29,230.23,M,48.648,M,,*6F
$GPRMC,172322.00,A,4513.1125,N,00548.4306,E,0.0911,158.924,011217,1.9,E*65
$GPGSA,A,2,5,7,13,15,20,28,30,,,,,,1.6,1.3,0.9*30
$GPGBS,172322.00,2.840,4.246,,,,,*62
{"class":"TPV","status":2,"mode":2,"time":"2017-12-01T17:23:22.000Z","leapseconds":18,"ept":0.005,"lat":45.218541146,"lon":5.807177490,"altHAE":278.879,"altMSL":230.231,"epx":2.840,"epy":4.246,"track":158.9240,"magtrack":160.8293,"magvar":1.9,"speed":0.047,"eps":0.03,"eph":6.460,"sep":7.932}
$GPZDA,172323.00,01,12,2017,00,00*66
$GPGGA,172323.00,4513.1125,N,00548.4306,E,2,07,1.29,230.23,M,48.648,M,,*6E
$GPRMC,172323.00,A,4513.1125,N,00548.4306,E,0.0911,158.924,011217,1.9,E*64
$GPGSA,A,2,5,7,13,15,20,28,30,,,,,,1.6,1.3,0.9*30
$GPGBS,172323.00,2.840,4.246,,,,,*63
{"class":"TPV","status":2,"mode":2,"time":"2017-12-01T17:23:23.000Z","leapseconds":18,"ept":0.005,"lat":45.218541146,"lon":5.807177490,"altHAE":278.879,"altMSL":230.231,"epx":2.840,"epy":4.246,"track":158.9240,"magtrack":160.8293,"magvar":1.9,"speed":0.047,"eps":0.03,"eph":6.460,"sep":7.932}
$GPGSV,6,1,23,05,44,201,39,07,10,065,27,08,05,028,00,13,72,321,32*72
$GPGSV,6,2,23,15,40,301,28,17,02,130,00,18,03,326,00,20,44,281,27*73
$GPGSV,6,3,23,21,06,304,00,24,09,253,18,28,56,086,34,30,37,061,16*7A
$GPGSV,6,4,23,33,34,209,00,36,32,146,45,37,36,158,00,70,48,156,34*73
$GPGSV,6,5,23,71,74,307,17,72,22,324,00,73,77,253,32,74,21,228,23*74
$GPGSV,6,6,23,80,44,037,26,81,07,032,20,88,04,346,00*48
{"class":"SKY","xdop":0.71,"ydop":1.13,"vdop":0.89,"tdop":0.73,"hdop":1.29,"gdop":1.73,"pdop":1.57,"satellites":[{"PRN":5,"el":44.0,"az":201.0,"ss":39.0,"used":true,"gnssid":0,"svid":5,"health":1},{"PRN":7,"el":10.0,"az":65.0,"ss":27.0,"used":true,"gnssid":0,"svid":7,"health":1},{"PRN":8,"el":5.0,"az":28.0,"ss":0.0,"used":false,"gnssid":0,"svid":8,"health":1},{"PRN":13,"el":72.0,"az":321.0,"ss":32.0,"used":true,"gnssid":0,"svid":13,"health":1},{"PRN":15,"el":40.0,"az":301.0,"ss":28.0,"used":true,"gnssid":0,"svid":15,"health":1},{"PRN":17,"el":2.0,"az":130.0,"ss":0.0,"used":false,"gnssid":0,"svid":17,"health":1},{"PRN":18,"el":3.0,"az":326.0,"ss":0.0,"used":false,"gnssid":0,"svid":18,"health":1},{"PRN":20,"el":44.0,"az":281.0,"ss":27.0,"used":true,"gnssid":0,"svid":20,"health":1},{"PRN":21,"el":6.0,"az":304.0,"ss":0.0,"used":false,"gnssid":0,"svid":21,"health":1},{"PRN":24,"el":9.0,"az":253.0,"ss":18.0,"used":false,"gnssid":0,"svid":24,"health":1},{"PRN":28,"el":56.0,"az":86.0,"ss":34.0,"used":true,"gnssid":0,"svid":28,"health":1},{"PRN":30,"el":37.0,"az":61.0,"ss":16.0,"used":true,"gnssid":0,"svid":30,"health":1},{"PRN":33,"el":34.0,"az":209.0,"ss":0.0,"used":false,"gnssid":1,"svid":120,"health":1},{"PRN":36,"el":32.0,"az":146.0,"ss":45.0,"used":false,"gnssid":1,"svid":123,"health":1},{"PRN":37,"el":36.0,"az":158.0,"ss":0.0,"used":false,"gnssid":1,"svid":124,"health":1},{"PRN":193,"az":0.0,"ss":0.0,"used":false,"gnssid":5,"svid":1,"health":1},{"PRN":194,"az":0.0,"ss":0.0,"used":false,"gnssid":5,"svid":2,"health":1},{"PRN":196,"az":0.0,"ss":0.0,"used":false,"gnssid":5,"svid":4,"health":1},{"PRN":70,"el":48.0,"az":156.0,"ss":34.0,"used":false,"gnssid":6,"svid":6,"health":1},{"PRN":71,"el":74.0,"az":307.0,"ss":17.0,"used":false,"gnssid":6,"svid":7,"health":1},{"PRN":72,"el":22.0,"az":324.0,"ss":0.0,"used":false,"gnssid":6,"svid":8,"health":1},{"PRN":73,"el":77.0,"az":253.0,"ss":32.0,"used":false,"gnssid":6,"svid":9,"health":1},{"PRN":74,"el":21.0,"az":228.0,"ss":23.0,"used":false,"gnssid":6,"svid":10,"health":1},{"PRN":80,"el":44.0,"az":37.0,"ss":26.0,"used":false,"gnssid":6,"svid":16,"health":1},{"PRN":81,"el":7.0,"az":32.0,"ss":20.0,"used":false,"gnssid":6,"svid":17,"health":1},{"PRN":88,"el":4.0,"az":346.0,"ss":0.0,"used":false,"gnssid":6,"svid":24,"health":1}]}
{"class":"TPV","status":2,"mode":2,"time":"2017-12-01T17:23:23.000Z","leapseconds":18,"ept":0.005,"lat":45.218541146,"lon":5.807177490,"altHAE":278.879,"altMSL":230.231,"epx":2.840,"epy":4.246,"track":158.9240,"magtrack":160.8293,"magvar":1.9,"speed":0.047,"eps":0.03,"eph":6.460,"sep":7.932}
$GPZDA,172324.00,01,12,2017,00,00*61
$GPGGA,172324.00,4513.1125,N,00548.4306,E,2,07,1.29,230.23,M,48.648,M,,*69
$GPRMC,172324.00,A,4513.1125,N,00548.4306,E,0.0911,158.924,011217,1.9,E*63
$GPGSA,A,2,5,7,13,15,20,28,30,,,,,,1.6,1.3,0.9*30
$GPGBS,172324.00,2.840,4.246,,,,,*64
{"class":"TPV","status":2,"mode":2,"time":"2017-12-01T17:23:24.000Z","leapseconds":18,"ept":0.005,"lat":45.218541146,"lon":5.807177490,"altHAE":278.879,"altMSL":230.231,"epx":2.840,"epy":4.246,"track":158.9240,"magtrack":160.8293,"magvar":1.9,"speed":0.047,"eps":0.03,"eph":6.460,"sep":7.932}
$GPZDA,172325.00,01,12,2017,00,00*60
$GPGGA,172325.00,4513.1125,N,00548.4306,E,2,07,1.29,230.23,M,48.648,M,,*68
$GPRMC,172325.00,A,4513.1125,N,00548.4306,E,0.0911,158.924,011217,1.9,E*62
$GPGSA,A,2,5,7,13,15,20,28,30,,,,,,1.6,1.3,0.9*30
$GPGBS,172325.00,2.840,4.246,,,,,*65
{"class":"TPV","status":2,"mode":2,"time":"2017-12-01T17:23:25.000Z","leapseconds":18,"ept":0.005,"lat":45.218541146,"lon":5.807177490,"altHAE":278.879,"altMSL":230.231,"epx":2.840,"epy":4.246,"track":158.9240,"magtrack":160.8293,"magvar":1.9,"speed":0.047,"eps":0.03,"eph":6.460,"sep":7.932}
{"class":"TPV","status":2,"mode":2,"time":"2017-12-01T17:23:25.000Z","leapseconds":18,"ept":0.005,"lat":45.218541146,"lon":5.807177490,"altHAE":278.879,"altMSL":230.231,"epx":2.840,"epy":4.246,"track":158.9240,"magtrack":160.8293,"magvar":1.9,"speed":0.047,"eps":0.03,"eph":6.460,"sep":7.932}
$GPZDA,172326.00,01,12,2017,00,00*63
$GPGGA,172326.00,4513.1125,N,00548.4306,E,2,07,1.29,230.23,M,48.648,M,,*6B
$GPRMC,172326.00,A,4513.1125,N,00548.4306,E,0.0911,158.924,011217,1.9,E*61
$GPGSA,A,2,5,7,13,15,20,28,30,,,,,,1.6,1.3,0.9*30
$GPGBS,172326.00,2.840,4.246,,,,,*66
{"class":"TPV","status":2,"mode":2,"time":"2017-12-01T17:23:26.000Z","leapseconds":18,"ept":0.005,"lat":45.218541146,"lon":5.807177490,"altHAE":278.879,"altMSL":230.231,"epx":2.840,"epy":4.246,"track":158.9240,"magtrack":160.8293,"magvar":1.9,"speed":0.047,"eps":0.03,"eph":6.460,"sep":7.932}
$GPZDA,172327.00,01,12,2017,00,00*62
$GPGGA,172327.00,4513.1125,N,00548.4306,E,2,07,1.29,230.23,M,48.648,M,,*6A
$GPRMC,172327.00,A,4513.1125,N,00548.4306,E,0.0911,158.924,011217,1.9,E*60
$GPGSA,A,2,5,7,13,15,20,28,30,,,,,,1.6,1.3,0.9*30
$GPGBS,172327.00,2.840,4.246,,,,,*67
{"class":"TPV","status":2,"mode":2,"time":"2017-12-01T17:23:27.000Z","leapseconds":18,"ept":0.005,"lat":45.218541146,"lon":5.807177490,"altHAE":278.879,"altMSL":230.231,"epx":2.840,"epy":4.246,"track":158.9240,"magtrack":160.8293,"magvar":1.9,"speed":0.047,"eps":0.03,"eph":6.460,"sep":7.932}
{"class":"TPV","status":2,"mode":2,"time":"2017-12-01T17:23:27.000Z","leapseconds":18,"ept":0.005,"lat":45.218541146,"lon":5.807177490,"altHAE":278.879,"altMSL":230.231,"epx":2.840,"epy":4.246,"track":158.9240,"magtrack":160.8293,"magvar":1.9,"speed":0.047,"eps":0.03,"eph":6.460,"sep":7.932}
$GPZDA,172328.00,01,12,2017,00,00*6D
$GPGGA,172328.00,4513.1125,N,00548.4306,E,2,07,1.29,230.23,M,48.648,M,,*65
$GPRMC,172328.00,A,4513.1125,N,00548.4306,E,0.0911,158.924,011217,1.9,E*6F
$GPGSA,A,2,5,7,13,15,20,28,30,,,,,,1.6,1.3,0.9*30
$GPGBS,172328.00,2.840,4.246,,,,,*68
{"class":"TPV","status":2,"mode":2,"time":"2017-12-01T17:23:28.000Z","leapseconds":18,"ept":0.005,"lat":45.218541146,"lon":5.807177490,"altHAE":278.879,"altMSL":230.231,"epx":2.840,"epy":4.246,"track":158.9240,"magtrack":160.8293,"magvar":1.9,"speed":0.047,"eps":0.03,"eph":6.460,"sep":7.932}
$GPZDA,172329.00,01,12,2017,00,00*6C
$GPGGA,172329.00,4513.1125,N,00548.4306,E,2,07,1.29,230.23,M,48.648,M,,*64
$GPRMC,172329.00,A,4513.1125,N,00548.4306,E,0.0911,158.924,011217,1.9,E*6E
$GPGSA,A,2,5,7,13,15,20,28,30,,,,,,1.6,1.3,0.9*30
$GPGBS,172329.00,2.840,4.246,,,,,*69
{"class":"TPV","status":2,"mode":2,"time":"2017-12-01T17:23:29.000Z","leapseconds":18,"ept":0.005,"lat":45.218541146,"lon":5.807177490,"altHAE":278.879,"altMSL":230.231,"epx":2.840,"epy":4.246,"track":158.9240,"magtrack":160.8293,"magvar":1.9,"speed":0.047,"eps":0.03,"eph":6.460,"sep":7.932}
{"class":"TPV","status":2,"mode":2,"time":"2017-12-01T17:23:29.000Z","leapseconds":18,"ept":0.005,"lat":45.218541146,"lon":5.807177490,"altHAE":278.879,"altMSL":230.231,"epx":2.840,"epy":4.246,"track":158.9240,"magtrack":160.8293,"magvar":1.9,"speed":0.047,"eps":0.03,"eph":6.460,"sep":7.932}
$GPZDA,172330.00,01,12,2017,00,00*64
$GPGGA,172330.00,4513.1125,N,00548.4306,E,2,07,1.29,230.23,M,48.648,M,,*6C
$GPRMC,172330.00,A,4513.1125,N,00548.4306,E,0.0911,158.924,011217,1.9,E*66
$GPGSA,A,2,5,7,13,15,20,28,30,,,,,,1.6,1.3,0.9*30
$GPGBS,172330.00,2.840,4.246,,,,,*61
{"class":"TPV","status":2,"mode":2,"time":"2017-12-01T17:23:30.000Z","leapseconds":18,"ept":0.005,"lat":45.218541146,"lon":5.807177490,"altHAE":278.879,"altMSL":230.231,"epx":2.840,"epy":4.246,"track":158.9240,"magtrack":160.8293,"magvar":1.9,"speed":0.047,"eps":0.03,"eph":6.460,"sep":7.932}
$GPZDA,172331.00,01,12,2017,00,00*65
$GPGGA,172331.00,4513.1125,N,00548.4306,E,2,07,1.29,230.23,M,48.648,M,,*6D
$GPRMC,172331.00,A,4513.1125,N,00548.4306,E,0.0911,158.924,011217,1.9,E*67
$GPGSA,A,2,5,7,13,15,20,28,30,,,,,,1.6,1.3,0.9*30
$GPGBS,172331.00,2.840,4.246,,,,,*60
{"class":"TPV","status":2,"mode":2,"time":"2017-12-01T17:23:31.000Z","leapseconds":18,"ept":0.005,"lat":45.218541146,"lon":5.807177490,"altHAE":278.879,"altMSL":230.231,"epx":2.840,"epy":4.246,"track":158.9240,"magtrack":160.8293,"magvar":1.9,"speed":0.047,"eps":0.03,"eph":6.460,"sep":7.932}
{"class":"TPV","status":2,"mode":2,"time":"2017-12-01T17:23:31.000Z","leapseconds":18,"ept":0.005,"lat":45.218541146,"lon":5.807177490,"altHAE":278.879,"altMSL":230.231,"epx":2.840,"epy":4.246,"track":158.9240,"magtrack":160.8293,"magvar":1.9,"speed":0.047,"eps":0.03,"eph":6.460,"sep":7.932}
$GPZDA,172332.00,01,12,2017,00,00*66
$GPGGA,172332.00,4513.1125,N,00548.4306,E,2,07,1.29,230.23,M,48.648,M,,*6E
$GPRMC,172332.00,A,4513.1125,N,00548.4306,E,0.0911,158.924,011217,1.9,E*64
$GPGSA,A,2,5,7,13,15,20,28,30,,,,,,1.6,1.3,0.9*30
$GPGBS,172332.00,2.840,4.246,,,,,*63
{"class":"TPV","status":2,"mode":2,"time":"2017-12-01T17:23:32.000Z","leapseconds":18,"ept":0.005,"lat":45.218541146,"lon":5.807177490,"altHAE":278.879,"altMSL":230.231,"epx":2.840,"epy":4.246,"track":158.9240,"magtrack":160.8293,"magvar":1.9,"speed":0.047,"eps":0.03,"eph":6.460,"sep":7.932}
$GPZDA,172333.00,01,12,2017,00,00*67
$GPGGA,172333.00,4513.1125,N,00548.4306,E,2,07,1.29,230.23,M,48.648,M,,*6F
$GPRMC,172333.00,A,4513.1125,N,00548.4306,E,0.0911,158.924,011217,1.9,E*65
$GPGSA,A,2,5,7,13,15,20,28,30,,,,,,1.6,1.3,0.9*30
$GPGBS,172333.00,2.840,4.246,,,,,*62
{"class":"TPV","status":2,"mode":2,"time":"2017-12-01T17:23:33.000Z","leapseconds":18,"ept":0.005,"lat":45.218541146,"lon":5.807177490,"altHAE":278.879,"altMSL":230.231,"epx":2.840,"epy":4.246,"track":158.9240,"magtrack":160.8293,"magvar":1.9,"speed":0.047,"eps":0.03,"eph":6.460,"sep":7.932}
$GPGSV,6,1,23,05,44,201,38,07,10,065,29,08,05,028,00,13,72,321,31*7E
$GPGSV,6,2,23,15,40,301,30,17,02,130,00,18,03,326,00,20,44,281,27*7A
$GPGSV,6,3,23,21,06,304,00,24,09,253,18,28,56,086,32,30,37,061,16*7C
$GPGSV,6,4,23,33,34,209,00,36,32,146,44,37,36,158,00,70,48,156,33*75
$GPGSV,6,5,23,71,74,307,21,72,22,324,00,73,77,253,32,74,21,228,23*71
$GPGSV,6,6,23,80,43,038,25,81,07,032,21,88,04,346,00*42
{"class":"SKY","xdop":0.71,"ydop":1.13,"vdop":0.89,"tdop":0.73,"hdop":1.29,"gdop":1.73,"pdop":1.57,"satellites":[{"PRN":5,"el":44.0,"az":201.0,"ss":38.0,"used":true,"gnssid":0,"svid":5,"health":1},{"PRN":7,"el":10.0,"az":65.0,"ss":29.0,"used":true,"gnssid":0,"svid":7,"health":1},{"PRN":8,"el":5.0,"az":28.0,"ss":0.0,"used":false,"gnssid":0,"svid":8,"health":1},{"PRN":13,"el":72.0,"az":321.0,"ss":31.0,"used":true,"gnssid":0,"svid":13,"health":1},{"PRN":15,"el":40.0,"az":301.0,"ss":30.0,"used":true,"gnssid":0,"svid":15,"health":1},{"PRN":17,"el":2.0,"az":130.0,"ss":0.0,"used":false,"gnssid":0,"svid":17,"health":1},{"PRN":18,"el":3.0,"az":326.0,"ss":0.0,"used":false,"gnssid":0,"svid":18,"health":1},{"PRN":20,"el":44.0,"az":281.0,"ss":27.0,"used":true,"gnssid":0,"svid":20,"health":1},{"PRN":21,"el":6.0,"az":304.0,"ss":0.0,"used":false,"gnssid":0,"svid":21,"health":1},{"PRN":24,"el":9.0,"az":253.0,"ss":18.0,"used":false,"gnssid":0,"svid":24,"health":1},{"PRN":28,"el":56.0,"az":86.0,"ss":32.0,"used":true,"gnssid":0,"svid":28,"health":1},{"PRN":30,"el":37.0,"az":61.0,"ss":16.0,"used":true,"gnssid":0,"svid":30,"health":1},{"PRN":33,"el":34.0,"az":209.0,"ss":0.0,"used":false,"gnssid":1,"svid":120,"health":1},{"PRN":36,"el":32.0,"az":146.0,"ss":44.0,"used":false,"gnssid":1,"svid":123,"health":1},{"PRN":37,"el":36.0,"az":158.0,"ss":0.0,"used":false,"gnssid":1,"svid":124,"health":1},{"PRN":193,"az":0.0,"ss":0.0,"used":false,"gnssid":5,"svid":1,"health":1},{"PRN":194,"az":0.0,"ss":0.0,"used":false,"gnssid":5,"svid":2,"health":1},{"PRN":196,"az":0.0,"ss":0.0,"used":false,"gnssid":5,"svid":4,"health":1},{"PRN":70,"el":48.0,"az":156.0,"ss":33.0,"used":false,"gnssid":6,"svid":6,"health":1},{"PRN":71,"el":74.0,"az":307.0,"ss":21.0,"used":false,"gnssid":6,"svid":7,"health":1},{"PRN":72,"el":22.0,"az":324.0,"ss":0.0,"used":false,"gnssid":6,"svid":8,"health":1},{"PRN":73,"el":77.0,"az":253.0,"ss":32.0,"used":false,"gnssid":6,"svid":9,"health":1},{"PRN":74,"el":21.0,"az":228.0,"ss":23.0,"used":false,"gnssid":6,"svid":10,"health":1},{"PRN":80,"el":43.0,"az":38.0,"ss":25.0,"used":false,"gnssid":6,"svid":16,"health":1},{"PRN":81,"el":7.0,"az":32.0,"ss":21.0,"used":false,"gnssid":6,"svid":17,"health":1},{"PRN":88,"el":4.0,"az":346.0,"ss":0.0,"used":false,"gnssid":6,"svid":24,"health":1}]}
{"class":"TPV","status":2,"mode":2,"time":"2017-12-01T17:23:33.000Z","leapseconds":18,"ept":0.005,"lat":45.218541146,"lon":5.807177490,"altHAE":278.879,"altMSL":230.231,"epx":2.840,"epy":4.246,"track":158.9240,"magtrack":160.8293,"magvar":1.9,"speed":0.047,"eps":0.03,"eph":6.460,"sep":7.932}
$GPZDA,172334.00,01,12,2017,00,00*60
$GPGGA,172334.00,4513.1125,N,00548.4306,E,2,07,1.29,230.23,M,48.648,M,,*68
$GPRMC,172334.00,A,4513.1125,N,00548.4306,E,0.0911,158.924,011217,1.9,E*62
$GPGSA,A,2,5,7,13,15,20,28,30,,,,,,1.6,1.3,0.9*30
$GPGBS,172334.00,2.840,4.246,,,,,*65
{"class":"TPV","status":2,"mode":2,"time":"2017-12-01T17:23:34.000Z","leapseconds":18,"ept":0.005,"lat":45.218541146,"lon":5.807177490,"altHAE":278.879,"altMSL":230.231,"epx":2.840,"epy":4.246,"track":158.9240,"magtrack":160.8293,"magvar":1.9,"speed":0.047,"eps":0.03,"eph":6.460,"sep":7.932}
$GPZDA,172335.00,01,12,2017,00,00*61
$GPGGA,172335.00,4513.1125,N,00548.4306,E,2,07,1.29,230.23,M,48.648,M,,*69
$GPRMC,172335.00,A,4513.1125,N,00548.4306,E,0.0911,158.924,011217,1.9,E*63
$GPGSA,A,2,5,7,13,15,20,28,30,,,,,,1.6,1.3,0.9*30
$GPGBS,172335.00,2.840,4.246,,,,,*64
{"class":"TPV","status":2,"mode":2,"time":"2017-12-01T17:23:35.000Z","leapseconds":18,"ept":0.005,"lat":45.218541146,"lon":5.807177490,"altHAE":278.879,"altMSL":230.231,"epx":2.840,"epy":4.246,"track":158.9240,"magtrack":160.8293,"magvar":1.9,"speed":0.047,"eps":0.03,"eph":6.460,"sep":7.932}
{"class":"TPV","status":2,"mode":2,"time":"2017-12-01T17:23:35.000Z","leapseconds":18,"ept":0.005,"lat":45.218541146,"lon":5.807177490,"altHAE":278.879,"altMSL":230.231,"epx":2.840,"epy":4.246,"track":158.9240,"magtrack":160.8293,"magvar":1.9,"speed":0.047,"eps":0.03,"eph":6.460,"sep":7.932}
$GPZDA,172336.00,01,12,2017,00,00*62
$GPGGA,172336.00,4513.1125,N,00548.4306,E,2,07,1.29,230.23,M,48.648,M,,*6A
$GPRMC,172336.00,A,4513.1125,N,00548.4306,E,0.0911,158.924,011217,1.9,E*60
$GPGSA,A,2,5,7,13,15,20,28,30,,,,,,1.6,1.3,0.9*30
$GPGBS,172336.00,2.840,4.246,,,,,*67
{"class":"TPV","status":2,"mode":2,"time":"2017-12-01T17:23:36.000Z","leapseconds":18,"ept":0.005,"lat":45.218541146,"lon":5.807177490,"altHAE":278.879,"altMSL":230.231,"epx":2.840,"epy":4.246,"track":158.9240,"magtrack":160.8293,"magvar":1.9,"speed":0.047,"eps":0.03,"eph":6.460,"sep":7.932}
$GPZDA,172337.00,01,12,2017,00,00*63
$GPGGA,172337.00,4513.1125,N,00548.4306,E,2,07,1.29,230.23,M,48.648,M,,*6B
$GPRMC,172337.00,A,4513.1125,N,00548.4306,E,0.0911,158.924,011217,1.9,E*61
$GPGSA,A,2,5,7,13,15,20,28,30,,,,,,1.6,1.3,0.9*30
$GPGBS,172337.00,2.840,4.246,,,,,*66
{"class":"TPV","status":2,"mode":2,"time":"2017-12-01T17:23:37.000Z","leapseconds":18,"ept":0.005,"lat":45.218541146,"lon":5.807177490,"altHAE":278.879,"altMSL":230.231,"epx":2.840,"epy":4.246,"track":158.9240,"magtrack":160.8293,"magvar":1.9,"speed":0.047,"eps":0.03,"eph":6.460,"sep":7.932}
{"class":"TPV","status":2,"mode":2,"time":"2017-12-01T17:23:37.000Z","leapseconds":18,"ept":0.005,"lat":45.218541146,"lon":5.807177490,"altHAE":278.879,"altMSL":230.231,"epx":2.840,"epy":4.246,"track":158.9240,"magtrack":160.8293,"magvar":1.9,"speed":0.047,"eps":0.03,"eph":6.460,"sep":7.932}
$GPZDA,172338.00,01,12,2017,00,00*6C
$GPGGA,172338.00,4513.1125,N,00548.4306,E,2,07,1.29,230.23,M,48.648,M,,*64
$GPRMC,172338.00,A,4513.1125,N,00548.4306,E,0.0911,158.924,011217,1.9,E*6E
$GPGSA,A,2,5,7,13,15,20,28,30,,,,,,1.6,1.3,0.9*30
$GPGBS,172338.00,2.840,4.246,,,,,*69
{"class":"TPV","status":2,"mode":2,"time":"2017-12-01T17:23:38.000Z","leapseconds":18,"ept":0.005,"lat":45.218541146,"lon":5.807177490,"altHAE":278.879,"altMSL":230.231,"epx":2.840,"epy":4.246,"track":158.9240,"magtrack":160.8293,"magvar":1.9,"speed":0.047,"eps":0.03,"eph":6.460,"sep":7.932}
$GPZDA,172339.00,01,12,2017,00,00*6D
