$GPGGA,231122,2037.7569,N,08704.0845,W,2,07,,75.78,M,-13.865,M,,*5B
$GPRMC,231122,A,2037.7569,N,08704.0845,W,0.0000,0.000,231207,,*32
$GPGSA,A,3,00,00,00,00,00,00,,,,,,,,,,,,,,,,,,,,,,,,,,,,,,,,,,,,,,,,,,,,,0.0,0.0,0.0*32
{"class":"TPV","tag":"0x0106","time":1198451482.999,"ept":0.005,"lat":20.629282026,"lon":-87.068075525,"alt":75.777,"track":0.0000,"speed":0.000,"climb":0.000,"mode":3}
$GPGSV,2,1,08,15,67,141,32,02,21,089,31,30,21,234,50,05,18,217,40*7C
$GPGSV,2,2,08,12,16,201,41,18,25,255,41,135,33,251,45,06,54,308,24*40
{"class":"SKY","tag":"0x0130","vdop":2.00,"tdop":1.33,"hdop":1.67,"gdop":2.92,"pdop":2.60,"satellites":[{"PRN":15,"el":67,"az":141,"ss":32,"used":true},{"PRN":2,"el":21,"az":89,"ss":31,"used":true},{"PRN":30,"el":21,"az":234,"ss":50,"used":true},{"PRN":5,"el":18,"az":217,"ss":40,"used":true},{"PRN":12,"el":16,"az":201,"ss":41,"used":true},{"PRN":18,"el":25,"az":255,"ss":41,"used":true},{"PRN":135,"el":33,"az":251,"ss":45,"used":true},{"PRN":6,"el":54,"az":308,"ss":24,"used":false}]}
$GPGGA,231124,2037.7569,N,08704.0845,W,2,07,1.67,75.76,M,-13.865,M,,*4D
$GPRMC,231124,A,2037.7569,N,08704.0845,W,0.0000,0.000,231207,,*34
$GPGSA,A,3,00,00,00,00,00,00,00,00,00,00,00,00,00,00,00,00,00,00,00,00,00,00,00,00,00,00,00,00,00,00,,,,,,,,,,,,,,,,,,,,,2.6,1.7,2.0*32
{"class":"TPV","tag":"0x0106","time":1198451484.999,"ept":0.005,"lat":20.629281973,"lon":-87.068075520,"alt":75.764,"epv":11.500,"track":0.0000,"speed":0.000,"climb":0.000,"mode":3}
$GPGSV,2,1,08,15,67,141,32,02,21,089,32,30,21,234,50,05,18,217,40*7F
$GPGSV,2,2,08,12,16,201,41,18,25,255,41,135,33,251,45,06,54,308,25*41
{"class":"SKY","tag":"0x0130","vdop":1.99,"tdop":1.33,"hdop":1.67,"gdop":2.92,"pdop":2.60,"satellites":[{"PRN":15,"el":67,"az":141,"ss":32,"used":true},{"PRN":2,"el":21,"az":89,"ss":32,"used":true},{"PRN":30,"el":21,"az":234,"ss":50,"used":true},{"PRN":5,"el":18,"az":217,"ss":40,"used":true},{"PRN":12,"el":16,"az":201,"ss":41,"used":true},{"PRN":18,"el":25,"az":255,"ss":41,"used":true},{"PRN":135,"el":33,"az":251,"ss":45,"used":true},{"PRN":6,"el":54,"az":308,"ss":25,"used":false}]}
$GPGGA,231125,2037.7569,N,08704.0845,W,2,07,1.67,75.76,M,-13.865,M,,*4C
$GPRMC,231125,A,2037.7569,N,08704.0845,W,0.0000,0.000,231207,,*35
$GPGSA,A,3,00,00,00,00,00,00,00,00,00,00,00,00,00,00,00,00,00,00,00,00,00,00,00,00,00,00,00,00,00,00,00,,,,,,,,,,,,,,,,,,,,2.6,1.7,2.0*32
{"class":"TPV","tag":"0x0106","time":1198451485.999,"ept":0.005,"lat":20.629281802,"lon":-87.068075424,"alt":75.757,"epv":11.443,"track":0.0000,"speed":0.000,"climb":0.000,"mode":3}
$GPGSV,2,1,08,15,67,141,33,02,21,089,33,30,21,234,50,05,18,217,40*7F
$GPGSV,2,2,08,12,16,201,41,18,25,255,41,135,33,251,45,06,54,308,24*40
{"class":"SKY","tag":"0x0130","vdop":1.99,"tdop":1.33,"hdop":1.67,"gdop":2.92,"pdop":2.60,"satellites":[{"PRN":15,"el":67,"az":141,"ss":33,"used":true},{"PRN":2,"el":21,"az":89,"ss":33,"used":true},{"PRN":30,"el":21,"az":234,"ss":50,"used":true},{"PRN":5,"el":18,"az":217,"ss":40,"used":true},{"PRN":12,"el":16,"az":201,"ss":41,"used":true},{"PRN":18,"el":25,"az":255,"ss":41,"used":true},{"PRN":135,"el":33,"az":251,"ss":45,"used":true},{"PRN":6,"el":54,"az":308,"ss":24,"used":false}]}
$GPGGA,231126,2037.7569,N,08704.0845,W,2,07,1.67,75.75,M,-13.865,M,,*4C
$GPRMC,231126,A,2037.7569,N,08704.0845,W,0.0000,0.000,231207,,*36
$GPGSA,A,3,00,00,00,00,00,00,00,00,00,00,00,00,00,00,00,00,00,00,00,00,00,00,00,00,00,00,00,00,00,00,00,00,,,,,,,,,,,,,,,,,,,2.6,1.7,2.0*32
{"class":"TPV","tag":"0x0106","time":1198451486.999,"ept":0.005,"lat":20.629281718,"lon":-87.068075424,"alt":75.754,"epv":11.443,"track":0.0000,"speed":0.000,"climb":0.000,"mode":3}
$GPGSV,2,1,08,15,67,141,32,02,21,089,32,30,21,234,50,05,18,217,40*7F
$GPGSV,2,2,08,12,16,201,42,18,25,255,42,135,33,251,44,06,54,308,24*41
{"class":"SKY","tag":"0x0130","vdop":2.00,"tdop":1.33,"hdop":1.67,"gdop":2.92,"pdop":2.60,"satellites":[{"PRN":15,"el":67,"az":141,"ss":32,"used":true},{"PRN":2,"el":21,"az":89,"ss":32,"used":true},{"PRN":30,"el":21,"az":234,"ss":50,"used":true},{"PRN":5,"el":18,"az":217,"ss":40,"used":true},{"PRN":12,"el":16,"az":201,"ss":42,"used":true},{"PRN":18,"el":25,"az":255,"ss":42,"used":true},{"PRN":135,"el":33,"az":251,"ss":44,"used":true},{"PRN":6,"el":54,"az":308,"ss":24,"used":false}]}
$GPGGA,231127,2037.7569,N,08704.0845,W,2,07,1.67,75.74,M,-13.865,M,,*4C
$GPRMC,231127,A,2037.7569,N,08704.0845,W,0.0000,0.000,231207,,*37
$GPGSA,A,3,00,00,00,00,00,00,00,00,00,00,00,00,00,00,00,00,00,00,00,00,00,00,00,00,00,00,00,00,00,00,,,,,,,,,,,,,,,,,,,,,2.6,1.7,2.0*32
{"class":"TPV","tag":"0x0106","time":1198451487.999,"ept":0.005,"lat":20.629281663,"lon":-87.068075323,"alt":75.741,"epv":11.500,"track":0.0000,"speed":0.000,"climb":0.000,"mode":3}
$GPGSV,2,1,08,15,67,141,31,02,21,089,32,30,21,234,50,05,18,217,39*72
$GPGSV,2,2,08,12,16,201,41,18,25,255,41,135,33,251,45,06,54,308,25*41
{"class":"SKY","tag":"0x0130","vdop":1.99,"tdop":1.33,"hdop":1.67,"gdop":2.92,"pdop":2.60,"satellites":[{"PRN":15,"el":67,"az":141,"ss":31,"used":true},{"PRN":2,"el":21,"az":89,"ss":32,"used":true},{"PRN":30,"el":21,"az":234,"ss":50,"used":true},{"PRN":5,"el":18,"az":217,"ss":39,"used":true},{"PRN":12,"el":16,"az":201,"ss":41,"used":true},{"PRN":18,"el":25,"az":255,"ss":41,"used":true},{"PRN":135,"el":33,"az":251,"ss":45,"used":true},{"PRN":6,"el":54,"az":308,"ss":25,"used":false}]}
$GPGGA,231128,2037.7569,N,08704.0845,W,2,07,1.67,75.73,M,-13.865,M,,*44
$GPRMC,231128,A,2037.7569,N,08704.0845,W,0.0000,0.000,231207,,*38
$GPGSA,A,3,00,00,00,00,00,00,00,00,00,00,00,00,00,00,00,00,00,00,00,00,00,00,00,00,00,00,00,00,00,00,00,00,,,,,,,,,,,,,,,,,,,2.6,1.7,2.0*32
{"class":"TPV","tag":"0x0106","time":1198451488.999,"ept":0.005,"lat":20.629281494,"lon":-87.068075323,"alt":75.734,"epv":11.443,"track":0.0000,"speed":0.000,"climb":0.000,"mode":3}
$GPGSV,2,1,08,15,67,141,30,02,21,089,31,30,21,234,50,05,18,217,39*70
$GPGSV,2,2,08,12,16,201,41,18,25,255,40,135,33,251,44,06,54,308,25*41
{"class":"SKY","tag":"0x0130","vdop":1.99,"tdop":1.33,"hdop":1.67,"gdop":2.92,"pdop":2.60,"satellites":[{"PRN":15,"el":67,"az":141,"ss":30,"used":true},{"PRN":2,"el":21,"az":89,"ss":31,"used":true},{"PRN":30,"el":21,"az":234,"ss":50,"used":true},{"PRN":5,"el":18,"az":217,"ss":39,"used":true},{"PRN":12,"el":16,"az":201,"ss":41,"used":true},{"PRN":18,"el":25,"az":255,"ss":40,"used":true},{"PRN":135,"el":33,"az":251,"ss":44,"used":true},{"PRN":6,"el":54,"az":308,"ss":25,"used":false}]}
$GPGGA,231129,2037.7569,N,08704.0845,W,2,07,1.67,75.72,M,-13.865,M,,*44
$GPRMC,231129,A,2037.7569,N,08704.0845,W,0.0000,0.000,231207,,*39
$GPGSA,A,3,00,00,00,00,00,00,00,00,00,00,00,00,00,00,00,00,00,00,00,00,00,00,00,00,00,00,00,00,00,00,00,,,,,,,,,,,,,,,,,,,,2.6,1.7,2.0*32
{"class":"TPV","tag":"0x0106","time":1198451489.999,"ept":0.005,"lat":20.629281440,"lon":-87.068075223,"alt":75.722,"epv":11.443,"track":0.0000,"speed":0.000,"climb":0.000,"mode":3}
$GPGSV,2,1,08,15,67,141,29,02,21,089,30,30,21,234,50,05,18,217,39*79
$GPGSV,2,2,08,12,16,201,42,18,25,255,40,135,33,251,44,06,54,308,25*42
{"class":"SKY","tag":"0x0130","vdop":1.99,"tdop":1.33,"hdop":1.67,"gdop":2.92,"pdop":2.60,"satellites":[{"PRN":15,"el":67,"az":141,"ss":29,"used":true},{"PRN":2,"el":21,"az":89,"ss":30,"used":true},{"PRN":30,"el":21,"az":234,"ss":50,"used":true},{"PRN":5,"el":18,"az":217,"ss":39,"used":true},{"PRN":12,"el":16,"az":201,"ss":42,"used":true},{"PRN":18,"el":25,"az":255,"ss":40,"used":true},{"PRN":135,"el":33,"az":251,"ss":44,"used":true},{"PRN":6,"el":54,"az":308,"ss":25,"used":false}]}
$GPGGA,231130,2037.7569,N,08704.0845,W,2,07,1.67,75.72,M,-13.865,M,,*4C
$GPRMC,231130,A,2037.7569,N,08704.0845,W,0.0000,0.000,231207,,*31
$GPGSA,A,3,00,00,00,00,00,00,00,00,00,00,00,00,00,00,00,00,00,00,00,00,00,00,00,00,00,00,00,00,00,00,00,00,,,,,,,,,,,,,,,,,,,2.6,1.7,2.0*32
{"class":"TPV","tag":"0x0106","time":1198451490.999,"ept":0.005,"lat":20.629281354,"lon":-87.068075127,"alt":75.719,"epv":11.443,"track":0.0000,"speed":0.000,"climb":0.000,"mode":3}
$GPGSV,2,1,08,15,67,141,29,02,21,089,29,30,21,234,50,05,18,217,39*71
$GPGSV,2,2,08,12,16,201,42,18,25,255,39,135,33,251,44,06,54,308,25*4C
{"class":"SKY","tag":"0x0130","vdop":2.00,"tdop":1.33,"hdop":1.67,"gdop":2.92,"pdop":2.60,"satellites":[{"PRN":15,"el":67,"az":141,"ss":29,"used":true},{"PRN":2,"el":21,"az":89,"ss":29,"used":true},{"PRN":30,"el":21,"az":234,"ss":50,"used":true},{"PRN":5,"el":18,"az":217,"ss":39,"used":true},{"PRN":12,"el":16,"az":201,"ss":42,"used":true},{"PRN":18,"el":25,"az":255,"ss":39,"used":true},{"PRN":135,"el":33,"az":251,"ss":44,"used":true},{"PRN":6,"el":54,"az":308,"ss":25,"used":false}]}
$GPGGA,231131,2037.7569,N,08704.0845,W,2,07,1.67,75.72,M,-13.865,M,,*4D
$GPRMC,231131,A,2037.7569,N,08704.0845,W,0.0000,0.000,231207,,*30
$GPGSA,A,3,00,00,00,00,00,00,00,00,00,00,00,00,00,00,00,00,00,00,00,00,00,00,00,00,00,00,00,00,00,00,,,,,,,,,,,,,,,,,,,,,2.6,1.7,2.0*32
{"class":"TPV","tag":"0x0106","time":1198451491.999,"ept":0.005,"lat":20.629281269,"lon":-87.068075127,"alt":75.715,"epv":11.500,"track":0.0000,"speed":0.000,"climb":0.000,"mode":3}
$GPGSV,2,1,08,15,67,141,28,02,21,089,29,30,21,234,50,05,18,217,39*70
$GPGSV,2,2,08,12,16,201,42,18,25,255,39,135,33,251,45,06,54,308,25*4D
{"class":"SKY","tag":"0x0130","vdop":1.99,"tdop":1.33,"hdop":1.67,"gdop":2.92,"pdop":2.60,"satellites":[{"PRN":15,"el":67,"az":141,"ss":28,"used":true},{"PRN":2,"el":21,"az":89,"ss":29,"used":true},{"PRN":30,"el":21,"az":234,"ss":50,"used":true},{"PRN":5,"el":18,"az":217,"ss":39,"used":true},{"PRN":12,"el":16,"az":201,"ss":42,"used":true},{"PRN":18,"el":25,"az":255,"ss":39,"used":true},{"PRN":135,"el":33,"az":251,"ss":45,"used":true},{"PRN":6,"el":54,"az":308,"ss":25,"used":false}]}
$GPGGA,231132,2037.7569,N,08704.0845,W,2,07,1.67,75.70,M,-13.865,M,,*4C
$GPRMC,231132,A,2037.7569,N,08704.0845,W,0.0000,0.000,231207,,*33
$GPGSA,A,3,00,00,00,00,00,00,00,00,00,00,00,00,00,00,00,00,00,00,00,00,00,00,00,00,00,00,00,00,00,00,00,00,,,,,,,,,,,,,,,,,,,2.6,1.7,2.0*32
{"class":"TPV","tag":"0x0106","time":1198451492.999,"ept":0.005,"lat":20.629281215,"lon":-87.068075026,"alt":75.703,"epv":11.443,"track":0.0000,"speed":0.000,"climb":0.000,"mode":3}
$GPGSV,2,1,08,15,67,141,27,02,21,089,28,30,21,234,50,05,18,217,39*7E
$GPGSV,2,2,08,12,16,201,42,18,25,255,39,135,33,251,44,06,54,308,26*4F
{"class":"SKY","tag":"0x0130","vdop":2.00,"tdop":1.33,"hdop":1.67,"gdop":2.92,"pdop":2.60,"satellites":[{"PRN":15,"el":67,"az":141,"ss":27,"used":true},{"PRN":2,"el":21,"az":89,"ss":28,"used":true},{"PRN":30,"el":21,"az":234,"ss":50,"used":true},{"PRN":5,"el":18,"az":217,"ss":39,"used":true},{"PRN":12,"el":16,"az":201,"ss":42,"used":true},{"PRN":18,"el":25,"az":255,"ss":39,"used":true},{"PRN":135,"el":33,"az":251,"ss":44,"used":true},{"PRN":6,"el":54,"az":308,"ss":26,"used":false}]}
