$GPZDA,085000.80,19,07,2017,00,00*68
$GPGGA,085000.80,3454.3736,S,13836.4872,E,2,00,,28.89,M,-1.662,M,,*4D
$GPRMC,085000.80,A,3454.3736,S,13836.4872,E,0.0583,31.472,190717,7.9,E*4B
$GPGSA,A,3,,,,,,,,,,,,,,,*1C
{"class":"TPV","status":2,"mode":3,"time":"2017-07-19T08:50:00.800Z","ept":0.005,"lat":-34.906226300,"lon":138.608119700,"altHAE":25.424,"altMSL":28.895,"epv":1.602,"track":31.4718,"magtrack":39.3946,"magvar":7.9,"speed":0.030,"eps":-0.01,"geoidSep":-1.662,"eph":1.132}
$GPZDA,085001.00,19,07,2017,00,00*61
$GPGGA,085001.00,3454.3736,S,13836.4872,E,2,00,,28.85,M,-1.662,M,,*48
$GPRMC,085001.00,A,3454.3736,S,13836.4872,E,0.0311,31.472,190717,7.9,E*4F
$GPGSA,A,3,,,,,,,,,,,,,,,*1C
{"class":"TPV","status":2,"mode":3,"time":"2017-07-19T08:50:01.000Z","leapseconds":18,"ept":0.005,"lat":-34.906226600,"lon":138.608119900,"altHAE":25.378,"altMSL":28.849,"epv":1.603,"track":31.4718,"magtrack":39.3946,"magvar":7.9,"speed":0.016,"climb":-0.230,"eps":0.02,"epc":16.02,"geoidSep":-1.662,"eph":1.133}
{"class":"TPV","status":2,"mode":3,"time":"2017-07-19T08:50:01.000Z","leapseconds":18,"ept":0.005,"lat":-34.906226600,"lon":138.608119900,"altHAE":25.378,"altMSL":28.849,"epv":1.603,"track":31.4718,"magtrack":39.3946,"magvar":7.9,"speed":0.016,"climb":-0.230,"eps":0.02,"epc":16.02,"geoidSep":-1.662,"eph":1.133}
$GPZDA,085001.20,19,07,2017,00,00*63
$GPGGA,085001.20,3454.3736,S,13836.4872,E,2,00,,28.78,M,-1.662,M,,*48
$GPRMC,085001.20,A,3454.3736,S,13836.4872,E,0.0311,31.472,190717,7.9,E*4D
$GPGSA,A,3,,,,,,,,,,,,,,,*1C
{"class":"TPV","status":2,"mode":3,"time":"2017-07-19T08:50:01.200Z","leapseconds":18,"ept":0.005,"lat":-34.906226900,"lon":138.608119900,"altHAE":25.306,"altMSL":28.777,"epv":1.610,"track":31.4718,"magtrack":39.3946,"magvar":7.9,"speed":0.016,"climb":-0.230,"eps":-0.01,"epc":16.02,"geoidSep":-1.662,"eph":1.138}
{"class":"TPV","status":2,"mode":3,"time":"2017-07-19T08:50:01.200Z","leapseconds":18,"ept":0.005,"lat":-34.906226900,"lon":138.608119900,"altHAE":25.306,"altMSL":28.777,"epv":1.610,"track":31.4718,"magtrack":39.3946,"magvar":7.9,"speed":0.016,"climb":-0.230,"eps":-0.01,"epc":16.02,"geoidSep":-1.662,"eph":1.138}
$GPZDA,085001.40,19,07,2017,00,00*65
$GPGGA,085001.40,3454.3736,S,13836.4872,E,2,00,,28.73,M,-1.662,M,,*45
$GPRMC,085001.40,A,3454.3736,S,13836.4872,E,0.0583,31.472,190717,7.9,E*46
$GPGSA,A,3,,,,,,,,,,,,,,,*1C
{"class":"TPV","status":2,"mode":3,"time":"2017-07-19T08:50:01.400Z","leapseconds":18,"ept":0.005,"lat":-34.906227100,"lon":138.608120200,"altHAE":25.258,"altMSL":28.729,"epv":1.616,"track":31.4718,"magtrack":39.3946,"magvar":7.9,"speed":0.030,"climb":-0.230,"eps":0.02,"epc":16.02,"geoidSep":-1.662,"eph":1.142}
$GPGSV,7,1,25,01,02,083,00,05,19,284,38,07,33,094,39,08,12,141,26*73
$GPGSV,7,2,25,09,12,029,34,11,17,101,39,13,39,226,36,15,05,220,22*7B
$GPGSV,7,3,25,17,32,008,36,19,15,357,32,20,08,241,32,28,77,211,39*72
$GPGSV,7,4,25,30,63,135,41,42,49,011,32,50,49,011,32,193,15,357,33*44
$GPGSV,7,5,25,70,34,323,00,71,43,255,29,72,12,209,00,73,47,217,24*7E
$GPGSV,7,6,25,74,07,262,00,80,41,141,22,81,10,153,11,82,34,107,24*76
$GPGSV,7,7,25,83,26,045,27*45
{"class":"SKY","xdop":0.50,"ydop":0.51,"vdop":1.28,"tdop":0.73,"hdop":0.71,"gdop":1.64,"pdop":1.46,"satellites":[{"PRN":1,"el":2.0,"az":83.0,"ss":0.0,"used":false,"gnssid":0,"svid":1,"health":1},{"PRN":4,"az":0.0,"ss":0.0,"used":false,"gnssid":0,"svid":4,"health":2},{"PRN":5,"el":19.0,"az":284.0,"ss":38.0,"used":true,"gnssid":0,"svid":5,"health":1},{"PRN":7,"el":33.0,"az":94.0,"ss":39.0,"used":true,"gnssid":0,"svid":7,"health":1},{"PRN":8,"el":12.0,"az":141.0,"ss":26.0,"used":true,"gnssid":0,"svid":8,"health":1},{"PRN":9,"el":12.0,"az":29.0,"ss":34.0,"used":true,"gnssid":0,"svid":9,"health":1},{"PRN":11,"el":17.0,"az":101.0,"ss":39.0,"used":true,"gnssid":0,"svid":11,"health":1},{"PRN":13,"el":39.0,"az":226.0,"ss":36.0,"used":true,"gnssid":0,"svid":13,"health":1},{"PRN":15,"el":5.0,"az":220.0,"ss":22.0,"used":false,"gnssid":0,"svid":15,"health":1},{"PRN":17,"el":32.0,"az":8.0,"ss":36.0,"used":true,"gnssid":0,"svid":17,"health":1},{"PRN":19,"el":15.0,"az":357.0,"ss":32.0,"used":true,"gnssid":0,"svid":19,"health":1},{"PRN":20,"el":8.0,"az":241.0,"ss":32.0,"used":false,"gnssid":0,"svid":20,"health":1},{"PRN":28,"el":77.0,"az":211.0,"ss":39.0,"used":true,"gnssid":0,"svid":28,"health":1},{"PRN":30,"el":63.0,"az":135.0,"ss":41.0,"used":true,"gnssid":0,"svid":30,"health":1},{"PRN":42,"el":49.0,"az":11.0,"ss":32.0,"used":false,"gnssid":1,"svid":129,"health":1},{"PRN":50,"el":49.0,"az":11.0,"ss":32.0,"used":false,"gnssid":1,"svid":137,"health":1},{"PRN":193,"el":15.0,"az":357.0,"ss":33.0,"used":true,"gnssid":5,"svid":1,"health":1},{"PRN":195,"az":0.0,"ss":0.0,"used":false,"gnssid":5,"svid":3,"health":2},{"PRN":196,"az":0.0,"ss":0.0,"used":false,"gnssid":5,"svid":4,"health":2},{"PRN":70,"el":34.0,"az":323.0,"ss":0.0,"used":false,"gnssid":6,"svid":6,"health":1},{"PRN":71,"el":43.0,"az":255.0,"ss":29.0,"used":true,"gnssid":6,"svid":7,"health":1},{"PRN":72,"el":12.0,"az":209.0,"ss":0.0,"used":false,"gnssid":6,"svid":8,"health":1},{"PRN":73,"el":47.0,"az":217.0,"ss":24.0,"used":false,"gnssid":6,"svid":9,"health":1},{"PRN":74,"el":7.0,"az":262.0,"ss":0.0,"used":false,"gnssid":6,"svid":10,"health":1},{"PRN":80,"el":41.0,"az":141.0,"ss":22.0,"used":true,"gnssid":6,"svid":16,"health":1},{"PRN":81,"el":10.0,"az":153.0,"ss":11.0,"used":false,"gnssid":6,"svid":17,"health":1},{"PRN":82,"el":34.0,"az":107.0,"ss":24.0,"used":false,"gnssid":6,"svid":18,"health":1},{"PRN":83,"el":26.0,"az":45.0,"ss":27.0,"used":true,"gnssid":6,"svid":19,"health":1}]}
{"class":"TPV","status":2,"mode":3,"time":"2017-07-19T08:50:01.400Z","leapseconds":18,"ept":0.005,"lat":-34.906227100,"lon":138.608120200,"altHAE":25.258,"altMSL":28.729,"epx":1.866,"epy":1.908,"epv":1.616,"track":31.4718,"magtrack":39.3946,"magvar":7.9,"speed":0.030,"climb":-0.230,"eps":0.02,"epc":16.02,"geoidSep":-1.662,"eph":1.142,"sep":6.951}
$GPZDA,085001.60,19,07,2017,00,00*67
$GPGGA,085001.60,3454.3736,S,13836.4872,E,2,14,0.71,28.66,M,-1.662,M,,*5E
$GPRMC,085001.60,A,3454.3736,S,13836.4872,E,0.0408,31.472,190717,7.9,E*46
$GPGSA,A,3,5,7,8,9,11,13,17,19,,,,,1.5,0.7,1.3*3C
$GPGBS,085001.60,1.866,1.908,1.619,,,,*4D
{"class":"TPV","status":2,"mode":3,"time":"2017-07-19T08:50:01.600Z","leapseconds":18,"ept":0.005,"lat":-34.906227500,"lon":138.608120300,"altHAE":25.194,"altMSL":28.665,"epx":1.866,"epy":1.908,"epv":1.619,"track":31.4718,"magtrack":39.3946,"magvar":7.9,"speed":0.021,"climb":-0.230,"eps":-0.02,"epc":16.02,"geoidSep":-1.662,"eph":1.144,"sep":6.951}
{"class":"TPV","status":2,"mode":3,"time":"2017-07-19T08:50:01.600Z","leapseconds":18,"ept":0.005,"lat":-34.906227500,"lon":138.608120300,"altHAE":25.194,"altMSL":28.665,"epx":1.866,"epy":1.908,"epv":1.619,"track":31.4718,"magtrack":39.3946,"magvar":7.9,"speed":0.021,"climb":-0.230,"eps":-0.02,"epc":16.02,"geoidSep":-1.662,"eph":1.144,"sep":6.951}
$GPZDA,085001.80,19,07,2017,00,00*69
$GPGGA,085001.80,3454.3737,S,13836.4872,E,2,14,0.71,28.61,M,-1.662,M,,*56
$GPRMC,085001.80,A,3454.3737,S,13836.4872,E,0.0253,31.472,190717,7.9,E*41
$GPGSA,A,3,5,7,8,9,11,13,17,19,,,,,1.5,0.7,1.3*3C
$GPGBS,085001.80,1.866,1.908,1.619,,,,*43
{"class":"TPV","status":2,"mode":3,"time":"2017-07-19T08:50:01.800Z","leapseconds":18,"ept":0.005,"lat":-34.906227800,"lon":138.608120300,"altHAE":25.136,"altMSL":28.607,"epx":1.866,"epy":1.908,"epv":1.619,"track":31.4718,"magtrack":39.3946,"magvar":7.9,"speed":0.013,"climb":-0.230,"eps":0.01,"epc":16.02,"geoidSep":-1.662,"eph":1.144,"sep":6.951}
{"class":"TPV","status":2,"mode":3,"time":"2017-07-19T08:50:01.800Z","leapseconds":18,"ept":0.005,"lat":-34.906227800,"lon":138.608120300,"altHAE":25.136,"altMSL":28.607,"epx":1.866,"epy":1.908,"epv":1.619,"track":31.4718,"magtrack":39.3946,"magvar":7.9,"speed":0.013,"climb":-0.230,"eps":0.01,"epc":16.02,"geoidSep":-1.662,"eph":1.144,"sep":6.951}
$GPZDA,085002.00,19,07,2017,00,00*62
$GPGGA,085002.00,3454.3737,S,13836.4872,E,2,14,0.71,28.54,M,-1.662,M,,*5B
$GPRMC,085002.00,A,3454.3737,S,13836.4872,E,0.0739,31.472,190717,7.9,E*43
$GPGSA,A,3,5,7,8,9,11,13,17,19,,,,,1.5,0.7,1.3*3C
$GPGBS,085002.00,1.866,1.908,1.620,,,,*42
{"class":"TPV","status":2,"mode":3,"time":"2017-07-19T08:50:02.000Z","leapseconds":18,"ept":0.005,"lat":-34.906228100,"lon":138.608120400,"altHAE":25.073,"altMSL":28.544,"epx":1.866,"epy":1.908,"epv":1.620,"track":31.4718,"magtrack":39.3946,"magvar":7.9,"speed":0.038,"climb":-0.230,"eps":0.03,"epc":16.02,"geoidSep":-1.662,"eph":1.145,"sep":6.951}
{"class":"TPV","status":2,"mode":3,"time":"2017-07-19T08:50:02.000Z","leapseconds":18,"ept":0.005,"lat":-34.906228100,"lon":138.608120400,"altHAE":25.073,"altMSL":28.544,"epx":1.866,"epy":1.908,"epv":1.620,"track":31.4718,"magtrack":39.3946,"magvar":7.9,"speed":0.038,"climb":-0.230,"eps":0.03,"epc":16.02,"geoidSep":-1.662,"eph":1.145,"sep":6.951}
$GPZDA,085002.20,19,07,2017,00,00*60
$GPGGA,085002.20,3454.3737,S,13836.4872,E,2,14,0.71,28.48,M,-1.662,M,,*54
$GPRMC,085002.20,A,3454.3737,S,13836.4872,E,0.0058,31.472,190717,7.9,E*41
$GPGSA,A,3,5,7,8,9,11,13,17,19,,,,,1.5,0.7,1.3*3C
$GPGBS,085002.20,1.866,1.908,1.617,,,,*44
{"class":"TPV","status":2,"mode":3,"time":"2017-07-19T08:50:02.200Z","leapseconds":18,"ept":0.005,"lat":-34.906228400,"lon":138.608120500,"altHAE":25.008,"altMSL":28.480,"epx":1.866,"epy":1.908,"epv":1.617,"track":31.4718,"magtrack":39.3946,"magvar":7.9,"speed":0.003,"climb":-0.230,"eps":-0.00,"epc":16.02,"geoidSep":-1.662,"eph":1.143,"sep":6.951}
{"class":"TPV","status":2,"mode":3,"time":"2017-07-19T08:50:02.200Z","leapseconds":18,"ept":0.005,"lat":-34.906228400,"lon":138.608120500,"altHAE":25.008,"altMSL":28.480,"epx":1.866,"epy":1.908,"epv":1.617,"track":31.4718,"magtrack":39.3946,"magvar":7.9,"speed":0.003,"climb":-0.230,"eps":-0.00,"epc":16.02,"geoidSep":-1.662,"eph":1.143,"sep":6.951}
$GPZDA,085002.40,19,07,2017,00,00*66
$GPGGA,085002.40,3454.3737,S,13836.4872,E,2,14,0.71,28.42,M,-1.662,M,,*58
$GPRMC,085002.40,A,3454.3737,S,13836.4872,E,0.0428,31.472,190717,7.9,E*44
$GPGSA,A,3,5,7,8,9,11,13,17,19,,,,,1.5,0.7,1.3*3C
$GPGBS,085002.40,1.866,1.908,1.603,,,,*47
{"class":"TPV","status":2,"mode":3,"time":"2017-07-19T08:50:02.400Z","leapseconds":18,"ept":0.005,"lat":-34.906228700,"lon":138.608120500,"altHAE":24.952,"altMSL":28.424,"epx":1.866,"epy":1.908,"epv":1.603,"track":31.4718,"magtrack":39.3946,"magvar":7.9,"speed":0.022,"climb":-0.230,"eps":0.02,"epc":16.02,"geoidSep":-1.662,"eph":1.133,"sep":6.951}
$GPGSV,7,1,25,01,02,083,00,05,19,284,38,07,33,094,39,08,12,141,26*73
$GPGSV,7,2,25,09,12,029,34,11,17,101,39,13,39,226,36,15,05,220,22*7B
$GPGSV,7,3,25,17,32,008,36,19,15,357,32,20,08,241,32,28,77,211,39*72
$GPGSV,7,4,25,30,63,135,41,42,49,011,32,50,49,011,33,193,15,357,33*45
$GPGSV,7,5,25,70,34,323,00,71,43,255,28,72,12,209,00,73,47,217,23*78
$GPGSV,7,6,25,74,07,262,21,80,41,141,22,81,10,153,12,82,34,107,24*76
$GPGSV,7,7,25,83,26,045,27*45
{"class":"SKY","xdop":0.50,"ydop":0.51,"vdop":1.28,"tdop":0.73,"hdop":0.71,"gdop":1.64,"pdop":1.46,"satellites":[{"PRN":1,"el":2.0,"az":83.0,"ss":0.0,"used":false,"gnssid":0,"svid":1,"health":1},{"PRN":4,"az":0.0,"ss":0.0,"used":false,"gnssid":0,"svid":4,"health":2},{"PRN":5,"el":19.0,"az":284.0,"ss":38.0,"used":true,"gnssid":0,"svid":5,"health":1},{"PRN":7,"el":33.0,"az":94.0,"ss":39.0,"used":true,"gnssid":0,"svid":7,"health":1},{"PRN":8,"el":12.0,"az":141.0,"ss":26.0,"used":true,"gnssid":0,"svid":8,"health":1},{"PRN":9,"el":12.0,"az":29.0,"ss":34.0,"used":true,"gnssid":0,"svid":9,"health":1},{"PRN":11,"el":17.0,"az":101.0,"ss":39.0,"used":true,"gnssid":0,"svid":11,"health":1},{"PRN":13,"el":39.0,"az":226.0,"ss":36.0,"used":true,"gnssid":0,"svid":13,"health":1},{"PRN":15,"el":5.0,"az":220.0,"ss":22.0,"used":false,"gnssid":0,"svid":15,"health":1},{"PRN":17,"el":32.0,"az":8.0,"ss":36.0,"used":true,"gnssid":0,"svid":17,"health":1},{"PRN":19,"el":15.0,"az":357.0,"ss":32.0,"used":true,"gnssid":0,"svid":19,"health":1},{"PRN":20,"el":8.0,"az":241.0,"ss":32.0,"used":false,"gnssid":0,"svid":20,"health":1},{"PRN":28,"el":77.0,"az":211.0,"ss":39.0,"used":true,"gnssid":0,"svid":28,"health":1},{"PRN":30,"el":63.0,"az":135.0,"ss":41.0,"used":true,"gnssid":0,"svid":30,"health":1},{"PRN":42,"el":49.0,"az":11.0,"ss":32.0,"used":false,"gnssid":1,"svid":129,"health":1},{"PRN":50,"el":49.0,"az":11.0,"ss":33.0,"used":false,"gnssid":1,"svid":137,"health":1},{"PRN":193,"el":15.0,"az":357.0,"ss":33.0,"used":true,"gnssid":5,"svid":1,"health":1},{"PRN":195,"az":0.0,"ss":0.0,"used":false,"gnssid":5,"svid":3,"health":2},{"PRN":196,"az":0.0,"ss":0.0,"used":false,"gnssid":5,"svid":4,"health":2},{"PRN":70,"el":34.0,"az":323.0,"ss":0.0,"used":false,"gnssid":6,"svid":6,"health":1},{"PRN":71,"el":43.0,"az":255.0,"ss":28.0,"used":true,"gnssid":6,"svid":7,"health":1},{"PRN":72,"el":12.0,"az":209.0,"ss":0.0,"used":false,"gnssid":6,"svid":8,"health":1},{"PRN":73,"el":47.0,"az":217.0,"ss":23.0,"used":false,"gnssid":6,"svid":9,"health":1},{"PRN":74,"el":7.0,"az":262.0,"ss":21.0,"used":false,"gnssid":6,"svid":10,"health":1},{"PRN":80,"el":41.0,"az":141.0,"ss":22.0,"used":true,"gnssid":6,"svid":16,"health":1},{"PRN":81,"el":10.0,"az":153.0,"ss":12.0,"used":false,"gnssid":6,"svid":17,"health":1},{"PRN":82,"el":34.0,"az":107.0,"ss":24.0,"used":false,"gnssid":6,"svid":18,"health":1},{"PRN":83,"el":26.0,"az":45.0,"ss":27.0,"used":true,"gnssid":6,"svid":19,"health":1}]}
$GPZDA,085002.60,19,07,2017,00,00*64
$GPGGA,085002.60,3454.3737,S,13836.4872,E,2,14,0.71,28.36,M,-1.662,M,,*59
$GPRMC,085002.60,A,3454.3737,S,13836.4872,E,0.0233,31.472,190717,7.9,E*4A
$GPGSA,A,3,5,7,8,9,11,13,17,19,,,,,1.5,0.7,1.3*3C
$GPGBS,085002.60,1.866,1.908,1.608,,,,*4E
{"class":"TPV","status":2,"mode":3,"time":"2017-07-19T08:50:02.600Z","leapseconds":18,"ept":0.005,"lat":-34.906229100,"lon":138.608120700,"altHAE":24.892,"altMSL":28.363,"epx":1.866,"epy":1.908,"epv":1.608,"track":31.4718,"magtrack":39.3946,"magvar":7.9,"speed":0.012,"climb":-0.230,"eps":-0.01,"epc":16.02,"geoidSep":-1.662,"eph":1.136,"sep":6.951}
{"class":"TPV","status":2,"mode":3,"time":"2017-07-19T08:50:02.600Z","leapseconds":18,"ept":0.005,"lat":-34.906229100,"lon":138.608120700,"altHAE":24.892,"altMSL":28.363,"epx":1.866,"epy":1.908,"epv":1.608,"track":31.4718,"magtrack":39.3946,"magvar":7.9,"speed":0.012,"climb":-0.230,"eps":-0.01,"epc":16.02,"geoidSep":-1.662,"eph":1.136,"sep":6.951}
$GPZDA,085002.80,19,07,2017,00,00*6A
$GPGGA,085002.80,3454.3738,S,13836.4872,E,2,14,0.71,28.30,M,-1.662,M,,*5E
$GPRMC,085002.80,A,3454.3738,S,13836.4872,E,0.0564,31.472,190717,7.9,E*4E
$GPGSA,A,3,5,7,8,9,11,13,17,19,,,,,1.5,0.7,1.3*3C
$GPGBS,085002.80,1.866,1.908,1.625,,,,*4F
{"class":"TPV","status":2,"mode":3,"time":"2017-07-19T08:50:02.800Z","leapseconds":18,"ept":0.005,"lat":-34.906229400,"lon":138.608120700,"altHAE":24.831,"altMSL":28.302,"epx":1.866,"epy":1.908,"epv":1.625,"track":31.4718,"magtrack":39.3946,"magvar":7.9,"speed":0.029,"climb":-0.230,"eps":0.03,"epc":16.02,"geoidSep":-1.662,"eph":1.148,"sep":6.951}
{"class":"TPV","status":2,"mode":3,"time":"2017-07-19T08:50:02.800Z","leapseconds":18,"ept":0.005,"lat":-34.906229400,"lon":138.608120700,"altHAE":24.831,"altMSL":28.302,"epx":1.866,"epy":1.908,"epv":1.625,"track":31.4718,"magtrack":39.3946,"magvar":7.9,"speed":0.029,"climb":-0.230,"eps":0.03,"epc":16.02,"geoidSep":-1.662,"eph":1.148,"sep":6.951}
$GPZDA,085003.00,19,07,2017,00,00*63
$GPGGA,085003.00,3454.3738,S,13836.4873,E,2,14,0.71,28.23,M,-1.662,M,,*54
$GPRMC,085003.00,A,3454.3738,S,13836.4873,E,0.0505,31.472,190717,7.9,E*41
$GPGSA,A,3,5,7,8,9,11,13,17,19,,,,,1.5,0.7,1.3*3C
$GPGBS,085003.00,1.866,1.908,1.622,,,,*41
{"class":"TPV","status":2,"mode":3,"time":"2017-07-19T08:50:03.000Z","leapseconds":18,"ept":0.005,"lat":-34.906229800,"lon":138.608120900,"altHAE":24.760,"altMSL":28.232,"epx":1.866,"epy":1.908,"epv":1.622,"track":31.4718,"magtrack":39.3946,"magvar":7.9,"speed":0.026,"climb":-0.230,"eps":-0.02,"epc":16.02,"geoidSep":-1.662,"eph":1.146,"sep":6.951}
{"class":"TPV","status":2,"mode":3,"time":"2017-07-19T08:50:03.000Z","leapseconds":18,"ept":0.005,"lat":-34.906229800,"lon":138.608120900,"altHAE":24.760,"altMSL":28.232,"epx":1.866,"epy":1.908,"epv":1.622,"track":31.4718,"magtrack":39.3946,"magvar":7.9,"speed":0.026,"climb":-0.230,"eps":-0.02,"epc":16.02,"geoidSep":-1.662,"eph":1.146,"sep":6.951}
$GPZDA,085003.20,19,07,2017,00,00*61
$GPGGA,085003.20,3454.3738,S,13836.4873,E,2,14,0.71,28.17,M,-1.662,M,,*51
$GPRMC,085003.20,A,3454.3738,S,13836.4873,E,0.0350,31.472,190717,7.9,E*45
$GPGSA,A,3,5,7,8,9,11,13,17,19,,,,,1.5,0.7,1.3*3C
$GPGBS,085003.20,1.866,1.908,1.616,,,,*44
{"class":"TPV","status":2,"mode":3,"time":"2017-07-19T08:50:03.200Z","leapseconds":18,"ept":0.005,"lat":-34.906230200,"lon":138.608120900,"altHAE":24.695,"altMSL":28.166,"epx":1.866,"epy":1.908,"epv":1.616,"track":31.4718,"magtrack":39.3946,"magvar":7.9,"speed":0.018,"climb":-0.230,"eps":0.01,"epc":16.02,"geoidSep":-1.662,"eph":1.142,"sep":6.951}
{"class":"TPV","status":2,"mode":3,"time":"2017-07-19T08:50:03.200Z","leapseconds":18,"ept":0.005,"lat":-34.906230200,"lon":138.608120900,"altHAE":24.695,"altMSL":28.166,"epx":1.866,"epy":1.908,"epv":1.616,"track":31.4718,"magtrack":39.3946,"magvar":7.9,"speed":0.018,"climb":-0.230,"eps":0.01,"epc":16.02,"geoidSep":-1.662,"eph":1.142,"sep":6.951}
$GPZDA,085003.40,19,07,2017,00,00*67
$GPGGA,085003.40,3454.3738,S,13836.4873,E,2,14,0.71,28.09,M,-1.662,M,,*58
$GPRMC,085003.40,A,3454.3738,S,13836.4873,E,0.0214,31.472,190717,7.9,E*42
$GPGSA,A,3,5,7,8,9,11,13,17,19,,,,,1.5,0.7,1.3*3C
$GPGBS,085003.40,1.866,1.908,1.609,,,,*4C
{"class":"TPV","status":2,"mode":3,"time":"2017-07-19T08:50:03.400Z","leapseconds":18,"ept":0.005,"lat":-34.906230500,"lon":138.608121000,"altHAE":24.617,"altMSL":28.089,"epx":1.866,"epy":1.908,"epv":1.609,"track":31.4718,"magtrack":39.3946,"magvar":7.9,"speed":0.011,"climb":-0.230,"eps":0.01,"epc":16.02,"geoidSep":-1.662,"eph":1.138,"sep":6.951}
$GPGSV,7,1,25,01,02,083,00,05,19,284,38,07,33,094,39,08,12,141,26*73
$GPGSV,7,2,25,09,12,029,35,11,17,101,39,13,39,226,36,15,05,220,23*7B
$GPGSV,7,3,25,17,32,008,36,19,15,357,32,20,08,241,32,28,77,211,39*72
$GPGSV,7,4,25,30,63,135,43,42,49,011,32,50,49,011,33,193,15,357,33*47
$GPGSV,7,5,25,70,34,323,00,71,43,255,28,72,12,209,00,73,47,217,22*79
$GPGSV,7,6,25,74,07,262,22,80,41,141,21,81,10,153,11,82,34,107,23*72
$GPGSV,7,7,25,83,26,045,27*45
{"class":"SKY","xdop":0.50,"ydop":0.51,"vdop":1.28,"tdop":0.73,"hdop":0.71,"gdop":1.64,"pdop":1.46,"satellites":[{"PRN":1,"el":2.0,"az":83.0,"ss":0.0,"used":false,"gnssid":0,"svid":1,"health":1},{"PRN":4,"az":0.0,"ss":0.0,"used":false,"gnssid":0,"svid":4,"health":2},{"PRN":5,"el":19.0,"az":284.0,"ss":38.0,"used":true,"gnssid":0,"svid":5,"health":1},{"PRN":7,"el":33.0,"az":94.0,"ss":39.0,"used":true,"gnssid":0,"svid":7,"health":1},{"PRN":8,"el":12.0,"az":141.0,"ss":26.0,"used":true,"gnssid":0,"svid":8,"health":1},{"PRN":9,"el":12.0,"az":29.0,"ss":35.0,"used":true,"gnssid":0,"svid":9,"health":1},{"PRN":11,"el":17.0,"az":101.0,"ss":39.0,"used":true,"gnssid":0,"svid":11,"health":1},{"PRN":13,"el":39.0,"az":226.0,"ss":36.0,"used":true,"gnssid":0,"svid":13,"health":1},{"PRN":15,"el":5.0,"az":220.0,"ss":23.0,"used":false,"gnssid":0,"svid":15,"health":1},{"PRN":17,"el":32.0,"az":8.0,"ss":36.0,"used":true,"gnssid":0,"svid":17,"health":1},{"PRN":19,"el":15.0,"az":357.0,"ss":32.0,"used":true,"gnssid":0,"svid":19,"health":1},{"PRN":20,"el":8.0,"az":241.0,"ss":32.0,"used":false,"gnssid":0,"svid":20,"health":1},{"PRN":28,"el":77.0,"az":211.0,"ss":39.0,"used":true,"gnssid":0,"svid":28,"health":1},{"PRN":30,"el":63.0,"az":135.0,"ss":43.0,"used":true,"gnssid":0,"svid":30,"health":1},{"PRN":42,"el":49.0,"az":11.0,"ss":32.0,"used":false,"gnssid":1,"svid":129,"health":1},{"PRN":50,"el":49.0,"az":11.0,"ss":33.0,"used":false,"gnssid":1,"svid":137,"health":1},{"PRN":193,"el":15.0,"az":357.0,"ss":33.0,"used":true,"gnssid":5,"svid":1,"health":1},{"PRN":195,"az":0.0,"ss":0.0,"used":false,"gnssid":5,"svid":3,"health":2},{"PRN":196,"az":0.0,"ss":0.0,"used":false,"gnssid":5,"svid":4,"health":2},{"PRN":70,"el":34.0,"az":323.0,"ss":0.0,"used":false,"gnssid":6,"svid":6,"health":1},{"PRN":71,"el":43.0,"az":255.0,"ss":28.0,"used":true,"gnssid":6,"svid":7,"health":1},{"PRN":72,"el":12.0,"az":209.0,"ss":0.0,"used":false,"gnssid":6,"svid":8,"health":1},{"PRN":73,"el":47.0,"az":217.0,"ss":22.0,"used":false,"gnssid":6,"svid":9,"health":1},{"PRN":74,"el":7.0,"az":262.0,"ss":22.0,"used":false,"gnssid":6,"svid":10,"health":1},{"PRN":80,"el":41.0,"az":141.0,"ss":21.0,"used":true,"gnssid":6,"svid":16,"health":1},{"PRN":81,"el":10.0,"az":153.0,"ss":11.0,"used":false,"gnssid":6,"svid":17,"health":1},{"PRN":82,"el":34.0,"az":107.0,"ss":23.0,"used":false,"gnssid":6,"svid":18,"health":1},{"PRN":83,"el":26.0,"az":45.0,"ss":27.0,"used":true,"gnssid":6,"svid":19,"health":1}]}
{"class":"TPV","status":2,"mode":3,"time":"2017-07-19T08:50:03.400Z","leapseconds":18,"ept":0.005,"lat":-34.906230500,"lon":138.608121000,"altHAE":24.617,"altMSL":28.089,"epx":1.866,"epy":1.908,"epv":1.609,"track":31.4718,"magtrack":39.3946,"magvar":7.9,"speed":0.011,"climb":-0.230,"eps":0.01,"epc":16.02,"geoidSep":-1.662,"eph":1.138,"sep":6.951}
$GPZDA,085003.60,19,07,2017,00,00*65
$GPGGA,085003.60,3454.3739,S,13836.4873,E,2,14,0.71,28.03,M,-1.662,M,,*51
$GPRMC,085003.60,A,3454.3739,S,13836.4873,E,0.0253,31.472,190717,7.9,E*42
$GPGSA,A,3,5,7,8,9,11,13,17,19,,,,,1.5,0.7,1.3*3C
$GPGBS,085003.60,1.866,1.908,1.582,,,,*4E
{"class":"TPV","status":2,"mode":3,"time":"2017-07-19T08:50:03.600Z","leapseconds":18,"ept":0.005,"lat":-34.906230900,"lon":138.608121000,"altHAE":24.561,"altMSL":28.032,"epx":1.866,"epy":1.908,"epv":1.582,"track":31.4718,"magtrack":39.3946,"magvar":7.9,"speed":0.013,"climb":-0.230,"eps":-0.01,"epc":16.02,"geoidSep":-1.662,"eph":1.119,"sep":6.951}
{"class":"TPV","status":2,"mode":3,"time":"2017-07-19T08:50:03.600Z","leapseconds":18,"ept":0.005,"lat":-34.906230900,"lon":138.608121000,"altHAE":24.561,"altMSL":28.032,"epx":1.866,"epy":1.908,"epv":1.582,"track":31.4718,"magtrack":39.3946,"magvar":7.9,"speed":0.013,"climb":-0.230,"eps":-0.01,"epc":16.02,"geoidSep":-1.662,"eph":1.119,"sep":6.951}
$GPZDA,085003.80,19,07,2017,00,00*6B
$GPGGA,085003.80,3454.3739,S,13836.4873,E,2,14,0.71,27.96,M,-1.662,M,,*5C
$GPRMC,085003.80,A,3454.3739,S,13836.4873,E,0.0408,31.472,190717,7.9,E*44
$GPGSA,A,3,5,7,8,9,11,13,17,19,,,,,1.5,0.7,1.3*3C
$GPGBS,085003.80,1.866,1.908,1.552,,,,*4D
{"class":"TPV","status":2,"mode":3,"time":"2017-07-19T08:50:03.800Z","leapseconds":18,"ept":0.005,"lat":-34.906231300,"lon":138.608120900,"altHAE":24.486,"altMSL":27.958,"epx":1.866,"epy":1.908,"epv":1.552,"track":31.4718,"magtrack":39.3946,"magvar":7.9,"speed":0.021,"climb":-0.230,"eps":0.02,"epc":16.02,"geoidSep":-1.662,"eph":1.098,"sep":6.951}
{"class":"TPV","status":2,"mode":3,"time":"2017-07-19T08:50:03.800Z","leapseconds":18,"ept":0.005,"lat":-34.906231300,"lon":138.608120900,"altHAE":24.486,"altMSL":27.958,"epx":1.866,"epy":1.908,"epv":1.552,"track":31.4718,"magtrack":39.3946,"magvar":7.9,"speed":0.021,"climb":-0.230,"eps":0.02,"epc":16.02,"geoidSep":-1.662,"eph":1.098,"sep":6.951}
$GPZDA,085004.00,19,07,2017,00,00*64
$GPGGA,085004.00,3454.3739,S,13836.4872,E,2,14,0.71,27.86,M,-1.662,M,,*53
$GPRMC,085004.00,A,3454.3739,S,13836.4872,E,0.0233,31.472,190717,7.9,E*44
$GPGSA,A,3,5,7,8,9,11,13,17,19,,,,,1.5,0.7,1.3*3C
$GPGBS,085004.00,1.866,1.908,1.538,,,,*4E
{"class":"TPV","status":2,"mode":3,"time":"2017-07-19T08:50:04.000Z","leapseconds":18,"ept":0.005,"lat":-34.906231700,"lon":138.608120600,"altHAE":24.390,"altMSL":27.861,"epx":1.866,"epy":1.908,"epv":1.538,"track":31.4718,"magtrack":39.3946,"magvar":7.9,"speed":0.012,"climb":-0.230,"eps":-0.00,"epc":16.02,"geoidSep":-1.662,"eph":1.090,"sep":6.951}
{"class":"TPV","status":2,"mode":3,"time":"2017-07-19T08:50:04.000Z","leapseconds":18,"ept":0.005,"lat":-34.906231700,"lon":138.608120600,"altHAE":24.390,"altMSL":27.861,"epx":1.866,"epy":1.908,"epv":1.538,"track":31.4718,"magtrack":39.3946,"magvar":7.9,"speed":0.012,"climb":-0.230,"eps":-0.00,"epc":16.02,"geoidSep":-1.662,"eph":1.090,"sep":6.951}
$GPZDA,085004.20,19,07,2017,00,00*66
$GPGGA,085004.20,3454.3739,S,13836.4872,E,2,14,0.71,27.78,M,-1.662,M,,*50
$GPRMC,085004.20,A,3454.3739,S,13836.4872,E,0.0330,31.472,190717,7.9,E*44
$GPGSA,A,3,5,7,8,9,11,13,17,19,,,,,1.5,0.7,1.3*3C
$GPGBS,085004.20,1.866,1.908,1.516,,,,*40
{"class":"TPV","status":2,"mode":3,"time":"2017-07-19T08:50:04.200Z","leapseconds":18,"ept":0.005,"lat":-34.906232200,"lon":138.608120300,"altHAE":24.309,"altMSL":27.781,"epx":1.866,"epy":1.908,"epv":1.516,"track":31.4718,"magtrack":39.3946,"magvar":7.9,"speed":0.017,"climb":-0.230,"eps":-0.01,"epc":16.02,"geoidSep":-1.662,"eph":1.074,"sep":6.951}
{"class":"TPV","status":2,"mode":3,"time":"2017-07-19T08:50:04.200Z","leapseconds":18,"ept":0.005,"lat":-34.906232200,"lon":138.608120300,"altHAE":24.309,"altMSL":27.781,"epx":1.866,"epy":1.908,"epv":1.516,"track":31.4718,"magtrack":39.3946,"magvar":7.9,"speed":0.017,"climb":-0.230,"eps":-0.01,"epc":16.02,"geoidSep":-1.662,"eph":1.074,"sep":6.951}
$GPZDA,085004.40,19,07,2017,00,00*60
$GPGGA,085004.40,3454.3740,S,13836.4872,E,2,14,0.71,27.70,M,-1.662,M,,*50
$GPRMC,085004.40,A,3454.3740,S,13836.4872,E,0.0194,31.472,190717,7.9,E*40
$GPGSA,A,3,5,7,8,9,11,13,17,19,,,,,1.5,0.7,1.3*3C
$GPGBS,085004.40,1.866,1.908,1.487,,,,*4F
{"class":"TPV","status":2,"mode":3,"time":"2017-07-19T08:50:04.400Z","leapseconds":18,"ept":0.005,"lat":-34.906232600,"lon":138.608120000,"altHAE":24.225,"altMSL":27.696,"epx":1.866,"epy":1.908,"epv":1.487,"track":31.4718,"magtrack":39.3946,"magvar":7.9,"speed":0.010,"climb":-0.230,"eps":-0.01,"epc":16.02,"geoidSep":-1.662,"eph":1.054,"sep":6.951}
$GPGSV,7,1,25,01,02,083,00,05,19,284,39,07,33,094,40,08,12,141,27*7D
$GPGSV,7,2,25,09,12,029,35,11,17,101,39,13,39,226,37,15,05,220,25*7C
$GPGSV,7,3,25,17,32,008,37,19,15,357,34,20,08,241,33,28,77,211,40*7A
$GPGSV,7,4,25,30,63,135,43,42,49,011,34,50,49,011,34,193,15,357,34*41
$GPGSV,7,5,25,70,34,323,00,71,43,255,28,72,12,209,00,73,47,217,21*7A
$GPGSV,7,6,25,74,07,262,21,80,41,141,21,81,10,153,11,82,34,107,29*7B
$GPGSV,7,7,25,83,26,045,26*44
{"class":"SKY","xdop":0.50,"ydop":0.51,"vdop":1.28,"tdop":0.73,"hdop":0.71,"gdop":1.64,"pdop":1.46,"satellites":[{"PRN":1,"el":2.0,"az":83.0,"ss":0.0,"used":false,"gnssid":0,"svid":1,"health":1},{"PRN":4,"az":0.0,"ss":0.0,"used":false,"gnssid":0,"svid":4,"health":2},{"PRN":5,"el":19.0,"az":284.0,"ss":39.0,"used":true,"gnssid":0,"svid":5,"health":1},{"PRN":7,"el":33.0,"az":94.0,"ss":40.0,"used":true,"gnssid":0,"svid":7,"health":1},{"PRN":8,"el":12.0,"az":141.0,"ss":27.0,"used":true,"gnssid":0,"svid":8,"health":1},{"PRN":9,"el":12.0,"az":29.0,"ss":35.0,"used":true,"gnssid":0,"svid":9,"health":1},{"PRN":11,"el":17.0,"az":101.0,"ss":39.0,"used":true,"gnssid":0,"svid":11,"health":1},{"PRN":13,"el":39.0,"az":226.0,"ss":37.0,"used":true,"gnssid":0,"svid":13,"health":1},{"PRN":15,"el":5.0,"az":220.0,"ss":25.0,"used":false,"gnssid":0,"svid":15,"health":1},{"PRN":17,"el":32.0,"az":8.0,"ss":37.0,"used":true,"gnssid":0,"svid":17,"health":1},{"PRN":19,"el":15.0,"az":357.0,"ss":34.0,"used":true,"gnssid":0,"svid":19,"health":1},{"PRN":20,"el":8.0,"az":241.0,"ss":33.0,"used":false,"gnssid":0,"svid":20,"health":1},{"PRN":28,"el":77.0,"az":211.0,"ss":40.0,"used":true,"gnssid":0,"svid":28,"health":1},{"PRN":30,"el":63.0,"az":135.0,"ss":43.0,"used":true,"gnssid":0,"svid":30,"health":1},{"PRN":42,"el":49.0,"az":11.0,"ss":34.0,"used":false,"gnssid":1,"svid":129,"health":1},{"PRN":50,"el":49.0,"az":11.0,"ss":34.0,"used":false,"gnssid":1,"svid":137,"health":1},{"PRN":193,"el":15.0,"az":357.0,"ss":34.0,"used":true,"gnssid":5,"svid":1,"health":1},{"PRN":194,"az":0.0,"ss":0.0,"used":false,"gnssid":5,"svid":2,"health":2},{"PRN":196,"az":0.0,"ss":0.0,"used":false,"gnssid":5,"svid":4,"health":2},{"PRN":70,"el":34.0,"az":323.0,"ss":0.0,"used":false,"gnssid":6,"svid":6,"health":1},{"PRN":71,"el":43.0,"az":255.0,"ss":28.0,"used":true,"gnssid":6,"svid":7,"health":1},{"PRN":72,"el":12.0,"az":209.0,"ss":0.0,"used":false,"gnssid":6,"svid":8,"health":1},{"PRN":73,"el":47.0,"az":217.0,"ss":21.0,"used":false,"gnssid":6,"svid":9,"health":1},{"PRN":74,"el":7.0,"az":262.0,"ss":21.0,"used":false,"gnssid":6,"svid":10,"health":1},{"PRN":80,"el":41.0,"az":141.0,"ss":21.0,"used":true,"gnssid":6,"svid":16,"health":1},{"PRN":81,"el":10.0,"az":153.0,"ss":11.0,"used":false,"gnssid":6,"svid":17,"health":1},{"PRN":82,"el":34.0,"az":107.0,"ss":29.0,"used":false,"gnssid":6,"svid":18,"health":1},{"PRN":83,"el":26.0,"az":45.0,"ss":26.0,"used":true,"gnssid":6,"svid":19,"health":1}]}
$GPZDA,085004.60,19,07,2017,00,00*62
$GPGGA,085004.60,3454.3740,S,13836.4872,E,2,14,0.71,27.62,M,-1.662,M,,*51
$GPRMC,085004.60,A,3454.3740,S,13836.4872,E,0.0505,31.472,190717,7.9,E*4E
$GPGSA,A,3,5,7,8,9,11,13,17,19,,,,,1.5,0.7,1.3*3C
$GPGBS,085004.60,1.866,1.908,1.455,,,,*42
{"class":"TPV","status":2,"mode":3,"time":"2017-07-19T08:50:04.600Z","leapseconds":18,"ept":0.005,"lat":-34.906233100,"lon":138.608119600,"altHAE":24.154,"altMSL":27.625,"epx":1.866,"epy":1.908,"epv":1.455,"track":31.4718,"magtrack":39.3946,"magvar":7.9,"speed":0.026,"climb":-0.230,"eps":0.03,"epc":16.02,"geoidSep":-1.662,"eph":1.031,"sep":6.951}
{"class":"TPV","status":2,"mode":3,"time":"2017-07-19T08:50:04.600Z","leapseconds":18,"ept":0.005,"lat":-34.906233100,"lon":138.608119600,"altHAE":24.154,"altMSL":27.625,"epx":1.866,"epy":1.908,"epv":1.455,"track":31.4718,"magtrack":39.3946,"magvar":7.9,"speed":0.026,"climb":-0.230,"eps":0.03,"epc":16.02,"geoidSep":-1.662,"eph":1.031,"sep":6.951}
$GPZDA,085004.80,19,07,2017,00,00*6C
$GPGGA,085004.80,3454.3740,S,13836.4872,E,2,14,0.71,27.53,M,-1.662,M,,*5D
$GPRMC,085004.80,A,3454.3740,S,13836.4872,E,0.0700,31.472,190717,7.9,E*47
$GPGSA,A,3,5,7,8,9,11,13,17,19,,,,,1.5,0.7,1.3*3C
$GPGBS,085004.80,1.866,1.908,1.428,,,,*46
{"class":"TPV","status":2,"mode":3,"time":"2017-07-19T08:50:04.800Z","leapseconds":18,"ept":0.005,"lat":-34.906233600,"lon":138.608119300,"altHAE":24.063,"altMSL":27.534,"epx":1.866,"epy":1.908,"epv":1.428,"track":31.4718,"magtrack":39.3946,"magvar":7.9,"speed":0.036,"climb":-0.230,"eps":-0.04,"epc":16.02,"geoidSep":-1.662,"eph":1.012,"sep":6.951}
{"class":"TPV","status":2,"mode":3,"time":"2017-07-19T08:50:04.800Z","leapseconds":18,"ept":0.005,"lat":-34.906233600,"lon":138.608119300,"altHAE":24.063,"altMSL":27.534,"epx":1.866,"epy":1.908,"epv":1.428,"track":31.4718,"magtrack":39.3946,"magvar":7.9,"speed":0.036,"climb":-0.230,"eps":-0.04,"epc":16.02,"geoidSep":-1.662,"eph":1.012,"sep":6.951}
$GPZDA,085005.00,19,07,2017,00,00*65
$GPGGA,085005.00,3454.3740,S,13836.4871,E,2,14,0.71,27.45,M,-1.662,M,,*50
$GPRMC,085005.00,A,3454.3740,S,13836.4871,E,0.0408,31.472,190717,7.9,E*46
$GPGSA,A,3,5,7,8,9,11,13,17,19,,,,,1.5,0.7,1.3*3C
$GPGBS,085005.00,1.866,1.908,1.405,,,,*40
{"class":"TPV","status":2,"mode":3,"time":"2017-07-19T08:50:05.000Z","leapseconds":18,"ept":0.005,"lat":-34.906233900,"lon":138.608118900,"altHAE":23.975,"altMSL":27.446,"epx":1.866,"epy":1.908,"epv":1.405,"track":31.4718,"magtrack":39.3946,"magvar":7.9,"speed":0.021,"climb":-0.230,"eps":0.02,"epc":16.02,"geoidSep":-1.662,"eph":0.997,"sep":6.951}
{"class":"TPV","status":2,"mode":3,"time":"2017-07-19T08:50:05.000Z","leapseconds":18,"ept":0.005,"lat":-34.906233900,"lon":138.608118900,"altHAE":23.975,"altMSL":27.446,"epx":1.866,"epy":1.908,"epv":1.405,"track":31.4718,"magtrack":39.3946,"magvar":7.9,"speed":0.021,"climb":-0.230,"eps":0.02,"epc":16.02,"geoidSep":-1.662,"eph":0.997,"sep":6.951}
$GPZDA,085005.20,19,07,2017,00,00*67
$GPGGA,085005.20,3454.3741,S,13836.4871,E,2,14,0.71,27.36,M,-1.662,M,,*57
$GPRMC,085005.20,A,3454.3741,S,13836.4871,E,0.0156,31.472,190717,7.9,E*4B
$GPGSA,A,3,5,7,8,9,11,13,17,19,,,,,1.5,0.7,1.3*3C
$GPGBS,085005.20,1.866,1.908,1.388,,,,*40
{"class":"TPV","status":2,"mode":3,"time":"2017-07-19T08:50:05.200Z","leapseconds":18,"ept":0.005,"lat":-34.906234400,"lon":138.608118500,"altHAE":23.884,"altMSL":27.356,"epx":1.866,"epy":1.908,"epv":1.388,"track":31.4718,"magtrack":39.3946,"magvar":7.9,"speed":0.008,"climb":-0.230,"eps":0.01,"epc":16.02,"geoidSep":-1.662,"eph":0.986,"sep":6.951}
{"class":"TPV","status":2,"mode":3,"time":"2017-07-19T08:50:05.200Z","leapseconds":18,"ept":0.005,"lat":-34.906234400,"lon":138.608118500,"altHAE":23.884,"altMSL":27.356,"epx":1.866,"epy":1.908,"epv":1.388,"track":31.4718,"magtrack":39.3946,"magvar":7.9,"speed":0.008,"climb":-0.230,"eps":0.01,"epc":16.02,"geoidSep":-1.662,"eph":0.986,"sep":6.951}
$GPZDA,085005.40,19,07,2017,00,00*61
$GPGGA,085005.40,3454.3741,S,13836.4871,E,2,14,0.71,27.24,M,-1.662,M,,*52
$GPRMC,085005.40,A,3454.3741,S,13836.4871,E,0.0330,31.472,190717,7.9,E*4F
$GPGSA,A,3,5,7,8,9,11,13,17,19,,,,,1.5,0.7,1.3*3C
$GPGBS,085005.40,1.866,1.908,1.379,,,,*48
{"class":"TPV","status":2,"mode":3,"time":"2017-07-19T08:50:05.400Z","leapseconds":18,"ept":0.005,"lat":-34.906234900,"lon":138.608118100,"altHAE":23.769,"altMSL":27.240,"epx":1.866,"epy":1.908,"epv":1.379,"track":31.4718,"magtrack":39.3946,"magvar":7.9,"speed":0.017,"climb":-0.230,"eps":-0.01,"epc":16.02,"geoidSep":-1.662,"eph":0.981,"sep":6.951}
$GPGSV,7,1,25,01,02,083,00,05,19,284,39,07,33,094,40,08,12,141,27*7D
$GPGSV,7,2,25,09,12,029,36,11,17,101,40,13,39,226,37,15,05,220,25*71
$GPGSV,7,3,25,17,32,008,37,19,15,357,34,20,08,241,33,28,77,211,40*7A
$GPGSV,7,4,25,30,63,135,43,42,49,011,33,50,49,011,34,193,15,357,34*46
$GPGSV,7,5,25,70,34,323,00,71,43,255,28,72,12,209,00,73,47,217,21*7A
$GPGSV,7,6,25,74,07,262,20,80,41,141,21,81,10,153,10,82,34,107,26*74
$GPGSV,7,7,25,83,26,045,26*44
{"class":"SKY","xdop":0.50,"ydop":0.51,"vdop":1.28,"tdop":0.73,"hdop":0.71,"gdop":1.64,"pdop":1.46,"satellites":[{"PRN":1,"el":2.0,"az":83.0,"ss":0.0,"used":false,"gnssid":0,"svid":1,"health":1},{"PRN":4,"az":0.0,"ss":0.0,"used":false,"gnssid":0,"svid":4,"health":2},{"PRN":5,"el":19.0,"az":284.0,"ss":39.0,"used":true,"gnssid":0,"svid":5,"health":1},{"PRN":7,"el":33.0,"az":94.0,"ss":40.0,"used":true,"gnssid":0,"svid":7,"health":1},{"PRN":8,"el":12.0,"az":141.0,"ss":27.0,"used":true,"gnssid":0,"svid":8,"health":1},{"PRN":9,"el":12.0,"az":29.0,"ss":36.0,"used":true,"gnssid":0,"svid":9,"health":1},{"PRN":11,"el":17.0,"az":101.0,"ss":40.0,"used":true,"gnssid":0,"svid":11,"health":1},{"PRN":13,"el":39.0,"az":226.0,"ss":37.0,"used":true,"gnssid":0,"svid":13,"health":1},{"PRN":15,"el":5.0,"az":220.0,"ss":25.0,"used":false,"gnssid":0,"svid":15,"health":1},{"PRN":17,"el":32.0,"az":8.0,"ss":37.0,"used":true,"gnssid":0,"svid":17,"health":1},{"PRN":19,"el":15.0,"az":357.0,"ss":34.0,"used":true,"gnssid":0,"svid":19,"health":1},{"PRN":20,"el":8.0,"az":241.0,"ss":33.0,"used":false,"gnssid":0,"svid":20,"health":1},{"PRN":28,"el":77.0,"az":211.0,"ss":40.0,"used":true,"gnssid":0,"svid":28,"health":1},{"PRN":30,"el":63.0,"az":135.0,"ss":43.0,"used":true,"gnssid":0,"svid":30,"health":1},{"PRN":42,"el":49.0,"az":11.0,"ss":33.0,"used":false,"gnssid":1,"svid":129,"health":1},{"PRN":50,"el":49.0,"az":11.0,"ss":34.0,"used":false,"gnssid":1,"svid":137,"health":1},{"PRN":193,"el":15.0,"az":357.0,"ss":34.0,"used":true,"gnssid":5,"svid":1,"health":1},{"PRN":194,"az":0.0,"ss":0.0,"used":false,"gnssid":5,"svid":2,"health":2},{"PRN":196,"az":0.0,"ss":0.0,"used":false,"gnssid":5,"svid":4,"health":2},{"PRN":70,"el":34.0,"az":323.0,"ss":0.0,"used":false,"gnssid":6,"svid":6,"health":1},{"PRN":71,"el":43.0,"az":255.0,"ss":28.0,"used":true,"gnssid":6,"svid":7,"health":1},{"PRN":72,"el":12.0,"az":209.0,"ss":0.0,"used":false,"gnssid":6,"svid":8,"health":1},{"PRN":73,"el":47.0,"az":217.0,"ss":21.0,"used":false,"gnssid":6,"svid":9,"health":1},{"PRN":74,"el":7.0,"az":262.0,"ss":20.0,"used":false,"gnssid":6,"svid":10,"health":1},{"PRN":80,"el":41.0,"az":141.0,"ss":21.0,"used":true,"gnssid":6,"svid":16,"health":1},{"PRN":81,"el":10.0,"az":153.0,"ss":10.0,"used":false,"gnssid":6,"svid":17,"health":1},{"PRN":82,"el":34.0,"az":107.0,"ss":26.0,"used":false,"gnssid":6,"svid":18,"health":1},{"PRN":83,"el":26.0,"az":45.0,"ss":26.0,"used":true,"gnssid":6,"svid":19,"health":1}]}
