# Name:Uputronics GPS HAT Version 1
# Chipset: u-blox  MAX-M8Q 
# Submitter: Gary E. Miller <gem@rellim.com>
# Date: 2017-1-9
# Location: Baned, OR 44.06N 121.31W
#
# This file is Copyright (c) 2010 by the GPSD project
# BSD terms apply: see the file COPYING in the distribution root for details.
#
&	ÇbÇ∫™bb¬∫bÇäbö¢™bR≤ jR":1MY±Õ±Õ±¡Â±··±¡›±¡…·±©’≈5)ë911±——¡—π≈ÕÕ›—±9±≈…≈≈·π·’Ÿ…›±]±¡¡¡Â—¡π¡¡±±©Ÿ	5)ë9i±¡¡¡Â—¡π¡¡±≈¡±¡≈±…¡≈›±¡¡±¡¡©›≈5)ˇ$GNRMC,000941.00,A,4404.13387,N,12118.85628,W,0.029,,100117,,,A*7D
$GNVTG,,T,,M,0.029,N,0.053,K,A*30
$GNGGA,000941.00,4404.13387,N,12118.85628,W,1,12,1.01,1144.8,M,-21.4,M,,*4D
$GNGSA,A,3,23,09,16,07,26,03,27,22,,,,,1.71,1.01,1.38*1B
$GNGSA,A,3,80,70,73,79,69,71,,,,,,,1.71,1.01,1.38*1D
$GPGSV,4,1,16,02,05,307,,03,21,174,29,04,12,038,23,06,07,270,06*7E
$GPGSV,4,2,16,07,46,259,26,08,01,143,28,09,67,312,39,16,47,064,35*70
$GPGSV,4,3,16,22,08,167,29,23,68,103,28,26,23,045,27,27,12,109,21*71
$GPGSV,4,4,16,30,12,249,17,46,31,150,,48,38,197,,51,37,160,*7C
$GLGSV,3,1,09,69,40,156,22,70,76,297,23,71,24,325,14,73,33,233,24*6D
$GLGSV,3,2,09,79,32,038,19,80,78,285,24,81,00,075,,87,01,345,*68
$GLGSV,3,3,09,88,07,028,*51
$GNGLL,4404.13387,N,12118.85628,W,000941.00,A,A*69
$GNZDA,000941.00,10,01,2017,00,00*70
$GNRMC,000942.00,A,4404.13401,N,12118.85633,W,0.041,,100117,,,A*73
$GNVTG,,T,,M,0.041,N,0.076,K,A*39
$GNGGA,000942.00,4404.13401,N,12118.85633,W,1,12,1.01,1144.9,M,-21.4,M,,*4C
$GNGSA,A,3,23,09,16,07,26,03,27,22,,,,,1.71,1.01,1.38*1B
$GNGSA,A,3,80,70,73,79,69,71,,,,,,,1.71,1.01,1.38*1D
$GPGSV,4,1,16,02,05,307,,03,21,174,29,04,12,038,24,06,07,270,08*77
$GPGSV,4,2,16,07,46,259,27,08,01,143,28,09,67,312,39,16,47,064,35*71
$GPGSV,4,3,16,22,08,167,29,23,68,103,28,26,23,045,27,27,12,109,20*70
$GPGSV,4,4,16,30,12,249,18,46,31,150,,48,38,197,,51,37,160,*73
$GLGSV,3,1,09,69,40,156,22,70,76,297,23,71,24,325,14,73,33,233,23*6A
$GLGSV,3,2,09,79,32,038,19,80,78,285,24,81,00,075,,87,01,345,*68
$GLGSV,3,3,09,88,07,028,*51
$GNGLL,4404.13401,N,12118.85633,W,000942.00,A,A*69
$GNZDA,000942.00,10,01,2017,00,00*73
$GNRMC,000943.00,A,4404.13403,N,12118.85633,W,0.023,,100117,,,A*74
$GNVTG,,T,,M,0.023,N,0.043,K,A*3B
$GNGGA,000943.00,4404.13403,N,12118.85633,W,1,12,1.01,1145.1,M,-21.4,M,,*46
$GNGSA,A,3,23,09,16,07,26,03,27,22,,,,,1.71,1.01,1.38*1B
$GNGSA,A,3,80,70,73,79,69,71,,,,,,,1.71,1.01,1.38*1D
$GPGSV,4,1,16,02,05,307,,03,21,174,29,04,12,038,24,06,07,270,09*76
$GPGSV,4,2,16,07,46,259,27,08,01,143,27,09,67,312,39,16,47,064,35*7E
$GPGSV,4,3,16,22,08,167,28,23,68,103,28,26,23,045,27,27,12,109,20*71
$GPGSV,4,4,16,30,12,249,17,46,31,150,,48,38,197,,51,37,160,*7C
$GLGSV,3,1,09,69,40,156,22,70,76,297,22,71,24,325,15,73,33,233,24*6D
$GLGSV,3,2,09,79,32,038,19,80,78,285,24,81,00,075,,87,01,345,*68
$GLGSV,3,3,09,88,07,028,*51
$GNGLL,4404.13403,N,12118.85633,W,000943.00,A,A*6A
$GNZDA,000943.00,10,01,2017,00,00*72
$GNRMC,000944.00,A,4404.13400,N,12118.85623,W,0.023,,100117,,,A*71
$GNVTG,,T,,M,0.023,N,0.042,K,A*3A
$GNGGA,000944.00,4404.13400,N,12118.85623,W,1,12,1.01,1145.3,M,-21.4,M,,*41
$GNGSA,A,3,23,09,16,07,26,03,27,22,,,,,1.71,1.01,1.38*1B
$GNGSA,A,3,80,70,73,79,69,71,,,,,,,1.71,1.01,1.38*1D
$GPGSV,4,1,16,02,05,307,,03,21,174,29,04,12,038,24,06,07,270,08*77
$GPGSV,4,2,16,07,46,259,27,08,01,143,27,09,67,312,39,16,47,064,36*7D
$GPGSV,4,3,16,22,08,167,28,23,68,103,28,26,23,045,27,27,12,109,19*7B
$GPGSV,4,4,16,30,12,249,17,46,31,150,,48,38,197,,51,37,160,*7C
$GLGSV,3,1,09,69,40,156,22,70,76,297,22,71,24,325,14,73,33,233,24*6C
$GLGSV,3,2,09,79,32,038,20,80,78,285,24,81,00,075,,87,01,345,*62
$GLGSV,3,3,09,88,07,028,*51
$GNGLL,4404.13400,N,12118.85623,W,000944.00,A,A*6F
$GNZDA,000944.00,10,01,2017,00,00*75
$GNRMC,000945.00,A,4404.13412,N,12118.85626,W,0.062,,100117,,,A*73
$GNVTG,,T,,M,0.062,N,0.115,K,A*3C
$GNGGA,000945.00,4404.13412,N,12118.85626,W,1,12,1.01,1145.1,M,-21.4,M,,*44
$GNGSA,A,3,23,09,16,07,26,03,27,22,,,,,1.71,1.01,1.38*1B
$GNGSA,A,3,80,70,73,79,69,71,,,,,,,1.71,1.01,1.38*1D
$GPGSV,4,1,16,02,05,307,,03,21,174,29,04,12,038,24,06,07,270,08*77
$GPGSV,4,2,16,07,46,259,27,08,01,143,27,09,67,312,39,16,47,064,36*7D
$GPGSV,4,3,16,22,08,167,28,23,68,103,29,26,23,045,26,27,12,109,20*71
$GPGSV,4,4,16,30,12,249,17,46,31,150,,48,38,197,,51,37,160,*7C
$GLGSV,3,1,09,69,40,156,22,70,76,297,22,71,24,325,14,73,33,233,24*6C
$GLGSV,3,2,09,79,32,038,20,80,78,285,25,81,00,075,,87,01,345,*63
$GLGSV,3,3,09,88,07,028,*51
$GNGLL,4404.13412,N,12118.85626,W,000945.00,A,A*68
$GNZDA,000945.00,10,01,2017,00,00*74
$GNRMC,000946.00,A,4404.13427,N,12118.85631,W,0.112,,100117,,,A*76
$GNVTG,,T,,M,0.112,N,0.207,K,A*3A
$GNGGA,000946.00,4404.13427,N,12118.85631,W,1,12,1.01,1144.7,M,-21.4,M,,*40
$GNGSA,A,3,23,09,16,07,26,03,27,22,,,,,1.71,1.01,1.38*1B
$GNGSA,A,3,80,70,73,79,69,71,,,,,,,1.71,1.01,1.38*1D
$GPGSV,4,1,16,02,05,307,,03,21,174,30,04,12,038,24,06,07,270,08*7F
$GPGSV,4,2,16,07,46,259,27,08,01,143,27,09,67,312,39,16,47,064,36*7D
$GPGSV,4,3,16,22,08,167,28,23,68,103,29,26,23,045,26,27,12,109,19*7B
$GPGSV,4,4,16,30,12,249,17,46,31,150,,48,38,197,,51,37,160,*7C
$GLGSV,3,1,09,69,40,156,23,70,76,297,22,71,24,325,14,73,33,233,25*6C
$GLGSV,3,2,09,79,32,038,19,80,78,285,24,81,00,075,,87,01,345,*68
$GLGSV,3,3,09,88,07,028,*51
$GNGLL,4404.13427,N,12118.85631,W,000946.00,A,A*6B
$GNZDA,000946.00,10,01,2017,00,00*77
$GNRMC,000947.00,A,4404.13449,N,12118.85655,W,0.130,,100117,,,A*7D
$GNVTG,,T,,M,0.130,N,0.240,K,A*39
$GNGGA,000947.00,4404.13449,N,12118.85655,W,1,12,1.01,1143.8,M,-21.4,M,,*43
$GNGSA,A,3,23,09,16,07,26,03,27,22,,,,,1.71,1.01,1.38*1B
$GNGSA,A,3,80,70,73,79,69,71,,,,,,,1.71,1.01,1.38*1D
$GPGSV,4,1,16,02,05,307,,03,21,174,30,04,12,038,24,06,07,270,08*7F
$GPGSV,4,2,16,07,46,259,27,08,01,143,27,09,67,312,39,16,47,064,35*7E
$GPGSV,4,3,16,22,08,167,28,23,68,103,30,26,23,045,26,27,12,109,20*79
$GPGSV,4,4,16,30,12,249,18,46,31,150,,48,38,197,,51,37,160,*73
$GLGSV,3,1,09,69,40,156,23,70,76,297,21,71,24,325,13,73,33,233,25*68
$GLGSV,3,2,09,79,32,038,18,80,78,285,25,81,00,075,,87,01,345,*68
$GLGSV,3,3,09,88,07,028,*51
$GNGLL,4404.13449,N,12118.85655,W,000947.00,A,A*60
$GNZDA,000947.00,10,01,2017,00,00*76
$GNRMC,000948.00,A,4404.13479,N,12118.85677,W,0.068,,100117,,,A*7D
$GNVTG,,T,,M,0.068,N,0.126,K,A*36
$GNGGA,000948.00,4404.13479,N,12118.85677,W,1,12,1.01,1142.9,M,-21.4,M,,*4F
$GNGSA,A,3,23,09,16,07,26,03,27,22,,,,,1.71,1.01,1.38*1B
$GNGSA,A,3,80,70,73,79,69,,,,,,,,1.71,1.01,1.38*1B
$GPGSV,4,1,16,02,05,307,,03,21,174,30,04,12,038,25,06,07,270,08*7E
$GPGSV,4,2,16,07,46,259,27,08,01,143,27,09,67,312,39,16,47,064,36*7D
$GPGSV,4,3,16,22,08,167,29,23,68,103,31,26,23,045,26,27,12,109,20*79
$GPGSV,4,4,16,30,12,249,18,46,31,150,,48,38,197,,51,37,160,*73
$GLGSV,3,1,09,69,40,156,23,70,76,297,21,71,24,325,,73,33,233,25*6A
$GLGSV,3,2,09,79,32,038,18,80,78,285,25,81,00,075,,87,01,345,*68
$GLGSV,3,3,09,88,07,028,*51
$GNGLL,4404.13479,N,12118.85677,W,000948.00,A,A*6C
$GNZDA,000948.00,10,01,2017,00,00*79
$GNRMC,000949.00,A,4404.13518,N,12118.85712,W,0.165,,100117,,,A*74
$GNVTG,,T,,M,0.165,N,0.306,K,A*3A
$GNGGA,000949.00,4404.13518,N,12118.85712,W,1,12,1.01,1141.5,M,-21.4,M,,*45
$GNGSA,A,3,23,09,16,07,26,03,27,22,,,,,1.71,1.01,1.38*1B
$GNGSA,A,3,80,70,73,79,69,,,,,,,,1.71,1.01,1.38*1B
$GPGSV,4,1,16,02,05,307,,03,21,174,30,04,12,038,25,06,07,270,08*7E
$GPGSV,4,2,16,07,46,259,27,08,01,143,27,09,67,312,39,16,47,064,36*7D
$GPGSV,4,3,16,22,08,167,29,23,68,103,31,26,23,045,26,27,12,109,20*79
$GPGSV,4,4,16,30,12,249,18,46,31,150,,48,38,197,,51,37,160,*73
$GLGSV,3,1,09,69,40,156,23,70,76,297,23,71,24,325,,73,33,233,25*68
$GLGSV,3,2,09,79,32,038,18,80,78,285,25,81,00,075,,87,01,345,*68
$GLGSV,3,3,09,88,07,028,*51
$GNGLL,4404.13518,N,12118.85712,W,000949.00,A,A*69
$GNZDA,000949.00,10,01,2017,00,00*78
$GNRMC,000950.00,A,4404.13542,N,12118.85744,W,0.108,,100117,,,A*7B
$GNVTG,,T,,M,0.108,N,0.199,K,A*35
$GNGGA,000950.00,4404.13542,N,12118.85744,W,1,12,1.01,1140.6,M,-21.4,M,,*43
$GNGSA,A,3,23,09,16,07,26,03,27,22,,,,,1.71,1.01,1.38*1B
$GNGSA,A,3,80,70,73,79,69,,,,,,,,1.71,1.01,1.38*1B
$GPGSV,4,1,16,02,05,307,,03,21,174,30,04,12,038,25,06,07,270,08*7E
$GPGSV,4,2,16,07,46,259,27,08,01,143,27,09,67,312,39,16,47,064,35*7E
$GPGSV,4,3,16,22,08,167,29,23,68,103,31,26,23,045,26,27,12,109,21*78
$GPGSV,4,4,16,30,12,249,19,46,31,150,,48,38,197,,51,37,160,*72
$GLGSV,3,1,09,69,40,156,23,70,76,297,22,71,24,325,,73,33,233,26*6A
$GLGSV,3,2,09,79,32,038,19,80,78,285,25,81,00,075,,87,01,345,*69
$GLGSV,3,3,09,88,07,028,*51
$GNGLL,4404.13542,N,12118.85744,W,000950.00,A,A*6D
$GNZDA,000950.00,10,01,2017,00,00*70
$GNRMC,000951.00,A,4404.13570,N,12118.85775,W,0.124,,100117,,,A*77
$GNVTG,,T,,M,0.124,N,0.230,K,A*3B
$GNGGA,000951.00,4404.13570,N,12118.85775,W,1,12,1.01,1139.7,M,-21.4,M,,*4E
$GNGSA,A,3,23,09,16,07,26,03,27,22,,,,,1.71,1.01,1.38*1B
$GNGSA,A,3,80,70,73,79,69,,,,,,,,1.71,1.01,1.38*1B
$GPGSV,4,1,16,02,05,307,,03,21,174,30,04,12,038,26,06,07,270,08*7D
$GPGSV,4,2,16,07,46,259,27,08,01,143,28,09,67,312,39,16,47,064,35*71
$GPGSV,4,3,16,22,08,167,29,23,68,103,31,26,23,045,26,27,12,109,21*78
$GPGSV,4,4,16,30,12,249,19,46,31,150,,48,38,197,,51,37,160,*72
$GLGSV,3,1,09,69,40,156,23,70,76,297,22,71,24,325,,73,33,233,26*6A
$GLGSV,3,2,09,79,32,038,19,80,78,285,25,81,00,075,,87,01,345,*69
$GLGSV,3,3,09,88,07,028,*51
$GNGLL,4404.13570,N,12118.85775,W,000951.00,A,A*6F
$GNZDA,000951.00,10,01,2017,00,00*71
$GNRMC,000952.00,A,4404.13594,N,12118.85806,W,0.159,,100117,,,A*7F
$GNVTG,,T,,M,0.159,N,0.295,K,A*3E
$GNGGA,000952.00,4404.13594,N,12118.85806,W,1,12,1.01,1138.7,M,-21.4,M,,*4D
$GNGSA,A,3,23,09,16,07,26,03,27,22,,,,,1.71,1.01,1.38*1B
$GNGSA,A,3,80,70,73,79,69,,,,,,,,1.71,1.01,1.38*1B
$GPGSV,4,1,16,02,05,307,,03,21,174,30,04,12,038,26,06,07,270,08*7D
$GPGSV,4,2,16,07,46,259,28,08,01,143,28,09,67,312,39,16,47,064,35*7E
$GPGSV,4,3,16,22,08,167,29,23,68,103,31,26,23,045,26,27,12,108,23*7B
$GPGSV,4,4,16,30,12,249,19,46,31,150,,48,38,197,,51,37,160,*72
$GLGSV,3,1,09,69,40,156,23,70,76,297,21,71,24,325,,73,33,233,26*69
$GLGSV,3,2,09,79,32,038,19,80,78,285,25,81,00,075,,87,01,345,*69
$GLGSV,3,3,09,88,07,028,*51
$GNGLL,4404.13594,N,12118.85806,W,000952.00,A,A*6D
$GNZDA,000952.00,10,01,2017,00,00*72
$GNRMC,000953.00,A,4404.13621,N,12118.85837,W,0.035,,100117,,,A*7A
$GNVTG,,T,,M,0.035,N,0.065,K,A*38
$GNGGA,000953.00,4404.13621,N,12118.85837,W,1,12,1.01,1137.6,M,-21.4,M,,*4D
$GNGSA,A,3,23,09,16,07,26,03,27,22,,,,,1.71,1.01,1.38*1B
$GNGSA,A,3,80,70,73,79,69,,,,,,,,1.71,1.01,1.38*1B
$GPGSV,4,1,16,02,05,307,,03,21,174,29,04,12,038,26,06,07,270,08*75
$GPGSV,4,2,16,07,46,259,28,08,01,143,28,09,67,312,39,16,47,064,35*7E
$GPGSV,4,3,16,22,08,167,29,23,68,103,31,26,23,045,26,27,12,108,23*7B
$GPGSV,4,4,16,30,12,249,20,46,31,150,,48,38,197,,51,37,160,*78
$GLGSV,3,1,09,69,40,156,23,70,76,297,22,71,24,325,,73,33,233,26*6A
$GLGSV,3,2,09,79,32,038,19,80,78,285,25,81,00,075,,87,01,345,*69
$GLGSV,3,3,09,88,07,028,*51
$GNGLL,4404.13621,N,12118.85837,W,000953.00,A,A*63
$GNZDA,000953.00,10,01,2017,00,00*73
$GNRMC,000954.00,A,4404.13651,N,12118.85869,W,0.008,,100117,,,A*7F
$GNVTG,,T,,M,0.008,N,0.015,K,A*31
$GNGGA,000954.00,4404.13651,N,12118.85869,W,1,12,1.01,1136.4,M,-21.4,M,,*45
$GNGSA,A,3,23,09,16,07,26,03,27,22,,,,,1.71,1.01,1.38*1B
$GNGSA,A,3,80,70,73,79,69,,,,,,,,1.71,1.01,1.38*1B
$GPGSV,4,1,16,02,05,307,,03,21,174,29,04,12,038,26,06,07,270,08*75
$GPGSV,4,2,16,07,46,259,28,08,01,143,29,09,67,312,39,16,47,064,35*7F
$GPGSV,4,3,16,22,08,167,28,23,68,103,32,26,23,045,25,27,12,108,24*7D
$GPGSV,4,4,16,30,12,249,20,46,31,150,,48,38,197,,51,37,160,*78
$GLGSV,3,1,09,69,40,156,23,70,76,297,22,71,24,325,,73,33,233,26*6A
$GLGSV,3,2,09,79,32,038,19,80,78,285,25,81,00,075,,87,01,345,*69
$GLGSV,3,3,09,88,07,028,*51
$GNGLL,4404.13651,N,12118.85869,W,000954.00,A,A*68
$GNZDA,000954.00,10,01,2017,00,00*74
$GNRMC,000955.00,A,4404.13679,N,12118.85900,W,0.148,,100117,,,A*7F
$GNVTG,,T,,M,0.148,N,0.273,K,A*36
$GNGGA,000955.00,4404.13679,N,12118.85900,W,1,12,1.01,1135.2,M,-21.4,M,,*45
$GNGSA,A,3,23,09,16,07,26,03,27,22,,,,,1.71,1.01,1.38*1B
$GNGSA,A,3,80,70,73,79,69,,,,,,,,1.71,1.01,1.38*1B
$GPGSV,4,1,16,02,05,307,,03,21,174,29,04,12,038,26,06,07,270,08*75
$GPGSV,4,2,16,07,46,259,28,08,01,143,29,09,67,312,39,16,47,064,35*7F
$GPGSV,4,3,16,22,08,167,29,23,68,103,32,26,23,045,24,27,12,108,24*7D
$GPGSV,4,4,16,30,12,249,21,46,31,150,,48,38,197,,51,37,160,*79
$GLGSV,3,1,09,69,40,156,23,70,76,297,21,71,24,325,,73,33,233,26*69
$GLGSV,3,2,09,79,32,038,20,80,78,285,25,81,00,075,,87,01,345,*63
$GLGSV,3,3,09,88,07,028,*51
$GNGLL,4404.13679,N,12118.85900,W,000955.00,A,A*6D
$GNZDA,000955.00,10,01,2017,00,00*75
$GNRMC,000956.00,A,4404.13702,N,12118.85921,W,0.130,,100117,,,A*7D
$GNVTG,,T,,M,0.130,N,0.241,K,A*38
$GNGGA,000956.00,4404.13702,N,12118.85921,W,1,12,1.01,1134.4,M,-21.4,M,,*4F
$GNGSA,A,3,23,09,16,07,26,03,27,22,,,,,1.71,1.01,1.38*1B
$GNGSA,A,3,80,70,73,79,69,,,,,,,,1.71,1.01,1.38*1B
$GPGSV,4,1,16,02,05,307,,03,21,174,29,04,12,038,26,06,07,270,08*75
$GPGSV,4,2,16,07,46,259,29,08,01,143,29,09,67,312,39,16,47,064,35*7E
$GPGSV,4,3,16,22,08,167,29,23,68,103,31,26,23,045,24,27,12,108,24*7E
$GPGSV,4,4,16,30,12,249,21,46,31,150,,48,38,197,,51,37,160,*79
$GLGSV,3,1,09,69,40,156,23,70,76,297,20,71,24,325,,73,33,233,26*68
$GLGSV,3,2,09,79,32,038,19,80,78,285,24,81,00,075,,87,01,345,*68
$GLGSV,3,3,09,88,07,028,*51
$GNGLL,4404.13702,N,12118.85921,W,000956.00,A,A*60
$GNZDA,000956.00,10,01,2017,00,00*76
$GNRMC,000957.00,A,4404.13717,N,12118.85939,W,0.088,,100117,,,A*73
$GNVTG,,T,,M,0.088,N,0.164,K,A*3E
$GNGGA,000957.00,4404.13717,N,12118.85939,W,1,12,1.01,1133.7,M,-21.4,M,,*47
$GNGSA,A,3,23,09,16,07,26,03,27,22,,,,,1.71,1.01,1.38*1B
$GNGSA,A,3,80,70,73,79,69,,,,,,,,1.71,1.01,1.38*1B
$GPGSV,4,1,16,02,05,307,,03,21,174,29,04,12,038,27,06,07,270,08*74
$GPGSV,4,2,16,07,46,259,30,08,01,143,29,09,67,312,40,16,47,064,35*78
$GPGSV,4,3,16,22,08,167,28,23,68,103,31,26,23,045,25,27,12,108,25*7F
$GPGSV,4,4,16,30,12,249,21,46,31,150,,48,38,197,,51,37,160,*79
$GLGSV,3,1,09,69,40,156,23,70,76,297,20,71,24,325,,73,33,233,25*6B
$GLGSV,3,2,09,79,32,038,19,80,78,285,25,81,00,075,,87,01,345,*69
$GLGSV,3,3,09,88,07,028,*51
$GNGLL,4404.13717,N,12118.85939,W,000957.00,A,A*6C
$GNZDA,000957.00,10,01,2017,00,00*77
$GNRMC,000958.00,A,4404.13739,N,12118.85957,W,0.045,,100117,,,A*79
$GNVTG,,T,,M,0.045,N,0.083,K,A*37
$GNGGA,000958.00,4404.13739,N,12118.85957,W,1,12,0.98,1132.4,M,-21.4,M,,*4F
$GNGSA,A,3,23,09,16,07,26,03,27,22,,,,,1.67,0.98,1.36*13
$GNGSA,A,3,80,70,73,79,69,,,,,,,,1.67,0.98,1.36*13
$GPGSV,4,1,16,02,05,307,,03,21,174,29,04,12,038,27,06,07,270,08*74
$GPGSV,4,2,16,07,46,259,30,08,01,143,29,09,67,312,40,16,47,064,35*78
$GPGSV,4,3,16,22,08,167,28,23,68,103,32,26,23,045,24,27,12,108,26*7E
$GPGSV,4,4,16,30,12,249,21,46,31,150,,48,38,197,,51,37,160,*79
$GLGSV,3,1,09,69,40,156,22,70,76,297,18,71,24,325,,73,33,233,25*61
$GLGSV,3,2,09,79,32,038,19,80,78,285,24,81,00,075,,87,01,345,*68
$GLGSV,3,3,09,88,07,028,*51
$GNGLL,4404.13739,N,12118.85957,W,000958.00,A,A*67
$GNZDA,000958.00,10,01,2017,00,00*78
$GNRMC,000959.00,A,4404.13755,N,12118.85967,W,0.038,,100117,,,A*7B
$GNVTG,,T,,M,0.038,N,0.071,K,A*30
$GNGGA,000959.00,4404.13755,N,12118.85967,W,1,12,0.98,1131.5,M,-21.4,M,,*45
$GNGSA,A,3,23,09,16,07,26,03,27,22,,,,,1.67,0.98,1.36*13
$GNGSA,A,3,80,70,73,79,69,,,,,,,,1.67,0.98,1.36*13
$GPGSV,4,1,16,02,05,307,,03,21,174,29,04,12,038,27,06,07,270,08*74
$GPGSV,4,2,16,07,46,259,30,08,01,143,30,09,67,312,40,16,47,064,35*70
$GPGSV,4,3,16,22,08,167,28,23,68,103,31,26,23,045,24,27,12,108,26*7D
$GPGSV,4,4,16,30,12,249,22,46,31,150,,48,38,197,,51,37,160,*7A
$GLGSV,3,1,09,69,40,156,22,70,76,297,18,71,24,325,,73,33,233,26*62
$GLGSV,3,2,09,79,32,038,20,80,78,285,23,81,00,075,,87,01,345,*65
$GLGSV,3,3,09,88,07,028,*51
$GNGLL,4404.13755,N,12118.85967,W,000959.00,A,A*6F
$GNZDA,000959.00,10,01,2017,00,00*79
$GNRMC,001000.00,A,4404.13771,N,12118.85976,W,0.060,,100117,,,A*74
$GNVTG,,T,,M,0.060,N,0.112,K,A*39
$GNGGA,001000.00,4404.13771,N,12118.85976,W,1,12,0.98,1130.7,M,-21.4,M,,*44
$GNGSA,A,3,23,09,16,07,26,03,27,22,,,,,1.67,0.98,1.35*10
$GNGSA,A,3,80,70,73,79,69,,,,,,,,1.67,0.98,1.35*10
$GPGSV,4,1,16,02,05,307,,03,21,174,30,04,12,038,27,06,07,270,08*7C
$GPGSV,4,2,16,07,46,259,30,08,01,143,30,09,67,312,40,16,47,064,35*70
$GPGSV,4,3,16,22,08,167,28,23,68,103,31,26,23,045,24,27,12,108,26*7D
$GPGSV,4,4,16,30,12,249,22,46,31,150,,48,38,197,,51,37,160,*7A
$GLGSV,3,1,09,69,40,156,22,70,76,297,16,71,24,325,,73,33,233,26*6C
$GLGSV,3,2,09,79,32,038,19,80,78,285,23,81,00,075,,87,01,345,*6F
$GLGSV,3,3,09,88,07,028,*51
$GNGLL,4404.13771,N,12118.85976,W,001000.00,A,A*6D
$GNZDA,001000.00,10,01,2017,00,00*7D
$GNRMC,001001.00,A,4404.13785,N,12118.85985,W,0.065,,100117,,,A*77
$GNVTG,,T,,M,0.065,N,0.121,K,A*3C
$GNGGA,001001.00,4404.13785,N,12118.85985,W,1,12,0.98,1129.9,M,-21.4,M,,*44
$GNGSA,A,3,23,09,16,07,26,03,27,22,,,,,1.67,0.98,1.35*10
$GNGSA,A,3,80,70,73,79,69,,,,,,,,1.67,0.98,1.35*10
$GPGSV,4,1,16,02,05,307,,03,21,174,29,04,12,038,28,06,07,270,*73
$GPGSV,4,2,16,07,46,259,31,08,01,143,30,09,67,312,40,16,47,064,35*71
$GPGSV,4,3,16,22,08,167,28,23,68,103,31,26,23,045,24,27,12,108,26*7D
$GPGSV,4,4,16,30,12,249,22,46,31,150,,48,38,197,,51,37,160,*7A
$GLGSV,3,1,09,69,40,156,23,70,76,297,15,71,24,325,,73,33,233,26*6E
$GLGSV,3,2,09,79,32,038,19,80,78,285,23,81,00,075,,87,01,345,*6F
$GLGSV,3,3,09,88,07,028,*51
$GNGLL,4404.13785,N,12118.85985,W,001001.00,A,A*6B
$GNZDA,001001.00,10,01,2017,00,00*7C
$GNRMC,001002.00,A,4404.13794,N,12118.85989,W,0.113,,100117,,,A*78
$GNVTG,,T,,M,0.113,N,0.210,K,A*3D
$GNGGA,001002.00,4404.13794,N,12118.85989,W,1,12,0.98,1129.4,M,-21.4,M,,*46
$GNGSA,A,3,23,09,16,07,26,03,27,22,,,,,1.67,0.98,1.35*10
$GNGSA,A,3,80,70,73,79,69,,,,,,,,1.67,0.98,1.35*10
$GPGSV,4,1,16,02,05,307,,03,21,174,29,04,12,038,28,06,07,270,*73
$GPGSV,4,2,16,07,46,259,31,08,01,143,30,09,67,312,40,16,47,064,35*71
$GPGSV,4,3,16,22,08,167,28,23,68,103,31,26,23,045,23,27,12,108,26*7A
$GPGSV,4,4,16,30,12,249,22,46,31,150,,48,38,197,,51,37,160,*7A
$GLGSV,3,1,09,69,40,156,23,70,76,297,13,71,24,325,,73,33,233,26*68
$GLGSV,3,2,09,79,32,038,19,80,78,285,23,81,00,075,,87,01,345,*6F
$GLGSV,3,3,09,88,07,028,*51
$GNGLL,4404.13794,N,12118.85989,W,001002.00,A,A*64
$GNZDA,001002.00,10,01,2017,00,00*7F
$GNRMC,001003.00,A,4404.13807,N,12118.86001,W,0.033,,100117,,,A*75
$GNVTG,,T,,M,0.033,N,0.061,K,A*3A
$GNGGA,001003.00,4404.13807,N,12118.86001,W,1,12,0.98,1128.7,M,-21.4,M,,*4A
$GNGSA,A,3,23,09,16,07,26,03,27,22,,,,,1.67,0.98,1.35*10
$GNGSA,A,3,80,70,73,79,69,,,,,,,,1.67,0.98,1.35*10
$GPGSV,4,1,16,02,05,307,,03,21,174,29,04,12,038,28,06,07,270,*73
$GPGSV,4,2,16,07,46,259,31,08,01,143,30,09,67,312,40,16,47,064,34*70
$GPGSV,4,3,16,22,08,167,28,23,68,103,31,26,23,045,24,27,12,108,26*7D
$GPGSV,4,4,16,30,12,249,22,46,31,150,,48,38,197,,51,37,160,*7A
$GLGSV,3,1,09,69,40,156,23,70,76,297,12,71,24,325,,73,33,233,26*69
$GLGSV,3,2,09,79,32,038,20,80,78,285,23,81,00,075,,87,01,345,*65
$GLGSV,3,3,09,88,07,028,*51
$GNGLL,4404.13807,N,12118.86001,W,001003.00,A,A*6A
$GNZDA,001003.00,10,01,2017,00,00*7E
$GNRMC,001004.00,A,4404.13813,N,12118.86012,W,0.108,,100117,,,A*7C
$GNVTG,,T,,M,0.108,N,0.200,K,A*36
$GNGGA,001004.00,4404.13813,N,12118.86012,W,1,12,1.01,1128.4,M,-21.4,M,,*48
$GNGSA,A,3,23,09,16,07,26,03,27,22,,,,,1.71,1.01,1.38*1B
$GNGSA,A,3,80,70,73,79,69,,,,,,,,1.71,1.01,1.38*1B
$GPGSV,4,1,16,02,05,307,,03,21,174,29,04,12,038,28,06,07,270,05*76
$GPGSV,4,2,16,07,46,259,31,08,01,143,30,09,67,312,40,16,47,064,34*70
$GPGSV,4,3,16,22,08,167,28,23,68,103,31,26,23,045,24,27,12,108,26*7D
$GPGSV,4,4,16,30,12,249,22,46,31,150,,48,38,197,,51,37,160,*7A
$GLGSV,3,1,09,69,40,156,23,70,76,297,11,71,24,325,,73,33,233,27*6B
$GLGSV,3,2,09,79,32,038,21,80,78,285,23,81,00,075,,87,01,345,*64
$GLGSV,3,3,09,88,07,028,*51
$GNGLL,4404.13813,N,12118.86012,W,001004.00,A,A*6A
$GNZDA,001004.00,10,01,2017,00,00*79
$GNRMC,001005.00,A,4404.13819,N,12118.86023,W,0.072,,100117,,,A*79
$GNVTG,,T,,M,0.072,N,0.134,K,A*3E
$GNGGA,001005.00,4404.13819,N,12118.86023,W,1,12,1.02,1128.1,M,-21.4,M,,*47
$GNGSA,A,3,23,09,16,07,26,03,27,22,,,,,1.76,1.02,1.43*13
$GNGSA,A,3,80,73,79,69,,,,,,,,,1.76,1.02,1.43*14
$GPGSV,4,1,16,02,05,307,,03,21,174,30,04,12,038,28,06,07,270,07*7C
$GPGSV,4,2,16,07,46,259,31,08,01,143,30,09,67,312,40,16,47,064,34*70
$GPGSV,4,3,16,22,08,167,28,23,68,103,31,26,23,045,24,27,12,108,27*7C
$GPGSV,4,4,16,30,12,249,23,46,31,150,,48,38,197,,51,37,160,*7B
$GLGSV,3,1,09,69,40,156,23,70,76,297,09,71,24,325,,73,33,233,27*62
$GLGSV,3,2,09,79,32,038,21,80,78,285,23,81,00,075,,87,01,345,*64
$GLGSV,3,3,09,88,07,028,*51
$GNGLL,4404.13819,N,12118.86023,W,001005.00,A,A*63
$GNZDA,001005.00,10,01,2017,00,00*78
$GNRMC,001006.00,A,4404.13830,N,12118.86033,W,0.017,,100117,,,A*73
$GNVTG,,T,,M,0.017,N,0.031,K,A*39
$GNGGA,001006.00,4404.13830,N,12118.86033,W,1,12,0.98,1127.4,M,-21.4,M,,*46
$GNGSA,A,3,23,09,16,07,26,03,27,22,,,,,1.71,0.98,1.40*15
$GNGSA,A,3,80,73,79,69,,,,,,,,,1.71,0.98,1.40*12
$GPGSV,4,1,16,02,05,307,,03,21,174,30,04,12,038,28,06,07,270,10*7A
$GPGSV,4,2,16,07,46,259,31,08,01,143,29,09,67,312,40,16,47,064,34*78
$GPGSV,4,3,16,22,08,167,28,23,68,103,31,26,23,045,24,27,12,108,27*7C
$GPGSV,4,4,16,30,12,249,23,46,31,150,,48,38,197,,51,37,160,*7B
$GLGSV,3,1,09,69,40,156,24,70,76,297,09,71,24,325,,73,33,233,28*6A
$GLGSV,3,2,09,79,32,038,21,80,78,285,23,81,00,075,,87,01,345,*64
$GLGSV,3,3,09,88,07,028,*51
$GNGLL,4404.13830,N,12118.86033,W,001006.00,A,A*6A
$GNZDA,001006.00,10,01,2017,00,00*7B
$GNRMC,001007.00,A,4404.13839,N,12118.86043,W,0.065,,100117,,,A*79
$GNVTG,,T,,M,0.065,N,0.120,K,A*3D
$GNGGA,001007.00,4404.13839,N,12118.86043,W,1,12,0.98,1126.9,M,-21.4,M,,*45
$GNGSA,A,3,23,09,16,07,26,03,27,22,,,,,1.71,0.98,1.40*15
$GNGSA,A,3,80,73,79,69,,,,,,,,,1.71,0.98,1.40*12
$GPGSV,4,1,16,02,05,307,,03,21,174,29,04,12,038,28,06,07,270,14*76
$GPGSV,4,2,16,07,46,259,32,08,01,143,28,09,67,312,40,16,47,064,34*7A
$GPGSV,4,3,16,22,08,167,29,23,68,103,31,26,23,045,24,27,12,108,27*7D
$GPGSV,4,4,16,30,12,249,23,46,31,150,,48,38,197,,51,37,160,*7B
$GLGSV,3,1,09,69,40,156,25,70,76,297,07,71,24,325,,73,33,233,28*65
$GLGSV,3,2,09,79,32,038,21,80,78,285,22,81,00,075,,87,01,345,*65
$GLGSV,3,3,09,88,07,028,*51
$GNGLL,4404.13839,N,12118.86043,W,001007.00,A,A*65
$GNZDA,001007.00,10,01,2017,00,00*7A
$GNRMC,001008.00,A,4404.13863,N,12118.86056,W,0.190,,100117,,,A*76
$GNVTG,,T,,M,0.190,N,0.351,K,A*32
$GNGGA,001008.00,4404.13863,N,12118.86056,W,1,12,1.08,1125.8,M,-21.4,M,,*4B
$GNGSA,A,3,23,09,16,07,26,03,27,22,06,,,,1.90,1.08,1.57*12
$GNGSA,A,3,80,73,79,69,,,,,,,,,1.90,1.08,1.57*13
$GPGSV,4,1,16,02,05,307,,03,21,174,29,04,12,038,28,06,07,270,15*77
$GPGSV,4,2,16,07,46,259,31,08,01,143,28,09,67,312,40,16,47,064,34*79
$GPGSV,4,3,16,22,08,167,29,23,68,103,31,26,23,045,24,27,12,108,27*7D
$GPGSV,4,4,16,30,12,249,23,46,31,150,,48,38,197,,51,37,160,*7B
$GLGSV,3,1,09,69,40,156,25,70,76,297,07,71,24,325,,73,33,233,27*6A
$GLGSV,3,2,09,79,32,038,21,80,78,285,22,81,00,075,,87,01,345,*65
$GLGSV,3,3,09,88,07,028,*51
$GNGLL,4404.13863,N,12118.86056,W,001008.00,A,A*61
$GNZDA,001008.00,10,01,2017,00,00*75
$GNRMC,001009.00,A,4404.13883,N,12118.86071,W,0.178,,100117,,,A*7A
$GNVTG,,T,,M,0.178,N,0.330,K,A*33
$GNGGA,001009.00,4404.13883,N,12118.86071,W,1,12,1.08,1124.7,M,-21.4,M,,*4F
$GNGSA,A,3,23,09,16,07,26,03,27,22,06,,,,1.86,1.08,1.52*10
$GNGSA,A,3,80,70,73,79,69,,,,,,,,1.86,1.08,1.52*16
$GPGSV,4,1,16,02,05,307,,03,21,174,28,04,12,038,29,06,07,270,14*76
$GPGSV,4,2,16,07,46,259,31,08,01,143,28,09,67,312,40,16,47,064,34*79
$GPGSV,4,3,16,22,08,167,28,23,68,103,31,26,23,045,24,27,12,108,27*7C
$GPGSV,4,4,16,30,12,249,23,46,31,150,,48,38,197,,51,37,160,*7B
$GLGSV,3,1,09,69,40,156,25,70,76,297,14,71,24,325,,73,33,233,27*68
$GLGSV,3,2,09,79,32,038,21,80,78,285,22,81,00,075,,87,01,345,*65
$GLGSV,3,3,09,88,07,028,*51
$GNGLL,4404.13883,N,12118.86071,W,001009.00,A,A*6B
$GNZDA,001009.00,10,01,2017,00,00*74
$GNRMC,001010.00,A,4404.13899,N,12118.86080,W,0.128,,100117,,,A*72
$GNVTG,,T,,M,0.128,N,0.237,K,A*30
$GNGGA,001010.00,4404.13899,N,12118.86080,W,1,12,1.08,1123.8,M,-21.4,M,,*4A
$GNGSA,A,3,23,09,16,07,26,03,27,22,06,,,,1.86,1.08,1.52*10
$GNGSA,A,3,80,70,73,79,69,,,,,,,,1.86,1.08,1.52*16
$GPGSV,4,1,16,02,05,307,,03,21,174,29,04,12,038,28,06,07,270,13*71
$GPGSV,4,2,16,07,46,259,31,08,01,143,28,09,67,312,40,16,47,064,34*79
$GPGSV,4,3,16,22,08,167,29,23,68,103,31,26,23,045,23,27,12,108,27*7A
$GPGSV,4,4,16,30,12,249,23,46,31,150,,48,38,197,,51,37,160,*7B
$GLGSV,3,1,09,69,40,156,26,70,76,297,14,71,24,325,,73,33,233,27*6B
$GLGSV,3,2,09,79,32,038,21,80,78,285,23,81,00,075,,87,01,345,*64
$GLGSV,3,3,09,88,07,028,*51
$GNGLL,4404.13899,N,12118.86080,W,001010.00,A,A*66
$GNZDA,001010.00,10,01,2017,00,00*7C
$GNRMC,001011.00,A,4404.13917,N,12118.86086,W,0.144,,100117,,,A*78
$GNVTG,,T,,M,0.144,N,0.267,K,A*3F
$GNGGA,001011.00,4404.13917,N,12118.86086,W,1,12,1.08,1123.0,M,-21.4,M,,*42
$GNGSA,A,3,23,09,16,07,26,03,27,22,06,,,,1.86,1.08,1.52*10
$GNGSA,A,3,80,70,73,79,69,,,,,,,,1.86,1.08,1.52*16
$GPGSV,4,1,16,02,05,307,,03,21,174,28,04,12,038,29,06,07,270,13*71
$GPGSV,4,2,16,07,46,259,31,08,01,143,28,09,67,312,40,16,47,064,34*79
$GPGSV,4,3,16,22,08,167,29,23,68,103,30,26,23,045,23,27,12,108,27*7B
$GPGSV,4,4,16,30,12,249,23,46,31,150,,48,38,197,,51,37,160,*7B
$GLGSV,3,1,09,69,40,156,26,70,76,297,14,71,24,325,,73,33,233,27*6B
$GLGSV,3,2,09,79,32,038,21,80,78,285,23,81,00,075,,87,01,345,*64
$GLGSV,3,3,09,88,07,028,*51
$GNGLL,4404.13917,N,12118.86086,W,001011.00,A,A*66
$GNZDA,001011.00,10,01,2017,00,00*7D
$GNRMC,001012.00,A,4404.13934,N,12118.86093,W,0.105,,100117,,,A*7B
$GNVTG,,T,,M,0.105,N,0.195,K,A*34
$GNGGA,001012.00,4404.13934,N,12118.86093,W,1,12,1.08,1122.3,M,-21.4,M,,*46
$GNGSA,A,3,23,09,16,07,26,03,27,22,06,,,,1.86,1.08,1.52*10
$GNGSA,A,3,80,70,73,79,69,,,,,,,,1.86,1.08,1.52*16
$GPGSV,4,1,16,02,05,307,,03,21,174,28,04,12,038,29,06,07,270,14*76
$GPGSV,4,2,16,07,46,259,32,08,01,143,28,09,67,312,40,16,47,064,34*7A
$GPGSV,4,3,16,22,08,167,29,23,68,103,30,26,23,045,24,27,12,108,27*7C
$GPGSV,4,4,16,30,12,249,24,46,31,150,,48,38,197,,51,37,160,*7C
$GLGSV,3,1,09,69,40,156,26,70,76,297,14,71,24,325,,73,33,233,27*6B
$GLGSV,3,2,09,79,32,038,21,80,78,285,23,81,00,075,,87,01,345,*64
$GLGSV,3,3,09,88,07,028,*51
$GNGLL,4404.13934,N,12118.86093,W,001012.00,A,A*60
$GNZDA,001012.00,10,01,2017,00,00*7E
$GNRMC,001013.00,A,4404.13946,N,12118.86096,W,0.231,,100117,,,A*7E
$GNVTG,,T,,M,0.231,N,0.427,K,A*3C
$GNGGA,001013.00,4404.13946,N,12118.86096,W,1,12,1.08,1121.7,M,-21.4,M,,*40
$GNGSA,A,3,23,09,16,07,26,03,27,22,06,,,,1.90,1.08,1.57*12
$GNGSA,A,3,80,73,79,69,,,,,,,,,1.90,1.08,1.57*13
$GPGSV,4,1,16,02,05,307,,03,21,174,28,04,12,038,29,06,07,270,11*73
$GPGSV,4,2,16,07,46,259,32,08,01,143,28,09,67,312,40,16,47,064,34*7A
$GPGSV,4,3,16,22,08,167,29,23,68,103,30,26,23,045,23,27,12,108,27*7B
$GPGSV,4,4,16,30,12,249,24,46,31,150,,48,38,197,,51,37,160,*7C
$GLGSV,3,1,09,69,40,156,26,70,76,297,11,71,24,325,,73,33,233,27*6E
$GLGSV,3,2,09,79,32,038,21,80,78,285,23,81,00,075,,87,01,345,*64
$GLGSV,3,3,09,88,07,028,*51
$GNGLL,4404.13946,N,12118.86096,W,001013.00,A,A*61
$GNZDA,001013.00,10,01,2017,00,00*7F
$GNRMC,001014.00,A,4404.13957,N,12118.86095,W,0.104,,100117,,,A*7F
$GNVTG,,T,,M,0.104,N,0.193,K,A*33
$GNGGA,001014.00,4404.13957,N,12118.86095,W,1,12,1.08,1121.1,M,-21.4,M,,*42
$GNGSA,A,3,23,09,16,07,26,03,27,22,06,,,,1.90,1.08,1.57*12
$GNGSA,A,3,80,73,79,69,,,,,,,,,1.90,1.08,1.57*13
$GPGSV,4,1,16,02,05,307,,03,21,174,28,04,12,038,29,06,07,270,11*73
$GPGSV,4,2,16,07,46,259,32,08,01,143,28,09,67,312,40,16,47,064,34*7A
$GPGSV,4,3,16,22,08,167,29,23,68,103,29,26,23,045,24,27,12,108,27*74
$GPGSV,4,4,16,30,12,249,24,46,31,150,,48,38,197,,51,37,160,*7C
$GLGSV,3,1,09,69,40,157,26,70,76,297,11,71,24,325,,73,33,233,26*6E
$GLGSV,3,2,09,79,32,038,21,80,78,285,23,81,00,075,,87,01,345,*64
$GLGSV,3,3,09,88,07,028,*51
$GNGLL,4404.13957,N,12118.86095,W,001014.00,A,A*65
$GNZDA,001014.00,10,01,2017,00,00*78
$GNRMC,001015.00,A,4404.13968,N,12118.86097,W,0.067,,100117,,,A*74
$GNVTG,,T,,M,0.067,N,0.125,K,A*3A
$GNGGA,001015.00,4404.13968,N,12118.86097,W,1,12,1.08,1120.4,M,-21.4,M,,*49
$GNGSA,A,3,23,09,16,07,26,03,27,22,06,,,,1.90,1.08,1.57*12
$GNGSA,A,3,80,73,79,69,,,,,,,,,1.90,1.08,1.57*13
$GPGSV,4,1,16,02,05,307,,03,21,174,28,04,12,038,29,06,07,270,11*73
$GPGSV,4,2,16,07,46,259,32,08,01,143,28,09,67,312,40,16,47,064,34*7A
$GPGSV,4,3,16,22,08,167,30,23,68,103,29,26,23,045,24,27,12,108,27*7C
$GPGSV,4,4,16,30,12,249,24,46,31,150,,48,38,197,,51,37,160,*7C
$GLGSV,3,1,09,69,40,157,26,70,76,296,12,71,24,325,,73,33,233,26*6C
$GLGSV,3,2,09,79,32,038,22,80,78,285,23,81,00,075,,87,01,345,*67
$GLGSV,3,3,09,88,07,028,*51
$GNGLL,4404.13968,N,12118.86097,W,001015.00,A,A*6A
$GNZDA,001015.00,10,01,2017,00,00*79
$GNRMC,001016.00,A,4404.13979,N,12118.86099,W,0.056,,100117,,,A*7B
$GNVTG,,T,,M,0.056,N,0.104,K,A*3B
$GNGGA,001016.00,4404.13979,N,12118.86099,W,1,12,1.08,1119.8,M,-21.4,M,,*42
$GNGSA,A,3,23,09,16,07,26,03,27,22,06,,,,1.86,1.08,1.52*10
$GNGSA,A,3,80,70,73,79,69,,,,,,,,1.86,1.08,1.52*16
$GPGSV,4,1,16,02,05,307,,03,21,174,28,04,12,038,29,06,07,270,10*72
$GPGSV,4,2,16,07,46,259,32,08,01,143,28,09,67,312,40,16,47,064,34*7A
$GPGSV,4,3,16,22,08,167,30,23,68,103,29,26,23,045,24,27,12,108,26*7D
$GPGSV,4,4,16,30,12,249,24,46,31,150,,48,38,197,,51,37,160,*7C
$GLGSV,3,1,09,69,40,157,26,70,76,296,12,71,24,325,,73,33,233,26*6C
$GLGSV,3,2,09,79,32,038,22,80,78,285,23,81,00,075,,87,01,345,*67
$GLGSV,3,3,09,88,07,028,*51
$GNGLL,4404.13979,N,12118.86099,W,001016.00,A,A*67
$GNZDA,001016.00,10,01,2017,00,00*7A
$GNRMC,001017.00,A,4404.13987,N,12118.86095,W,0.088,,100117,,,A*74
$GNVTG,,T,,M,0.088,N,0.163,K,A*39
$GNGGA,001017.00,4404.13987,N,12118.86095,W,1,12,1.08,1119.2,M,-21.4,M,,*44
$GNGSA,A,3,23,09,16,07,26,03,27,22,,,,,1.86,1.08,1.52*16
$GNGSA,A,3,80,70,73,79,69,,,,,,,,1.86,1.08,1.52*16
$GPGSV,4,1,16,02,05,307,,03,21,174,28,04,12,038,29,06,07,270,08*7B
$GPGSV,4,2,16,07,46,259,33,08,01,143,27,09,67,312,40,16,47,064,34*74
$GPGSV,4,3,16,22,08,167,30,23,68,103,28,26,23,045,24,27,12,108,26*7C
$GPGSV,4,4,16,30,12,249,23,46,31,150,,48,38,197,,51,37,160,*7B
$GLGSV,3,1,09,69,40,157,25,70,76,296,12,71,24,325,,73,33,233,26*6F
$GLGSV,3,2,09,79,32,038,22,80,78,285,24,81,00,075,,87,01,345,*60
$GLGSV,3,3,09,88,07,028,*51
$GNGLL,4404.13987,N,12118.86095,W,001017.00,A,A*6B
$GNZDA,001017.00,10,01,2017,00,00*7B
$GNRMC,001018.00,A,4404.13996,N,12118.86091,W,0.127,,100117,,,A*7B
$GNVTG,,T,,M,0.127,N,0.235,K,A*3D
$GNGGA,001018.00,4404.13996,N,12118.86091,W,1,12,1.08,1118.6,M,-21.4,M,,*4A
$GNGSA,A,3,23,09,16,07,26,03,27,22,,,,,1.86,1.08,1.52*16
$GNGSA,A,3,80,70,73,79,69,,,,,,,,1.86,1.08,1.52*16
$GPGSV,4,1,16,02,05,307,,03,21,174,28,04,12,038,29,06,07,270,08*7B
$GPGSV,4,2,16,07,46,259,32,08,01,143,27,09,67,312,40,16,47,064,34*75
$GPGSV,4,3,16,22,08,167,29,23,68,103,28,26,23,045,24,27,12,108,26*74
$GPGSV,4,4,16,30,12,249,23,46,31,150,,48,38,197,,51,37,160,*7B
$GLGSV,3,1,09,69,40,157,25,70,76,296,12,71,24,325,,73,33,233,26*6F
$GLGSV,3,2,09,79,32,038,23,80,78,285,24,81,00,075,,87,01,345,*61
$GLGSV,3,3,09,88,07,028,*51
$GNGLL,4404.13996,N,12118.86091,W,001018.00,A,A*60
$GNZDA,001018.00,10,01,2017,00,00*74
$GNRMC,001019.00,A,4404.14001,N,12118.86088,W,0.230,,100117,,,A*77
$GNVTG,,T,,M,0.230,N,0.426,K,A*3C
$GNGGA,001019.00,4404.14001,N,12118.86088,W,1,12,1.08,1118.1,M,-21.4,M,,*44
$GNGSA,A,3,23,09,16,07,26,03,27,22,,,,,1.86,1.08,1.52*16
$GNGSA,A,3,80,70,73,79,69,,,,,,,,1.86,1.08,1.52*16
$GPGSV,4,1,16,02,05,307,,03,21,174,28,04,12,038,30,06,07,270,08*73
$GPGSV,4,2,16,07,46,259,32,08,01,143,26,09,67,312,40,16,47,064,33*73
$GPGSV,4,3,16,22,08,167,29,23,68,103,28,26,23,045,24,27,12,108,26*74
$GPGSV,4,4,16,30,12,249,22,46,31,150,,48,38,197,,51,37,160,*7A
$GLGSV,3,1,09,69,40,157,25,70,76,296,10,71,24,325,,73,33,233,25*6E
$GLGSV,3,2,09,79,32,038,23,80,78,285,23,81,00,075,,87,01,345,*66
$GLGSV,3,3,09,88,07,028,*51
$GNGLL,4404.14001,N,12118.86088,W,001019.00,A,A*69
$GNZDA,001019.00,10,01,2017,00,00*75
$GNRMC,001020.00,A,4404.14008,N,12118.86086,W,0.223,,100117,,,A*78
$GNVTG,,T,,M,0.223,N,0.413,K,A*38
$GNGGA,001020.00,4404.14008,N,12118.86086,W,1,12,1.08,1117.7,M,-21.4,M,,*40
$GNGSA,A,3,23,09,16,07,26,03,27,22,,,,,1.86,1.08,1.52*16
$GNGSA,A,3,80,70,73,79,69,,,,,,,,1.86,1.08,1.52*16
$GPGSV,4,1,16,02,05,307,,03,21,174,28,04,12,038,30,06,07,270,08*73
$GPGSV,4,2,16,07,46,259,33,08,01,143,27,09,67,312,40,16,47,064,33*73
$GPGSV,4,3,16,22,08,167,29,23,68,103,27,26,23,045,24,27,12,108,25*78
$GPGSV,4,4,16,30,12,249,22,46,31,150,,48,38,197,,51,37,160,*7A
$GLGSV,3,1,09,69,40,157,24,70,76,296,10,71,24,325,,73,33,233,24*6E
$GLGSV,3,2,09,79,32,038,23,80,78,285,23,81,00,075,,87,01,345,*66
$GLGSV,3,3,09,88,07,028,*51
$GNGLL,4404.14008,N,12118.86086,W,001020.00,A,A*64
$GNZDA,001020.00,10,01,2017,00,00*7F
$GNRMC,001021.00,A,4404.14007,N,12118.86082,W,0.035,,100117,,,A*77
$GNVTG,,T,,M,0.035,N,0.065,K,A*38
$GNGGA,001021.00,4404.14007,N,12118.86082,W,1,12,0.98,1117.5,M,-21.4,M,,*40
$GNGSA,A,3,23,09,16,07,26,03,27,22,,,,,1.67,0.98,1.35*10
$GNGSA,A,3,80,70,73,79,69,,,,,,,,1.67,0.98,1.35*10
$GPGSV,4,1,16,02,05,307,,03,21,174,28,04,12,038,30,06,07,270,08*73
$GPGSV,4,2,16,07,46,259,33,08,01,143,27,09,67,312,40,16,47,064,33*73
$GPGSV,4,3,16,22,08,167,29,23,68,103,27,26,23,045,24,27,12,108,25*78
$GPGSV,4,4,16,30,12,249,22,46,31,150,,48,38,197,,51,37,160,*7A
$GLGSV,3,1,09,69,40,157,24,70,76,296,12,71,24,325,,73,33,233,23*6B
$GLGSV,3,2,09,79,32,038,23,80,78,285,23,81,00,075,,87,01,345,*66
$GLGSV,3,3,09,88,07,028,*51
$GNGLL,4404.14007,N,12118.86082,W,001021.00,A,A*6E
$GNZDA,001021.00,10,01,2017,00,00*7E
$GNRMC,001022.00,A,4404.14002,N,12118.86077,W,0.117,,100117,,,A*7A
$GNVTG,,T,,M,0.117,N,0.217,K,A*3E
$GNGGA,001022.00,4404.14002,N,12118.86077,W,1,12,0.98,1117.4,M,-21.4,M,,*4D
$GNGSA,A,3,23,09,16,07,26,03,27,22,,,,,1.67,0.98,1.35*10
$GNGSA,A,3,80,70,73,79,69,,,,,,,,1.67,0.98,1.35*10
$GPGSV,4,1,16,02,05,307,,03,21,174,27,04,12,038,30,06,07,270,08*7C
$GPGSV,4,2,16,07,46,259,33,08,01,143,28,09,67,312,40,16,47,064,33*7C
$GPGSV,4,3,16,22,08,167,30,23,68,103,26,26,23,045,24,27,12,108,25*71
$GPGSV,4,4,16,30,12,249,22,46,31,150,,48,38,197,,51,37,160,*7A
$GLGSV,3,1,09,69,40,157,23,70,76,296,12,71,24,325,,73,33,233,23*6C
$GLGSV,3,2,09,79,32,038,23,80,78,285,24,81,00,075,,87,01,345,*61
$GLGSV,3,3,09,88,07,028,*51
$GNGLL,4404.14002,N,12118.86077,W,001022.00,A,A*62
$GNZDA,001022.00,10,01,2017,00,00*7D
$GNRMC,001023.00,A,4404.13994,N,12118.86069,W,0.087,,100117,,,A*7D
$GNVTG,,T,,M,0.087,N,0.162,K,A*37
$GNGGA,001023.00,4404.13994,N,12118.86069,W,1,12,0.98,1117.5,M,-21.4,M,,*43
$GNGSA,A,3,23,09,16,07,26,03,27,22,,,,,1.67,0.98,1.35*10
$GNGSA,A,3,80,70,73,79,69,,,,,,,,1.67,0.98,1.35*10
$GPGSV,4,1,16,02,05,307,,03,21,174,28,04,12,038,30,06,07,270,08*73
$GPGSV,4,2,16,07,46,259,33,08,01,143,28,09,67,312,41,16,47,064,33*7D
$GPGSV,4,3,16,22,08,167,30,23,68,103,26,26,23,045,24,27,12,108,26*72
$GPGSV,4,4,16,30,12,249,22,46,31,150,,48,38,197,,51,37,160,*7A
$GLGSV,3,1,09,69,40,157,23,70,76,296,12,71,24,325,,73,33,233,22*6D
$GLGSV,3,2,09,79,32,038,23,80,78,285,24,81,00,075,,87,01,345,*61
$GLGSV,3,3,09,88,07,028,*51
$GNGLL,4404.13994,N,12118.86069,W,001023.00,A,A*6D
$GNZDA,001023.00,10,01,2017,00,00*7C
$GNRMC,001024.00,A,4404.13992,N,12118.86063,W,0.045,,100117,,,A*78
$GNVTG,,T,,M,0.045,N,0.083,K,A*37
$GNGGA,001024.00,4404.13992,N,12118.86063,W,1,12,0.98,1117.3,M,-21.4,M,,*4E
$GNGSA,A,3,23,09,16,07,26,03,27,22,,,,,1.67,0.98,1.35*10
$GNGSA,A,3,80,70,73,79,69,,,,,,,,1.67,0.98,1.35*10
$GPGSV,4,1,16,02,05,307,,03,21,174,27,04,12,038,30,06,07,270,08*7C
$GPGSV,4,2,16,07,46,259,34,08,01,143,28,09,67,312,40,16,47,064,33*7B
$GPGSV,4,3,16,22,08,167,31,23,68,103,25,26,23,045,24,27,12,108,26*70
$GPGSV,4,4,16,30,12,249,22,46,31,150,,48,38,197,,51,37,160,*7A
$GLGSV,3,1,09,69,40,157,23,70,76,296,12,71,24,325,,73,33,233,21*6E
$GLGSV,3,2,09,79,31,038,24,80,78,285,25,81,00,075,,87,01,345,*64
$GLGSV,3,3,09,88,07,028,*51
$GNGLL,4404.13992,N,12118.86063,W,001024.00,A,A*66
$GNZDA,001024.00,10,01,2017,00,00*7B
$GNRMC,001025.00,A,4404.13990,N,12118.86058,W,0.020,,100117,,,A*70
$GNVTG,,T,,M,0.020,N,0.038,K,A*34
$GNGGA,001025.00,4404.13990,N,12118.86058,W,1,12,0.98,1117.0,M,-21.4,M,,*46
$GNGSA,A,3,23,09,16,07,26,03,27,22,,,,,1.71,0.98,1.40*15
$GNGSA,A,3,80,73,79,69,,,,,,,,,1.71,0.98,1.40*12
$GPGSV,4,1,16,02,05,307,,03,21,174,27,04,12,038,30,06,07,270,08*7C
$GPGSV,4,2,16,07,46,259,34,08,01,143,27,09,67,312,40,16,47,064,32*75
$GPGSV,4,3,16,22,08,167,31,23,68,103,26,26,23,045,24,27,12,108,26*73
$GPGSV,4,4,16,30,12,249,22,46,31,150,,48,38,197,,51,37,160,*7A
$GLGSV,3,1,09,69,40,157,22,70,76,296,,71,24,325,06,73,33,233,20*6B
$GLGSV,3,2,09,79,31,038,23,80,78,288,24,81,00,075,,87,01,345,*6F
$GLGSV,3,3,09,88,07,028,*51
$GNGLL,4404.13990,N,12118.86058,W,001025.00,A,A*6D
$GNZDA,001025.00,10,01,2017,00,00*7A
$GNRMC,001026.00,A,4404.13990,N,12118.86053,W,0.174,,100117,,,A*78
$GNVTG,,T,,M,0.174,N,0.322,K,A*3C
$GNGGA,001026.00,4404.13990,N,12118.86053,W,1,12,0.98,1116.7,M,-21.4,M,,*48
$GNGSA,A,3,23,09,16,07,26,03,27,22,,,,,1.71,0.98,1.40*15
$GNGSA,A,3,80,73,79,69,,,,,,,,,1.71,0.98,1.40*12
$GPGSV,4,1,16,02,05,307,,03,21,174,27,04,12,038,30,06,07,270,08*7C
$GPGSV,4,2,16,07,46,259,34,08,01,143,27,09,67,312,40,16,47,064,32*75
$GPGSV,4,3,16,22,08,167,30,23,68,103,25,26,23,045,23,27,12,108,26*76
$GPGSV,4,4,16,30,12,249,22,46,31,150,,48,38,197,,51,37,160,*7A
$GLGSV,3,1,09,69,40,157,21,70,76,296,,71,24,325,,73,33,233,18*65
$GLGSV,3,2,09,79,31,038,23,80,78,288,24,81,00,075,,87,01,345,*6F
$GLGSV,3,3,09,88,07,028,*51
$GNGLL,4404.13990,N,12118.86053,W,001026.00,A,A*65
$GNZDA,001026.00,10,01,2017,00,00*79
$GNRMC,001027.00,A,4404.13990,N,12118.86048,W,0.193,,100117,,,A*7A
$GNVTG,,T,,M,0.193,N,0.358,K,A*38
$GNGGA,001027.00,4404.13990,N,12118.86048,W,1,12,0.98,1116.3,M,-21.4,M,,*47
$GNGSA,A,3,23,09,16,07,26,03,27,22,,,,,1.71,0.98,1.40*15
$GNGSA,A,3,80,73,79,69,,,,,,,,,1.71,0.98,1.40*12
$GPGSV,4,1,16,02,05,307,,03,21,174,27,04,12,038,30,06,07,270,08*7C
$GPGSV,4,2,16,07,46,259,34,08,01,143,27,09,67,312,40,16,47,064,32*75
$GPGSV,4,3,16,22,08,167,30,23,68,103,25,26,23,045,23,27,12,108,27*77
$GPGSV,4,4,16,30,12,249,22,46,31,150,,48,38,197,,51,37,160,*7A
$GLGSV,3,1,09,69,40,157,21,70,76,296,,71,24,325,,73,33,233,18*65
$GLGSV,3,2,09,79,31,038,23,80,78,288,24,81,00,075,,87,01,345,*6F
$GLGSV,3,3,09,88,07,028,*51
$GNGLL,4404.13990,N,12118.86048,W,001027.00,A,A*6E
$GNZDA,001027.00,10,01,2017,00,00*78
$GNRMC,001028.00,A,4404.13995,N,12118.86044,W,0.067,,100117,,,A*76
$GNVTG,,T,,M,0.067,N,0.124,K,A*3B
$GNGGA,001028.00,4404.13995,N,12118.86044,W,1,12,0.98,1115.8,M,-21.4,M,,*49
$GNGSA,A,3,23,09,16,07,26,03,27,22,,,,,1.71,0.98,1.40*15
$GNGSA,A,3,80,73,79,69,,,,,,,,,1.71,0.98,1.40*12
$GPGSV,4,1,16,02,05,307,,03,21,174,26,04,12,038,30,06,07,270,08*7D
$GPGSV,4,2,16,07,46,259,34,08,01,143,27,09,67,312,40,16,47,064,32*75
$GPGSV,4,3,16,22,08,167,30,23,68,103,25,26,23,045,23,27,12,108,27*77
$GPGSV,4,4,16,30,12,249,22,46,31,150,,48,38,197,,51,37,160,*7A
$GLGSV,3,1,09,69,40,157,21,70,76,296,,71,24,325,,73,33,233,17*6A
$GLGSV,3,2,09,79,31,038,22,80,78,288,23,81,00,075,,87,01,345,*69
$GLGSV,3,3,09,88,07,028,*51
$GNGLL,4404.13995,N,12118.86044,W,001028.00,A,A*68
$GNZDA,001028.00,10,01,2017,00,00*77
$GNRMC,001029.00,A,4404.13997,N,12118.86039,W,0.241,,100117,,,A*79
$GNVTG,,T,,M,0.241,N,0.446,K,A*3C
$GNGGA,001029.00,4404.13997,N,12118.86039,W,1,12,0.98,1115.6,M,-21.4,M,,*4E
$GNGSA,A,3,23,09,16,07,26,03,27,22,,,,,1.71,0.98,1.40*15
$GNGSA,A,3,80,73,79,69,,,,,,,,,1.71,0.98,1.40*12
$GPGSV,4,1,16,02,05,307,,03,21,174,26,04,12,038,30,06,07,270,08*7D
$GPGSV,4,2,16,07,46,259,34,08,01,143,27,09,67,312,41,16,47,064,32*74
$GPGSV,4,3,16,22,08,167,31,23,68,103,26,26,23,045,22,27,12,108,27*74
$GPGSV,4,4,16,30,12,249,22,46,31,150,,48,38,197,,51,37,160,*7A
$GLGSV,3,1,09,69,40,157,20,70,76,296,,71,24,325,,73,33,233,16*6A
$GLGSV,3,2,09,79,31,038,21,80,78,288,23,81,00,075,,87,01,345,*6A
$GLGSV,3,3,09,88,07,028,*51
$GNGLL,4404.13997,N,12118.86039,W,001029.00,A,A*61
$GNZDA,001029.00,10,01,2017,00,00*76
$GNRMC,001030.00,A,4404.13994,N,12118.86031,W,0.245,,100117,,,A*7E
$GNVTG,,T,,M,0.245,N,0.453,K,A*3C
$GNGGA,001030.00,4404.13994,N,12118.86031,W,1,12,0.98,1115.4,M,-21.4,M,,*4F
$GNGSA,A,3,23,09,16,07,26,03,27,22,,,,,1.71,0.98,1.40*15
$GNGSA,A,3,80,73,79,69,,,,,,,,,1.71,0.98,1.40*12
$GPGSV,4,1,16,02,05,307,,03,21,174,27,04,12,038,30,06,07,270,08*7C
$GPGSV,4,2,16,07,46,259,34,08,01,143,28,09,67,312,40,16,47,064,32*7A
$GPGSV,4,3,16,22,08,167,31,23,68,103,26,26,23,045,23,27,12,108,27*75
$GPGSV,4,4,16,30,12,249,23,46,31,150,,48,38,197,,51,37,160,*7B
$GLGSV,3,1,09,69,40,157,20,70,76,296,,71,24,325,,73,33,233,15*69
$GLGSV,3,2,09,79,31,038,22,80,78,288,23,81,00,075,,87,01,345,*69
$GLGSV,3,3,09,88,07,028,*51
$GNGLL,4404.13994,N,12118.86031,W,001030.00,A,A*62
$GNZDA,001030.00,10,01,2017,00,00*7E
$GNRMC,001031.00,A,4404.13993,N,12118.86023,W,0.146,,100117,,,A*7B
$GNVTG,,T,,M,0.146,N,0.270,K,A*3B
$GNGGA,001031.00,4404.13993,N,12118.86023,W,1,12,0.98,1115.3,M,-21.4,M,,*4D
$GNGSA,A,3,23,09,16,07,26,03,27,22,,,,,1.71,0.98,1.40*15
$GNGSA,A,3,80,73,79,69,,,,,,,,,1.71,0.98,1.40*12
$GPGSV,4,1,16,02,05,307,,03,21,174,26,04,12,038,30,06,07,270,08*7D
$GPGSV,4,2,16,07,46,259,34,08,01,143,28,09,67,312,40,16,47,064,32*7A
$GPGSV,4,3,16,22,08,167,31,23,68,103,26,26,23,045,23,27,12,108,28*7A
$GPGSV,4,4,16,30,12,249,23,46,31,150,,48,38,197,,51,37,160,*7B
$GLGSV,3,1,09,69,40,157,20,70,76,296,,71,24,325,08,73,33,233,16*62
$GLGSV,3,2,09,79,31,038,22,80,78,288,23,81,00,075,,87,01,345,*69
$GLGSV,3,3,09,88,07,028,*51
$GNGLL,4404.13993,N,12118.86023,W,001031.00,A,A*67
$GNZDA,001031.00,10,01,2017,00,00*7F
$GNRMC,001032.00,A,4404.13997,N,12118.86018,W,0.024,,100117,,,A*71
$GNVTG,,T,,M,0.024,N,0.045,K,A*3A
$GNGGA,001032.00,4404.13997,N,12118.86018,W,1,12,0.98,1115.0,M,-21.4,M,,*41
$GNGSA,A,3,23,09,16,07,26,03,27,22,,,,,1.71,0.98,1.40*15
$GNGSA,A,3,80,73,79,69,,,,,,,,,1.71,0.98,1.40*12
$GPGSV,4,1,16,02,05,307,,03,21,174,26,04,12,038,30,06,07,270,08*7D
$GPGSV,4,2,16,07,46,259,34,08,01,143,28,09,67,312,41,16,47,064,32*7B
$GPGSV,4,3,16,22,08,167,31,23,68,103,27,26,23,045,22,27,12,108,28*7A
$GPGSV,4,4,16,30,12,249,23,46,31,150,,48,38,197,,51,37,160,*7B
$GLGSV,3,1,09,69,40,157,19,70,76,296,,71,24,325,12,73,33,233,16*63
$GLGSV,3,2,09,79,31,038,22,80,78,288,23,81,00,075,,87,01,344,*68
$GLGSV,3,3,09,88,07,028,*51
$GNGLL,4404.13997,N,12118.86018,W,001032.00,A,A*68
$GNZDA,001032.00,10,01,2017,00,00*7C
$GNRMC,001033.00,A,4404.13998,N,12118.86011,W,0.121,,100117,,,A*72
$GNVTG,,T,,M,0.121,N,0.225,K,A*3A
$GNGGA,001033.00,4404.13998,N,12118.86011,W,1,12,0.98,1114.8,M,-21.4,M,,*4F
$GNGSA,A,3,23,09,16,07,26,03,27,22,,,,,1.71,0.98,1.40*15
$GNGSA,A,3,80,73,79,69,,,,,,,,,1.71,0.98,1.40*12
$GPGSV,4,1,16,02,05,307,,03,21,174,26,04,12,038,30,06,07,270,08*7D
$GPGSV,4,2,16,07,46,259,35,08,01,143,27,09,67,312,41,16,47,064,32*75
$GPGSV,4,3,16,22,08,167,31,23,68,103,27,26,23,045,22,27,12,108,29*7B
$GPGSV,4,4,16,30,12,249,23,46,31,150,,48,38,197,,51,37,160,*7B
$GLGSV,3,1,09,69,40,157,18,70,76,296,,71,24,325,14,73,33,233,17*65
$GLGSV,3,2,09,79,31,038,22,80,78,288,23,81,00,075,,87,01,344,*68
$GLGSV,3,3,09,88,07,028,*51
$GNGLL,4404.13998,N,12118.86011,W,001033.00,A,A*6F
$GNZDA,001033.00,10,01,2017,00,00*7D
$GNRMC,001034.00,A,4404.14004,N,12118.86007,W,0.049,,100117,,,A*76
$GNVTG,,T,,M,0.049,N,0.090,K,A*39
$GNGGA,001034.00,4404.14004,N,12118.86007,W,1,12,0.98,1114.4,M,-21.4,M,,*48
$GNGSA,A,3,23,09,16,07,26,03,27,22,,,,,1.71,0.98,1.40*15
$GNGSA,A,3,80,73,79,69,,,,,,,,,1.71,0.98,1.40*12
$GPGSV,4,1,16,02,05,307,,03,21,174,26,04,12,038,31,06,07,270,*74
$GPGSV,4,2,16,07,46,259,35,08,01,143,26,09,67,312,41,16,47,064,32*74
$GPGSV,4,3,16,22,08,167,31,23,68,103,28,26,23,045,22,27,12,108,29*74
$GPGSV,4,4,16,30,12,249,23,46,31,150,,48,38,197,,51,37,160,*7B
$GLGSV,3,1,09,69,40,157,19,70,76,296,,71,24,325,16,73,33,233,17*66
$GLGSV,3,2,09,79,31,038,22,80,78,288,23,81,00,075,,87,01,344,*68
$GLGSV,3,3,09,88,07,028,*51
$GNGLL,4404.14004,N,12118.86007,W,001034.00,A,A*64
$GNZDA,001034.00,10,01,2017,00,00*7A
$GNRMC,001035.00,A,4404.14006,N,12118.86003,W,0.025,,100117,,,A*7B
$GNVTG,,T,,M,0.025,N,0.046,K,A*38
$GNGGA,001035.00,4404.14006,N,12118.86003,W,1,12,0.98,1114.3,M,-21.4,M,,*48
$GNGSA,A,3,23,09,16,07,26,03,27,22,,,,,1.71,0.98,1.40*15
$GNGSA,A,3,80,71,73,79,69,,,,,,,,1.71,0.98,1.40*14
$GPGSV,4,1,16,02,05,307,,03,21,174,26,04,12,038,31,06,07,270,*74
$GPGSV,4,2,16,07,46,259,35,08,01,143,26,09,67,312,41,16,47,064,32*74
$GPGSV,4,3,16,22,08,167,31,23,68,103,29,26,23,045,22,27,12,108,30*7D
$GPGSV,4,4,16,30,12,249,24,46,31,150,,48,38,197,,51,37,160,*7C
$GLGSV,3,1,09,69,40,157,20,70,76,296,,71,24,325,17,73,33,233,17*6D
$GLGSV,3,2,09,79,31,038,22,80,78,288,23,81,00,075,,87,01,344,*68
$GLGSV,3,3,09,88,07,028,*51
$GNGLL,4404.14006,N,12118.86003,W,001035.00,A,A*63
$GNZDA,001035.00,10,01,2017,00,00*7B
$GNRMC,001036.00,A,4404.14013,N,12118.86001,W,0.035,,100117,,,A*7F
$GNVTG,,T,,M,0.035,N,0.066,K,A*3B
$GNGGA,001036.00,4404.14013,N,12118.86001,W,1,12,0.98,1114.0,M,-21.4,M,,*4E
$GNGSA,A,3,23,09,16,07,26,03,27,22,,,,,1.71,0.98,1.40*15
$GNGSA,A,3,80,71,73,79,69,,,,,,,,1.71,0.98,1.40*14
$GPGSV,4,1,16,02,05,306,,03,21,174,26,04,12,038,31,06,07,270,*75
$GPGSV,4,2,16,07,46,259,35,08,01,143,26,09,67,312,41,16,47,064,32*74
$GPGSV,4,3,16,22,08,167,31,23,68,103,29,26,23,045,23,27,12,108,30*7C
$GPGSV,4,4,16,30,12,249,23,46,31,150,,48,38,197,,51,37,160,*7B
$GLGSV,3,1,09,69,40,157,20,70,76,296,,71,24,325,18,73,33,233,17*62
$GLGSV,3,2,09,79,31,038,23,80,78,288,23,81,00,075,,87,01,344,*69
$GLGSV,3,3,09,88,07,028,*51
$GNGLL,4404.14013,N,12118.86001,W,001036.00,A,A*66
$GNZDA,001036.00,10,01,2017,00,00*78
$GNRMC,001037.00,A,4404.14012,N,12118.85993,W,0.127,,100117,,,A*7C
$GNVTG,,T,,M,0.127,N,0.236,K,A*3E
$GNGGA,001037.00,4404.14012,N,12118.85993,W,1,12,0.98,1114.0,M,-21.4,M,,*4F
$GNGSA,A,3,23,09,16,07,26,03,27,22,,,,,1.71,0.98,1.40*15
$GNGSA,A,3,80,71,73,79,69,,,,,,,,1.71,0.98,1.40*14
$GPGSV,4,1,16,02,05,306,,03,20,174,26,04,12,038,31,06,07,270,*74
$GPGSV,4,2,16,07,46,259,35,08,01,143,27,09,67,312,41,16,47,064,32*75
$GPGSV,4,3,16,22,08,167,31,23,68,103,29,26,23,045,22,27,12,108,30*7D
$GPGSV,4,4,16,30,12,249,23,46,31,150,,48,38,197,,51,37,160,*7B
$GLGSV,3,1,09,69,40,157,19,70,76,296,,71,24,325,19,73,33,233,17*69
$GLGSV,3,2,09,79,31,038,23,80,78,288,23,81,00,075,,87,01,344,*69
$GLGSV,3,3,09,88,07,028,*51
$GNGLL,4404.14012,N,12118.85993,W,001037.00,A,A*67
$GNZDA,001037.00,10,01,2017,00,00*79
$GNRMC,001038.00,A,4404.14008,N,12118.85985,W,0.248,,100117,,,A*75
$GNVTG,,T,,M,0.248,N,0.460,K,A*31
$GNGGA,001038.00,4404.14008,N,12118.85985,W,1,12,0.98,1114.0,M,-21.4,M,,*4C
$GNGSA,A,3,23,09,16,07,26,03,27,22,,,,,1.71,0.98,1.40*15
$GNGSA,A,3,80,71,73,79,69,,,,,,,,1.71,0.98,1.40*14
$GPGSV,4,1,16,02,05,306,,03,20,174,26,04,12,038,30,06,07,270,*75
$GPGSV,4,2,16,07,46,259,35,08,01,143,28,09,67,312,41,16,47,064,32*7A
$GPGSV,4,3,16,22,08,167,31,23,68,103,29,26,23,045,22,27,12,108,30*7D
$GPGSV,4,4,16,30,12,249,23,46,31,150,,48,38,197,,51,37,160,*7B
$GLGSV,3,1,09,69,40,157,19,70,76,296,,71,24,325,19,73,33,233,17*69
$GLGSV,3,2,09,79,31,038,23,80,78,288,24,81,00,075,,87,01,344,*6E
$GLGSV,3,3,09,88,07,028,*51
$GNGLL,4404.14008,N,12118.85985,W,001038.00,A,A*64
$GNZDA,001038.00,10,01,2017,00,00*76
$GNRMC,001039.00,A,4404.14012,N,12118.85982,W,0.223,,100117,,,A*75
$GNVTG,,T,,M,0.223,N,0.413,K,A*38
$GNGGA,001039.00,4404.14012,N,12118.85982,W,1,12,0.98,1113.8,M,-21.4,M,,*4E
$GNGSA,A,3,23,09,16,07,26,03,27,22,,,,,1.71,0.98,1.40*15
$GNGSA,A,3,80,71,73,79,69,,,,,,,,1.71,0.98,1.40*14
$GPGSV,4,1,16,02,05,306,,03,20,174,26,04,12,038,30,06,07,270,*75
$GPGSV,4,2,16,07,46,259,35,08,01,143,28,09,67,312,41,16,47,064,32*7A
$GPGSV,4,3,16,22,08,167,31,23,68,103,30,26,23,045,23,27,12,108,31*75
$GPGSV,4,4,16,30,12,249,24,46,31,150,,48,38,197,,51,37,160,*7C
$GLGSV,3,1,09,69,40,157,18,70,76,296,,71,24,325,19,73,33,233,18*67
$GLGSV,3,2,09,79,31,038,22,80,78,288,24,81,00,075,,87,01,344,*6F
$GLGSV,3,3,09,88,07,028,*51
$GNGLL,4404.14012,N,12118.85982,W,001039.00,A,A*69
$GNZDA,001039.00,10,01,2017,00,00*77
$GNRMC,001040.00,A,4404.14019,N,12118.85978,W,0.137,,100117,,,A*73
$GNVTG,,T,,M,0.137,N,0.254,K,A*3B
$GNGGA,001040.00,4404.14019,N,12118.85978,W,1,12,0.98,1113.6,M,-21.3,M,,*47
$GNGSA,A,3,23,09,16,07,26,03,27,22,,,,,1.71,0.98,1.40*15
$GNGSA,A,3,80,71,73,79,69,,,,,,,,1.71,0.98,1.40*14
$GPGSV,4,1,16,02,05,306,,03,20,174,25,04,12,038,31,06,07,270,*77
$GPGSV,4,2,16,07,46,259,35,08,01,143,28,09,67,312,41,16,47,064,32*7A
$GPGSV,4,3,16,22,08,167,31,23,68,103,31,26,23,045,22,27,12,108,31*75
$GPGSV,4,4,16,30,12,249,24,46,31,150,,48,38,197,,51,37,160,*7C
$GLGSV,3,1,09,69,40,157,18,70,76,296,,71,24,325,20,73,33,233,19*6C
$GLGSV,3,2,09,79,31,038,22,80,78,288,23,81,00,075,,87,01,344,*68
$GLGSV,3,3,09,88,07,028,*51
$GNGLL,4404.14019,N,12118.85978,W,001040.00,A,A*69
$GNZDA,001040.00,10,01,2017,00,00*79
$GNRMC,001041.00,A,4404.14026,N,12118.85972,W,0.071,,100117,,,A*77
$GNVTG,,T,,M,0.071,N,0.131,K,A*38
$GNGGA,001041.00,4404.14026,N,12118.85972,W,1,12,0.98,1113.3,M,-21.3,M,,*45
$GNGSA,A,3,23,09,16,07,26,03,27,22,,,,,1.71,0.98,1.40*15
$GNGSA,A,3,80,71,73,79,69,,,,,,,,1.71,0.98,1.40*14
$GPGSV,4,1,16,02,05,306,,03,20,174,25,04,12,038,31,06,07,270,*77
$GPGSV,4,2,16,07,46,259,35,08,01,143,27,09,67,312,41,16,47,064,32*75
$GPGSV,4,3,16,22,08,167,31,23,68,103,31,26,23,045,22,27,12,108,31*75
$GPGSV,4,4,16,30,12,249,25,46,31,150,,48,38,197,,51,37,160,*7D
$GLGSV,3,1,09,69,40,157,19,70,76,296,,71,24,325,20,73,33,233,20*67
$GLGSV,3,2,09,79,31,038,22,80,78,288,23,81,00,075,,87,01,344,*68
$GLGSV,3,3,09,88,07,028,*51
$GNGLL,4404.14026,N,12118.85972,W,001041.00,A,A*6E
$GNZDA,001041.00,10,01,2017,00,00*78
$GNRMC,001042.00,A,4404.14030,N,12118.85968,W,0.161,,100117,,,A*78
$GNVTG,,T,,M,0.161,N,0.298,K,A*38
$GNGGA,001042.00,4404.14030,N,12118.85968,W,1,12,0.98,1113.1,M,-21.3,M,,*48
$GNGSA,A,3,23,09,16,07,26,03,27,22,,,,,1.71,0.98,1.40*15
$GNGSA,A,3,80,71,73,79,69,,,,,,,,1.71,0.98,1.40*14
$GPGSV,4,1,16,02,05,306,,03,20,174,25,04,12,038,31,06,07,270,*77
$GPGSV,4,2,16,07,46,259,35,08,01,143,27,09,67,312,41,16,47,064,32*75
$GPGSV,4,3,16,22,08,167,32,23,68,103,31,26,23,045,22,27,12,108,31*76
$GPGSV,4,4,16,30,12,249,25,46,31,150,,48,38,197,,51,37,160,*7D
$GLGSV,3,1,09,69,40,157,19,70,76,296,,71,24,325,21,73,33,233,20*66
$GLGSV,3,2,09,79,31,038,21,80,78,288,24,81,00,075,,87,01,344,*6C
$GLGSV,3,3,09,88,07,028,*51
$GNGLL,4404.14030,N,12118.85968,W,001042.00,A,A*61
$GNZDA,001042.00,10,01,2017,00,00*7B
$GNRMC,001043.00,A,4404.14036,N,12118.85961,W,0.032,,100117,,,A*71
$GNVTG,,T,,M,0.032,N,0.060,K,A*3A
$GNGGA,001043.00,4404.14036,N,12118.85961,W,1,12,0.98,1113.0,M,-21.3,M,,*47
$GNGSA,A,3,23,09,16,07,26,03,27,22,,,,,1.71,0.98,1.40*15
$GNGSA,A,3,80,71,73,79,69,,,,,,,,1.71,0.98,1.40*14
$GPGSV,4,1,16,02,05,306,,03,20,174,26,04,12,038,31,06,07,270,*74
$GPGSV,4,2,16,07,46,259,36,08,01,143,27,09,67,312,41,16,47,064,32*76
$GPGSV,4,3,16,22,08,167,31,23,68,103,31,26,23,045,23,27,12,108,31*74
$GPGSV,4,4,16,30,12,249,25,46,31,150,,48,38,197,,51,37,160,*7D
$GLGSV,3,1,09,69,40,157,19,70,76,296,,71,24,325,21,73,33,233,21*67
$GLGSV,3,2,09,79,31,038,21,80,78,288,23,81,00,075,,87,01,344,*6B
$GLGSV,3,3,09,88,07,028,*51
$GNGLL,4404.14036,N,12118.85961,W,001043.00,A,A*6F
$GNZDA,001043.00,10,01,2017,00,00*7A
$GNRMC,001044.00,A,4404.14037,N,12118.85951,W,0.016,,100117,,,A*72
$GNVTG,,T,,M,0.016,N,0.030,K,A*39
$GNGGA,001044.00,4404.14037,N,12118.85951,W,1,12,0.98,1113.0,M,-21.3,M,,*42
$GNGSA,A,3,23,09,16,07,26,03,27,22,,,,,1.71,0.98,1.40*15
$GNGSA,A,3,80,71,73,79,69,,,,,,,,1.71,0.98,1.40*14
$GPGSV,4,1,16,02,05,306,,03,20,174,26,04,12,038,31,06,07,270,*74
$GPGSV,4,2,16,07,46,259,36,08,01,143,27,09,67,312,41,16,47,064,32*76
$GPGSV,4,3,16,22,08,167,32,23,68,103,31,26,23,045,23,27,12,108,31*77
$GPGSV,4,4,16,30,12,249,25,46,31,150,,48,38,197,,51,37,160,*7D
$GLGSV,3,1,09,69,40,157,19,70,76,296,,71,24,325,22,73,33,233,20*65
$GLGSV,3,2,09,79,31,038,21,80,78,288,23,81,00,075,,87,01,344,*6B
$GLGSV,3,3,09,88,07,028,*51
$GNGLL,4404.14037,N,12118.85951,W,001044.00,A,A*6A
$GNZDA,001044.00,10,01,2017,00,00*7D
$GNRMC,001045.00,A,4404.14041,N,12118.85941,W,0.142,,100117,,,A*73
$GNVTG,,T,,M,0.142,N,0.263,K,A*3D
$GNGGA,001045.00,4404.14041,N,12118.85941,W,1,12,0.98,1113.0,M,-21.3,M,,*43
$GNGSA,A,3,23,09,16,07,26,03,27,22,,,,,1.71,0.98,1.40*15
$GNGSA,A,3,80,71,73,79,69,,,,,,,,1.71,0.98,1.40*14
$GPGSV,4,1,16,02,05,306,,03,20,174,26,04,12,038,31,06,07,270,*74
$GPGSV,4,2,16,07,46,259,36,08,01,143,26,09,67,312,41,16,47,064,32*77
$GPGSV,4,3,16,22,08,167,32,23,68,103,31,26,23,045,23,27,12,108,31*77
$GPGSV,4,4,16,30,12,249,25,46,31,150,,48,38,197,,51,37,160,*7D
$GLGSV,3,1,09,69,40,157,19,70,76,296,,71,24,325,22,73,33,233,21*64
$GLGSV,3,2,09,79,31,038,21,80,78,288,23,81,00,075,,87,01,344,*6B
$GLGSV,3,3,09,88,07,028,*51
$GNGLL,4404.14041,N,12118.85941,W,001045.00,A,A*6B
$GNZDA,001045.00,10,01,2017,00,00*7C
$GNRMC,001046.00,A,4404.14048,N,12118.85935,W,0.184,,100117,,,A*70
$GNVTG,,T,,M,0.184,N,0.340,K,A*37
$GNGGA,001046.00,4404.14048,N,12118.85935,W,1,12,0.98,1112.9,M,-21.3,M,,*42
$GNGSA,A,3,23,09,16,07,26,03,27,22,,,,,1.71,0.98,1.40*15
$GNGSA,A,3,80,71,73,79,69,,,,,,,,1.71,0.98,1.40*14
$GPGSV,4,1,16,02,05,306,,03,20,174,27,04,12,038,31,06,07,270,*75
$GPGSV,4,2,16,07,46,259,36,08,01,143,27,09,67,312,41,16,47,064,32*76
$GPGSV,4,3,16,22,08,167,31,23,68,103,32,26,23,045,23,27,12,108,31*77
$GPGSV,4,4,16,30,12,249,25,46,31,150,,48,38,197,,51,37,160,*7D
$GLGSV,3,1,09,69,40,157,19,70,76,296,,71,24,325,22,73,33,233,21*64
$GLGSV,3,2,09,79,31,038,21,80,78,288,23,81,00,075,,87,01,344,*6B
$GLGSV,3,3,09,88,07,028,*51
$GNGLL,4404.14048,N,12118.85935,W,001046.00,A,A*62
$GNZDA,001046.00,10,01,2017,00,00*7F
$GNRMC,001047.00,A,4404.14055,N,12118.85927,W,0.037,,100117,,,A*77
$GNVTG,,T,,M,0.037,N,0.068,K,A*37
$GNGGA,001047.00,4404.14055,N,12118.85927,W,1,12,0.98,1112.9,M,-21.3,M,,*4C
$GNGSA,A,3,23,09,16,07,26,03,27,22,,,,,1.71,0.98,1.40*15
$GNGSA,A,3,80,71,73,79,69,,,,,,,,1.71,0.98,1.40*14
$GPGSV,4,1,16,02,05,306,,03,20,174,27,04,12,038,31,06,07,270,*75
$GPGSV,4,2,16,07,46,259,36,08,01,143,26,09,67,312,40,16,47,064,33*77
$GPGSV,4,3,16,22,08,167,31,23,68,103,31,26,23,045,23,27,12,108,31*74
$GPGSV,4,4,16,30,12,249,25,46,31,150,,48,38,197,,51,37,160,*7D
$GLGSV,3,1,09,69,40,157,18,70,76,296,,71,24,325,21,73,33,233,21*66
$GLGSV,3,2,09,79,31,038,20,80,78,288,23,81,00,075,,87,01,344,*6A
$GLGSV,3,3,09,88,07,028,*51
$GNGLL,4404.14055,N,12118.85927,W,001047.00,A,A*6C
$GNZDA,001047.00,10,01,2017,00,00*7E
$GNRMC,001048.00,A,4404.14063,N,12118.85920,W,0.064,,100117,,,A*7C
$GNVTG,,T,,M,0.064,N,0.118,K,A*37
$GNGGA,001048.00,4404.14063,N,12118.85920,W,1,12,1.08,1112.7,M,-21.3,M,,*47
$GNGSA,A,3,23,09,16,07,26,03,27,22,,,,,1.83,1.08,1.47*17
$GNGSA,A,3,80,71,73,79,69,,,,,,,,1.83,1.08,1.47*16
$GPGSV,4,1,16,02,05,306,,03,20,174,27,04,12,038,31,06,07,270,*75
$GPGSV,4,2,16,07,46,259,36,08,01,143,26,09,67,312,40,16,47,064,32*76
$GPGSV,4,3,16,22,08,167,32,23,68,103,31,26,23,045,23,27,12,108,31*77
$GPGSV,4,4,16,30,12,249,25,46,31,150,,48,38,197,,51,37,160,*7D
$GLGSV,3,1,09,69,40,157,19,70,76,296,,71,24,325,21,73,33,233,20*66
$GLGSV,3,2,09,79,31,038,19,80,78,288,22,81,00,075,,87,01,344,*61
$GLGSV,3,3,09,88,07,028,*51
$GNGLL,4404.14063,N,12118.85920,W,001048.00,A,A*61
$GNZDA,001048.00,10,01,2017,00,00*71
$GNRMC,001049.00,A,4404.14061,N,12118.85914,W,0.094,,100117,,,A*77
$GNVTG,,T,,M,0.094,N,0.174,K,A*32
$GNGGA,001049.00,4404.14061,N,12118.85914,W,1,12,1.09,1112.9,M,-21.3,M,,*4C
$GNGSA,A,3,23,09,16,07,26,03,27,22,,,,,1.83,1.09,1.47*16
$GNGSA,A,3,80,71,73,79,69,,,,,,,,1.83,1.09,1.47*17
$GPGSV,4,1,16,02,05,306,,03,20,174,28,04,12,038,31,06,07,270,*7A
$GPGSV,4,2,16,07,46,259,36,08,01,143,25,09,67,312,40,16,47,064,32*75
$GPGSV,4,3,16,22,08,167,31,23,68,103,32,26,23,045,23,27,12,108,31*77
$GPGSV,4,4,16,30,12,249,25,46,31,150,,48,38,197,,51,37,160,*7D
$GLGSV,3,1,09,69,40,157,19,70,76,296,,71,24,325,21,73,33,233,21*67
$GLGSV,3,2,09,79,31,038,18,80,78,288,22,81,00,075,,87,01,344,*60
$GLGSV,3,3,09,88,07,028,*51
$GNGLL,4404.14061,N,12118.85914,W,001049.00,A,A*65
$GNZDA,001049.00,10,01,2017,00,00*70
$GNRMC,001050.00,A,4404.14068,N,12118.85907,W,0.041,,100117,,,A*7C
$GNVTG,,T,,M,0.041,N,0.076,K,A*39
$GNGGA,001050.00,4404.14068,N,12118.85907,W,1,12,1.09,1112.8,M,-21.3,M,,*4E
$GNGSA,A,3,23,09,16,07,26,03,27,22,,,,,1.83,1.09,1.47*16
$GNGSA,A,3,80,71,73,79,69,,,,,,,,1.83,1.09,1.47*17
$GPGSV,4,1,16,02,05,306,,03,20,174,28,04,12,038,31,06,07,270,*7A
$GPGSV,4,2,16,07,46,259,36,08,01,143,24,09,67,312,40,16,47,063,32*73
$GPGSV,4,3,16,22,08,167,31,23,68,103,32,26,23,045,23,27,12,108,30*76
$GPGSV,4,4,16,30,12,249,25,46,31,150,,48,38,197,,51,37,160,*7D
$GLGSV,3,1,09,69,40,157,19,70,76,296,,71,24,325,22,73,33,233,21*64
$GLGSV,3,2,09,79,31,038,18,80,78,288,21,81,00,075,,87,01,344,*63
$GLGSV,3,3,09,88,07,028,*51
$GNGLL,4404.14068,N,12118.85907,W,001050.00,A,A*66
$GNZDA,001050.00,10,01,2017,00,00*78
$GNRMC,001051.00,A,4404.14079,N,12118.85902,W,0.067,,100117,,,A*7C
$GNVTG,,T,,M,0.067,N,0.124,K,A*3B
$GNGGA,001051.00,4404.14079,N,12118.85902,W,1,12,0.98,1112.7,M,-21.3,M,,*4C
$GNGSA,A,3,23,09,16,07,26,03,27,22,,,,,1.71,0.98,1.40*15
$GNGSA,A,3,80,71,73,79,69,,,,,,,,1.71,0.98,1.40*14
$GPGSV,4,1,16,02,05,306,,03,20,174,27,04,12,038,30,06,07,270,*74
$GPGSV,4,2,16,07,46,259,36,08,01,143,23,09,67,312,40,16,47,063,32*74
$GPGSV,4,3,16,22,08,167,32,23,68,103,32,26,23,045,24,27,12,108,30*72
$GPGSV,4,4,16,30,12,249,25,46,31,150,,48,38,197,,51,37,160,*7D
$GLGSV,3,1,09,69,40,157,19,70,76,296,,71,24,325,22,73,33,233,22*67
$GLGSV,3,2,09,79,31,038,19,80,78,288,21,81,00,075,,87,01,344,*62
$GLGSV,3,3,09,88,07,028,*51
$GNGLL,4404.14079,N,12118.85902,W,001051.00,A,A*62
$GNZDA,001051.00,10,01,2017,00,00*79
$GNRMC,001052.00,A,4404.14081,N,12118.85894,W,0.006,,100117,,,A*71
$GNVTG,,T,,M,0.006,N,0.012,K,A*38
$GNGGA,001052.00,4404.14081,N,12118.85894,W,1,12,0.98,1112.8,M,-21.3,M,,*49
$GNGSA,A,3,23,09,16,07,26,03,27,22,,,,,1.71,0.98,1.40*15
$GNGSA,A,3,80,71,73,79,69,,,,,,,,1.71,0.98,1.40*14
$GPGSV,4,1,16,02,05,306,,03,20,174,27,04,12,038,31,06,07,270,*75
$GPGSV,4,2,16,07,46,259,36,08,01,143,23,09,67,312,40,16,47,063,32*74
$GPGSV,4,3,16,22,08,167,31,23,68,103,32,26,23,045,24,27,12,108,30*71
$GPGSV,4,4,16,30,12,249,25,46,31,150,,48,38,197,,51,37,160,*7D
$GLGSV,3,1,09,69,40,157,19,70,76,296,,71,24,325,22,73,33,233,21*64
$GLGSV,3,2,09,79,31,038,19,80,78,288,21,81,00,075,,87,01,344,*62
$GLGSV,3,3,09,88,07,028,*51
$GNGLL,4404.14081,N,12118.85894,W,001052.00,A,A*68
$GNZDA,001052.00,10,01,2017,00,00*7A
$GNRMC,001053.00,A,4404.14083,N,12118.85886,W,0.
