$GPZDA,021516.00,07,02,2019,00,00*68
$GPGGA,021516.00,4404.1290,N,12118.8590,W,7,18,,1110.23,M,-20.139,M,,*7B
$GPRMC,021516.00,A,4404.1290,N,12118.8590,W,0.0000,0.000,070219,,*1C
$GPGSA,A,3,,,,,,,,,,,,,,,*1C
{"class":"TPV","status":7,"mode":3,"time":"2019-02-07T02:15:16.000Z","ept":0.005,"lat":44.068817081,"lon":-121.314317437,"alt":1110.233,"track":0.0000,"speed":0.000,"climb":0.000,"eps":0.01,"ecefx":-2386071.16,"ecefy":-3922189.40,"ecefz":4414361.02,"ecefvx":0.00,"ecefvy":0.00,"ecefvz":0.00,"ecefpAcc":0.99,"ecefvAcc":0.01,"velN":0.000,"velE":0.000,"velD":-0.000,"geoidSep":-20.139}
$GPZDA,021518.00,07,02,2019,00,00*66
$GPGGA,021518.00,4404.1290,N,12118.8590,W,7,18,99.99,1110.23,M,-20.139,M,,*5B
$GPRMC,021518.00,A,4404.1290,N,12118.8590,W,0.0000,0.000,070219,,*12
$GPGSA,A,3,,,,,,,,,,,,,100.0,100.0,100.0*33
{"class":"TPV","status":7,"mode":3,"time":"2019-02-07T02:15:18.000Z","leapseconds":18,"ept":0.005,"lat":44.068817081,"lon":-121.314317437,"alt":1110.233,"epv":2299.770,"track":0.0000,"speed":0.000,"climb":0.000,"eps":0.01,"epc":4599.54,"ecefx":-2386071.16,"ecefy":-3922189.40,"ecefz":4414361.02,"ecefvx":0.00,"ecefvy":0.00,"ecefvz":0.00,"ecefpAcc":0.99,"ecefvAcc":0.01,"velN":0.000,"velE":0.000,"velD":-0.000,"geoidSep":-20.139,"eph":1899.810,"sep":1899.810}
{"class":"TPV","status":7,"mode":3,"time":"2019-02-07T02:15:18.000Z","leapseconds":18,"ept":0.005,"lat":44.068817081,"lon":-121.314317437,"alt":1110.233,"epv":2299.770,"track":0.0000,"speed":0.000,"climb":0.000,"eps":0.01,"epc":4599.54,"ecefx":-2386071.16,"ecefy":-3922189.40,"ecefz":4414361.02,"ecefvx":0.00,"ecefvy":0.00,"ecefvz":0.00,"ecefpAcc":0.99,"ecefvAcc":0.01,"velN":0.000,"velE":0.000,"velD":-0.000,"geoidSep":-20.139,"eph":1899.810,"sep":1899.810}
$GPZDA,021519.00,07,02,2019,00,00*67
$GPGGA,021519.00,4404.1290,N,12118.8590,W,7,18,99.99,1110.23,M,-20.139,M,,*5A
$GPRMC,021519.00,A,4404.1290,N,12118.8590,W,0.0000,0.000,070219,,*13
$GPGSA,A,3,,,,,,,,,,,,,100.0,100.0,100.0*33
{"class":"TPV","status":7,"mode":3,"time":"2019-02-07T02:15:19.000Z","leapseconds":18,"ept":0.005,"lat":44.068817081,"lon":-121.314317437,"alt":1110.233,"epv":2299.770,"track":0.0000,"speed":0.000,"climb":0.000,"eps":0.01,"epc":4599.54,"ecefx":-2386071.16,"ecefy":-3922189.40,"ecefz":4414361.02,"ecefvx":0.00,"ecefvy":0.00,"ecefvz":0.00,"ecefpAcc":0.99,"ecefvAcc":0.01,"velN":0.000,"velE":0.000,"velD":-0.000,"geoidSep":-20.139,"eph":1899.810,"sep":1899.810}
$GPZDA,021520.00,07,02,2019,00,00*6D
$GPGGA,021520.00,4404.1290,N,12118.8590,W,7,18,99.99,1110.23,M,-20.139,M,,*50
$GPRMC,021520.00,A,4404.1290,N,12118.8590,W,0.0000,0.000,070219,,*19
$GPGSA,A,3,,,,,,,,,,,,,100.0,100.0,100.0*33
{"class":"TPV","status":7,"mode":3,"time":"2019-02-07T02:15:20.000Z","leapseconds":18,"ept":0.005,"lat":44.068817081,"lon":-121.314317437,"alt":1110.233,"epv":2299.770,"track":0.0000,"speed":0.000,"climb":0.000,"eps":0.01,"epc":4599.54,"ecefx":-2386071.16,"ecefy":-3922189.40,"ecefz":4414361.02,"ecefvx":0.00,"ecefvy":0.00,"ecefvz":0.00,"ecefpAcc":0.99,"ecefvAcc":0.01,"velN":0.000,"velE":0.000,"velD":-0.000,"geoidSep":-20.139,"eph":1899.810,"sep":1899.810}
{"class":"TPV","status":7,"mode":3,"time":"2019-02-07T02:15:20.000Z","leapseconds":18,"ept":0.005,"lat":44.068817081,"lon":-121.314317437,"alt":1110.233,"epv":2299.770,"track":0.0000,"speed":0.000,"climb":0.000,"eps":0.01,"epc":4599.54,"ecefx":-2386071.16,"ecefy":-3922189.40,"ecefz":4414361.02,"ecefvx":0.00,"ecefvy":0.00,"ecefvz":0.00,"ecefpAcc":0.99,"ecefvAcc":0.01,"velN":0.000,"velE":0.000,"velD":-0.000,"geoidSep":-20.139,"eph":1899.810,"sep":1899.810}
$GPZDA,021521.00,07,02,2019,00,00*6C
$GPGGA,021521.00,4404.1290,N,12118.8590,W,7,18,99.99,1110.23,M,-20.139,M,,*51
$GPRMC,021521.00,A,4404.1290,N,12118.8590,W,0.0000,0.000,070219,,*18
$GPGSA,A,3,,,,,,,,,,,,,100.0,100.0,100.0*33
{"class":"TPV","status":7,"mode":3,"time":"2019-02-07T02:15:21.000Z","leapseconds":18,"ept":0.005,"lat":44.068817081,"lon":-121.314317437,"alt":1110.233,"epv":2299.770,"track":0.0000,"speed":0.000,"climb":0.000,"eps":0.01,"epc":4599.54,"ecefx":-2386071.16,"ecefy":-3922189.40,"ecefz":4414361.02,"ecefvx":0.00,"ecefvy":0.00,"ecefvz":0.00,"ecefpAcc":0.99,"ecefvAcc":0.01,"velN":0.000,"velE":0.000,"velD":-0.000,"geoidSep":-20.139,"eph":1899.810,"sep":1899.810}
$GPZDA,021522.00,07,02,2019,00,00*6F
$GPGGA,021522.00,4404.1290,N,12118.8590,W,7,18,99.99,1110.23,M,-20.139,M,,*52
$GPRMC,021522.00,A,4404.1290,N,12118.8590,W,0.0000,0.000,070219,,*1B
$GPGSA,A,3,,,,,,,,,,,,,100.0,100.0,100.0*33
{"class":"TPV","status":7,"mode":3,"time":"2019-02-07T02:15:22.000Z","leapseconds":18,"ept":0.005,"lat":44.068817081,"lon":-121.314317437,"alt":1110.233,"epv":2299.770,"track":0.0000,"speed":0.000,"climb":0.000,"eps":0.01,"epc":4599.54,"ecefx":-2386071.16,"ecefy":-3922189.40,"ecefz":4414361.02,"ecefvx":0.00,"ecefvy":0.00,"ecefvz":0.00,"ecefpAcc":0.99,"ecefvAcc":0.01,"velN":0.000,"velE":0.000,"velD":-0.000,"geoidSep":-20.139,"eph":1899.810,"sep":1899.810}
{"class":"TPV","status":7,"mode":3,"time":"2019-02-07T02:15:22.000Z","leapseconds":18,"ept":0.005,"lat":44.068817081,"lon":-121.314317437,"alt":1110.233,"epv":2299.770,"track":0.0000,"speed":0.000,"climb":0.000,"eps":0.01,"epc":4599.54,"ecefx":-2386071.16,"ecefy":-3922189.40,"ecefz":4414361.02,"ecefvx":0.00,"ecefvy":0.00,"ecefvz":0.00,"ecefpAcc":0.99,"ecefvAcc":0.01,"velN":0.000,"velE":0.000,"velD":-0.000,"geoidSep":-20.139,"eph":1899.810,"sep":1899.810}
$GPZDA,021523.00,07,02,2019,00,00*6E
$GPGGA,021523.00,4404.1290,N,12118.8590,W,7,18,99.99,1110.23,M,-20.139,M,,*53
$GPRMC,021523.00,A,4404.1290,N,12118.8590,W,0.0000,0.000,070219,,*1A
$GPGSA,A,3,,,,,,,,,,,,,100.0,100.0,100.0*33
{"class":"TPV","status":7,"mode":3,"time":"2019-02-07T02:15:23.000Z","leapseconds":18,"ept":0.005,"lat":44.068817081,"lon":-121.314317437,"alt":1110.233,"epv":2299.770,"track":0.0000,"speed":0.000,"climb":0.000,"eps":0.01,"epc":4599.54,"ecefx":-2386071.16,"ecefy":-3922189.40,"ecefz":4414361.02,"ecefvx":0.00,"ecefvy":0.00,"ecefvz":0.00,"ecefpAcc":0.99,"ecefvAcc":0.01,"velN":0.000,"velE":0.000,"velD":-0.000,"geoidSep":-20.139,"eph":1899.810,"sep":1899.810}
$GPGSV,6,1,23,01,22,049,43,06,13,165,40,11,11,042,34,12,01,272,00*72
$GPGSV,6,2,23,13,32,224,45,15,27,265,43,17,81,090,53,18,03,029,31*7E
$GPGSV,6,3,23,19,63,204,48,24,29,309,37,28,48,068,50,30,23,140,44*73
$GPGSV,6,4,23,194,02,294,00,65,04,256,19,66,13,312,17,73,09,116,44*4A
$GPGSV,6,5,23,74,52,095,46,75,57,332,51,76,15,311,29,83,01,024,21*75
$GPGSV,6,6,23,84,52,047,44,85,58,170,50,86,06,196,46*47
