$GPVTG,287.04,T,,M,0.774,N,1.435,K,A*33
$GPGGA,085032.00,5355.17581,N,02730.04649,E,1,04,17.30,267.5,M,25.0,M,,*65
{"class":"TPV","mode":3,"lat":53.919596833,"lon":27.500774833,"alt":267.500}
$GPGSA,A,3,18,21,24,15,,,,,,,,,18.95,17.30,7.74*0E
{"class":"TPV","mode":3,"lat":53.919596833,"lon":27.500774833,"alt":267.500,"epv":178.020}
$GPGSV,3,1,12,03,67,251,,06,72,220,,08,07,331,24,14,06,151,*71
$GPGSV,3,2,12,15,15,032,46,16,15,204,,18,55,074,42,19,47,295,20*76
$GPGSV,3,3,12,21,33,087,48,22,67,157,,24,02,084,40,26,18,131,34*7D
{"class":"SKY","xdop":15.73,"ydop":8.87,"vdop":7.74,"tdop":17.21,"hdop":17.30,"gdop":26.27,"pdop":18.95,"satellites":[{"PRN":3,"el":67,"az":251,"ss":0,"used":false,"gnssid":0,"svid":3},{"PRN":6,"el":72,"az":220,"ss":0,"used":false,"gnssid":0,"svid":6},{"PRN":8,"el":7,"az":331,"ss":24,"used":false,"gnssid":0,"svid":8},{"PRN":14,"el":6,"az":151,"ss":0,"used":false,"gnssid":0,"svid":14},{"PRN":15,"el":15,"az":32,"ss":46,"used":true,"gnssid":0,"svid":15},{"PRN":16,"el":15,"az":204,"ss":0,"used":false,"gnssid":0,"svid":16},{"PRN":18,"el":55,"az":74,"ss":42,"used":true,"gnssid":0,"svid":18},{"PRN":19,"el":47,"az":295,"ss":20,"used":false,"gnssid":0,"svid":19},{"PRN":21,"el":33,"az":87,"ss":48,"used":true,"gnssid":0,"svid":21},{"PRN":22,"el":67,"az":157,"ss":0,"used":false,"gnssid":0,"svid":22},{"PRN":24,"el":2,"az":84,"ss":40,"used":true,"gnssid":0,"svid":24},{"PRN":26,"el":18,"az":131,"ss":34,"used":false,"gnssid":0,"svid":26}]}
$GPGLL,5355.17581,N,02730.04649,E,085032.00,A,A*60
{"class":"TPV","mode":3,"lat":53.919596833,"lon":27.500774833,"alt":267.500,"epx":235.985,"epy":133.116,"epv":178.020}
$GPRMC,085033.00,A,5355.17512,N,02730.04479,E,0.835,284.07,050210,,,A*6C
$GPVTG,284.07,T,,M,0.835,N,1.547,K,A*3D
$GPGGA,085033.00,5355.17512,N,02730.04479,E,1,04,17.31,266.9,M,25.0,M,,*63
$GPGSA,A,3,18,21,24,15,,,,,,,,,18.96,17.31,7.74*0C
$GPGSV,3,1,12,03,67,251,,06,72,220,,08,07,331,26,14,06,151,*73
$GPGSV,3,2,12,15,15,032,47,16,15,204,,18,55,074,43,19,47,295,19*7C
$GPGSV,3,3,12,21,33,087,49,22,67,157,,24,02,084,41,26,18,131,36*7F
{"class":"SKY","xdop":15.73,"ydop":8.87,"vdop":7.74,"tdop":17.21,"hdop":17.31,"gdop":26.27,"pdop":18.96,"satellites":[{"PRN":3,"el":67,"az":251,"ss":0,"used":false,"gnssid":0,"svid":3},{"PRN":6,"el":72,"az":220,"ss":0,"used":false,"gnssid":0,"svid":6},{"PRN":8,"el":7,"az":331,"ss":26,"used":false,"gnssid":0,"svid":8},{"PRN":14,"el":6,"az":151,"ss":0,"used":false,"gnssid":0,"svid":14},{"PRN":15,"el":15,"az":32,"ss":47,"used":true,"gnssid":0,"svid":15},{"PRN":16,"el":15,"az":204,"ss":0,"used":false,"gnssid":0,"svid":16},{"PRN":18,"el":55,"az":74,"ss":43,"used":true,"gnssid":0,"svid":18},{"PRN":19,"el":47,"az":295,"ss":19,"used":false,"gnssid":0,"svid":19},{"PRN":21,"el":33,"az":87,"ss":49,"used":true,"gnssid":0,"svid":21},{"PRN":22,"el":67,"az":157,"ss":0,"used":false,"gnssid":0,"svid":22},{"PRN":24,"el":2,"az":84,"ss":41,"used":true,"gnssid":0,"svid":24},{"PRN":26,"el":18,"az":131,"ss":36,"used":false,"gnssid":0,"svid":26}]}
$GPGLL,5355.17512,N,02730.04479,E,085033.00,A,A*6A
{"class":"TPV","mode":3,"time":"2010-02-05T08:50:33.000Z","ept":0.005,"lat":53.919585333,"lon":27.500746500,"alt":266.900,"epx":235.985,"epy":133.116,"epv":178.020,"track":284.0700,"speed":0.430,"climb":0.000}
$GPRMC,085034.00,A,5355.17453,N,02730.04323,E,0.492,281.09,050210,,,A*6D
$GPVTG,281.09,T,,M,0.492,N,0.911,K,A*39
$GPGGA,085034.00,5355.17453,N,02730.04323,E,1,04,17.31,266.2,M,25.0,M,,*63
$GPGSA,A,3,18,21,24,15,,,,,,,,,18.96,17.31,7.74*0C
$GPGSV,3,1,12,03,67,251,,06,72,220,,08,07,331,26,14,06,151,*73
$GPGSV,3,2,12,15,15,032,47,16,15,204,,18,55,074,43,19,47,295,18*7D
$GPGSV,3,3,12,21,33,087,48,22,67,157,,24,02,084,40,26,18,131,35*7C
{"class":"SKY","xdop":15.73,"ydop":8.87,"vdop":7.74,"tdop":17.21,"hdop":17.31,"gdop":26.27,"pdop":18.96,"satellites":[{"PRN":3,"el":67,"az":251,"ss":0,"used":false,"gnssid":0,"svid":3},{"PRN":6,"el":72,"az":220,"ss":0,"used":false,"gnssid":0,"svid":6},{"PRN":8,"el":7,"az":331,"ss":26,"used":false,"gnssid":0,"svid":8},{"PRN":14,"el":6,"az":151,"ss":0,"used":false,"gnssid":0,"svid":14},{"PRN":15,"el":15,"az":32,"ss":47,"used":true,"gnssid":0,"svid":15},{"PRN":16,"el":15,"az":204,"ss":0,"used":false,"gnssid":0,"svid":16},{"PRN":18,"el":55,"az":74,"ss":43,"used":true,"gnssid":0,"svid":18},{"PRN":19,"el":47,"az":295,"ss":18,"used":false,"gnssid":0,"svid":19},{"PRN":21,"el":33,"az":87,"ss":48,"used":true,"gnssid":0,"svid":21},{"PRN":22,"el":67,"az":157,"ss":0,"used":false,"gnssid":0,"svid":22},{"PRN":24,"el":2,"az":84,"ss":40,"used":true,"gnssid":0,"svid":24},{"PRN":26,"el":18,"az":131,"ss":35,"used":false,"gnssid":0,"svid":26}]}
$GPGLL,5355.17453,N,02730.04323,E,085034.00,A,A*61
{"class":"TPV","mode":3,"time":"2010-02-05T08:50:34.000Z","ept":0.005,"lat":53.919575500,"lon":27.500720500,"alt":266.200,"epx":235.985,"epy":133.116,"epv":178.020,"track":281.0900,"speed":0.253,"climb":0.000,"eps":471.97}
$GPRMC,085035.00,A,5355.17396,N,02730.04163,E,0.355,280.76,050210,,,A*61
$GPVTG,280.76,T,,M,0.355,N,0.657,K,A*31
$GPGGA,085035.00,5355.17396,N,02730.04163,E,1,04,17.32,265.6,M,25.0,M,,*6E
$GPGSA,A,3,18,21,24,15,,,,,,,,,18.97,17.32,7.74*0E
$GPGSV,3,1,12,03,67,251,,06,72,220,,08,07,331,26,14,06,151,*73
$GPGSV,3,2,12,15,15,032,47,16,15,204,,18,55,074,43,19,47,295,16*73
$GPGSV,3,3,12,21,33,087,47,22,67,157,,24,02,084,40,26,18,131,35*73
{"class":"SKY","xdop":15.73,"ydop":8.87,"vdop":7.74,"tdop":17.21,"hdop":17.32,"gdop":26.27,"pdop":18.97,"satellites":[{"PRN":3,"el":67,"az":251,"ss":0,"used":false,"gnssid":0,"svid":3},{"PRN":6,"el":72,"az":220,"ss":0,"used":false,"gnssid":0,"svid":6},{"PRN":8,"el":7,"az":331,"ss":26,"used":false,"gnssid":0,"svid":8},{"PRN":14,"el":6,"az":151,"ss":0,"used":false,"gnssid":0,"svid":14},{"PRN":15,"el":15,"az":32,"ss":47,"used":true,"gnssid":0,"svid":15},{"PRN":16,"el":15,"az":204,"ss":0,"used":false,"gnssid":0,"svid":16},{"PRN":18,"el":55,"az":74,"ss":43,"used":true,"gnssid":0,"svid":18},{"PRN":19,"el":47,"az":295,"ss":16,"used":false,"gnssid":0,"svid":19},{"PRN":21,"el":33,"az":87,"ss":47,"used":true,"gnssid":0,"svid":21},{"PRN":22,"el":67,"az":157,"ss":0,"used":false,"gnssid":0,"svid":22},{"PRN":24,"el":2,"az":84,"ss":40,"used":true,"gnssid":0,"svid":24},{"PRN":26,"el":18,"az":131,"ss":35,"used":false,"gnssid":0,"svid":26}]}
$GPGLL,5355.17396,N,02730.04163,E,085035.00,A,A*68
{"class":"TPV","mode":3,"time":"2010-02-05T08:50:35.000Z","ept":0.005,"lat":53.919566000,"lon":27.500693833,"alt":265.600,"epx":235.985,"epy":133.116,"epv":178.020,"track":280.7600,"speed":0.183,"climb":0.000,"eps":471.97}
$GPRMC,085036.00,A,5355.17332,N,02730.04006,E,0.831,278.54,050210,,,A*60
$GPVTG,278.54,T,,M,0.831,N,1.540,K,A*3B
$GPGGA,085036.00,5355.17332,N,02730.04006,E,1,04,17.33,265.3,M,25.0,M,,*65
$GPGSA,A,3,18,21,24,15,,,,,,,,,18.98,17.33,7.74*00
$GPGSV,3,1,12,03,67,251,28,06,72,220,,08,07,331,27,14,06,151,*78
$GPGSV,3,2,12,15,15,032,47,16,15,204,,18,55,074,43,19,47,295,14*71
$GPGSV,3,3,12,21,33,087,47,22,67,157,,24,02,084,41,26,18,131,36*71
{"class":"SKY","xdop":15.73,"ydop":8.87,"vdop":7.74,"tdop":17.21,"hdop":17.33,"gdop":26.27,"pdop":18.98,"satellites":[{"PRN":3,"el":67,"az":251,"ss":28,"used":false,"gnssid":0,"svid":3},{"PRN":6,"el":72,"az":220,"ss":0,"used":false,"gnssid":0,"svid":6},{"PRN":8,"el":7,"az":331,"ss":27,"used":false,"gnssid":0,"svid":8},{"PRN":14,"el":6,"az":151,"ss":0,"used":false,"gnssid":0,"svid":14},{"PRN":15,"el":15,"az":32,"ss":47,"used":true,"gnssid":0,"svid":15},{"PRN":16,"el":15,"az":204,"ss":0,"used":false,"gnssid":0,"svid":16},{"PRN":18,"el":55,"az":74,"ss":43,"used":true,"gnssid":0,"svid":18},{"PRN":19,"el":47,"az":295,"ss":14,"used":false,"gnssid":0,"svid":19},{"PRN":21,"el":33,"az":87,"ss":47,"used":true,"gnssid":0,"svid":21},{"PRN":22,"el":67,"az":157,"ss":0,"used":false,"gnssid":0,"svid":22},{"PRN":24,"el":2,"az":84,"ss":41,"used":true,"gnssid":0,"svid":24},{"PRN":26,"el":18,"az":131,"ss":36,"used":false,"gnssid":0,"svid":26}]}
$GPGLL,5355.17332,N,02730.04006,E,085036.00,A,A*67
{"class":"TPV","mode":3,"time":"2010-02-05T08:50:36.000Z","ept":0.005,"lat":53.919555333,"lon":27.500667667,"alt":265.300,"epx":235.985,"epy":133.116,"epv":178.020,"track":278.5400,"speed":0.428,"climb":0.000,"eps":471.97}
$GPRMC,085037.00,A,5355.17281,N,02730.03900,E,0.252,277.72,050210,,,A*64
$GPVTG,277.72,T,,M,0.252,N,0.467,K,A*3A
$GPGGA,085037.00,5355.17281,N,02730.03900,E,1,04,17.34,265.1,M,25.0,M,,*60
$GPGSA,A,3,18,21,24,15,,,,,,,,,18.98,17.34,7.74*07
$GPGSV,3,1,12,03,67,251,,06,72,220,,08,07,331,27,14,06,151,*72
$GPGSV,3,2,12,15,15,032,48,16,15,204,,18,55,074,43,19,47,295,13*79
$GPGSV,3,3,12,21,33,087,47,22,67,157,,24,02,084,41,26,18,131,36*71
{"class":"SKY","xdop":15.73,"ydop":8.87,"vdop":7.74,"tdop":17.21,"hdop":17.34,"gdop":26.27,"pdop":18.98,"satellites":[{"PRN":3,"el":67,"az":251,"ss":0,"used":false,"gnssid":0,"svid":3},{"PRN":6,"el":72,"az":220,"ss":0,"used":false,"gnssid":0,"svid":6},{"PRN":8,"el":7,"az":331,"ss":27,"used":false,"gnssid":0,"svid":8},{"PRN":14,"el":6,"az":151,"ss":0,"used":false,"gnssid":0,"svid":14},{"PRN":15,"el":15,"az":32,"ss":48,"used":true,"gnssid":0,"svid":15},{"PRN":16,"el":15,"az":204,"ss":0,"used":false,"gnssid":0,"svid":16},{"PRN":18,"el":55,"az":74,"ss":43,"used":true,"gnssid":0,"svid":18},{"PRN":19,"el":47,"az":295,"ss":13,"used":false,"gnssid":0,"svid":19},{"PRN":21,"el":33,"az":87,"ss":47,"used":true,"gnssid":0,"svid":21},{"PRN":22,"el":67,"az":157,"ss":0,"used":false,"gnssid":0,"svid":22},{"PRN":24,"el":2,"az":84,"ss":41,"used":true,"gnssid":0,"svid":24},{"PRN":26,"el":18,"az":131,"ss":36,"used":false,"gnssid":0,"svid":26}]}
$GPGLL,5355.17281,N,02730.03900,E,085037.00,A,A*67
{"class":"TPV","mode":3,"time":"2010-02-05T08:50:37.000Z","ept":0.005,"lat":53.919546833,"lon":27.500650000,"alt":265.100,"epx":235.985,"epy":133.116,"epv":178.020,"track":277.7200,"speed":0.130,"climb":0.000,"eps":471.97}
$GPRMC,085038.00,A,5355.17239,N,02730.03826,E,0.115,,050210,,,A*74
