$GPZDA,204220.00,13,06,2005,00,00*63
$GPGGA,204220.00,5203.7576,N,00508.3123,E,1,08,,8.23,M,47.120,M,,*7C
$GPRMC,204220.00,A,5203.7576,N,00508.3123,E,0.0000,0.000,130605,1.5,E*62
$GPGSA,A,3,,,,,,,,,,,,,,,*1C
{"class":"TPV","mode":3,"time":"2005-06-13T20:42:20.000Z","leapseconds":13,"ept":0.005,"lat":52.062625946,"lon":5.138537608,"altHAE":55.350,"altMSL":8.230,"epv":5.415,"track":0.0000,"magtrack":1.5480,"magvar":1.5,"speed":0.000,"climb":-0.010,"eps":1.37,"geoidSep":47.120,"eph":5.145,"datum":"WGS84"}
$PRWIZCH,01,2,05,7,04,7,14,7,02,0,07,7,30,7,18,6,24,7,09,7,00,0,22,7*4C
{"class":"SKY","time":"2005-06-13T20:42:20.000Z"}
$GPZDA,204221.00,13,06,2005,00,00*62
$GPGGA,204221.00,5203.7576,N,00508.3123,E,1,08,,8.23,M,47.120,M,,*7D
$GPRMC,204221.00,A,5203.7576,N,00508.3123,E,0.0000,0.000,130605,1.5,E*63
$GPGSA,A,3,5,4,14,7,30,24,9,22,,,,,,,*13
{"class":"TPV","mode":3,"time":"2005-06-13T20:42:21.000Z","leapseconds":13,"ept":0.005,"lat":52.062625946,"lon":5.138537608,"altHAE":55.350,"altMSL":8.230,"epv":5.415,"track":0.0000,"magtrack":1.5480,"magvar":1.5,"speed":0.000,"climb":0.000,"eps":1.37,"epc":10.83,"geoidSep":47.120,"eph":5.145,"datum":"WGS84"}
$PRWIZCH,01,2,05,7,04,7,14,7,02,0,07,7,30,7,18,6,24,7,09,7,00,0,22,7*4C
{"class":"SKY","time":"2005-06-13T20:42:21.000Z"}
$GPZDA,204222.00,13,06,2005,00,00*61
$GPGGA,204222.00,5203.7576,N,00508.3123,E,1,08,,8.20,M,47.120,M,,*7D
$GPRMC,204222.00,A,5203.7576,N,00508.3123,E,0.0000,0.000,130605,1.5,E*60
$GPGSA,A,3,5,4,14,7,30,24,9,22,,,,,,,*13
{"class":"TPV","mode":3,"time":"2005-06-13T20:42:22.000Z","leapseconds":13,"ept":0.005,"lat":52.062625946,"lon":5.138537608,"altHAE":55.320,"altMSL":8.200,"epv":5.415,"track":0.0000,"magtrack":1.5480,"magvar":1.5,"speed":0.000,"climb":-0.020,"eps":1.37,"epc":10.83,"geoidSep":47.120,"eph":5.145,"datum":"WGS84"}
$PRWIZCH,01,2,05,7,04,7,14,7,02,0,07,7,30,7,18,6,24,7,09,7,00,0,22,7*4C
{"class":"SKY","time":"2005-06-13T20:42:22.000Z"}
$GPZDA,204223.00,13,06,2005,00,00*60
$GPGGA,204223.00,5203.7576,N,00508.3123,E,1,08,,8.28,M,47.120,M,,*74
$GPRMC,204223.00,A,5203.7576,N,00508.3123,E,0.0000,0.000,130605,1.5,E*61
$GPGSA,A,3,5,4,14,7,30,24,9,22,,,,,,,*13
{"class":"TPV","mode":3,"time":"2005-06-13T20:42:23.000Z","leapseconds":13,"ept":0.005,"lat":52.062625946,"lon":5.138537608,"altHAE":55.400,"altMSL":8.280,"epv":5.415,"track":0.0000,"magtrack":1.5480,"magvar":1.5,"speed":0.000,"climb":0.050,"eps":1.37,"epc":10.83,"geoidSep":47.120,"eph":5.145,"datum":"WGS84"}
$PRWIZCH,01,2,05,7,04,7,14,7,02,0,07,7,30,7,18,6,24,7,09,7,00,0,22,7*4C
{"class":"SKY","time":"2005-06-13T20:42:23.000Z"}
$GPZDA,204224.00,13,06,2005,00,00*67
$GPGGA,204224.00,5203.7576,N,00508.3123,E,1,08,,8.27,M,47.120,M,,*7C
$GPRMC,204224.00,A,5203.7576,N,00508.3123,E,0.0000,0.000,130605,1.5,E*66
$GPGSA,A,3,5,4,14,7,30,24,9,22,,,,,,,*13
{"class":"TPV","mode":3,"time":"2005-06-13T20:42:24.000Z","leapseconds":13,"ept":0.005,"lat":52.062625946,"lon":5.138537608,"altHAE":55.390,"altMSL":8.270,"epv":5.415,"track":0.0000,"magtrack":1.5480,"magvar":1.5,"speed":0.000,"climb":0.010,"eps":1.37,"epc":10.83,"geoidSep":47.120,"eph":5.145,"datum":"WGS84"}
$PRWIZCH,01,2,05,7,04,7,14,7,02,0,07,7,30,7,18,6,24,7,09,7,00,0,22,7*4C
{"class":"SKY","time":"2005-06-13T20:42:24.000Z"}
$GPZDA,204225.00,13,06,2005,00,00*66
$GPGGA,204225.00,5203.7576,N,00508.3123,E,1,08,,8.26,M,47.120,M,,*7C
$GPRMC,204225.00,A,5203.7576,N,00508.3123,E,0.0000,0.000,130605,1.5,E*67
$GPGSA,A,3,5,4,14,7,30,24,9,22,,,,,,,*13
{"class":"TPV","mode":3,"time":"2005-06-13T20:42:25.000Z","leapseconds":13,"ept":0.005,"lat":52.062625946,"lon":5.138537608,"altHAE":55.380,"altMSL":8.260,"epv":5.415,"track":0.0000,"magtrack":1.5480,"magvar":1.5,"speed":0.000,"climb":0.000,"eps":1.37,"epc":10.83,"geoidSep":47.120,"eph":5.145,"datum":"WGS84"}
$PRWIZCH,01,2,05,7,04,7,14,7,02,0,07,7,30,7,18,6,24,7,09,7,00,0,22,7*4C
{"class":"SKY","time":"2005-06-13T20:42:25.000Z"}
$GPZDA,204226.00,13,06,2005,00,00*65
$GPGGA,204226.00,5203.7576,N,00508.3123,E,1,08,,8.29,M,47.120,M,,*70
$GPRMC,204226.00,A,5203.7576,N,00508.3123,E,0.0000,0.000,130605,1.5,E*64
$GPGSA,A,3,5,4,14,7,30,24,9,22,,,,,,,*13
{"class":"TPV","mode":3,"time":"2005-06-13T20:42:26.000Z","leapseconds":13,"ept":0.005,"lat":52.062625946,"lon":5.138537608,"altHAE":55.410,"altMSL":8.290,"epv":5.415,"track":0.0000,"magtrack":1.5480,"magvar":1.5,"speed":0.000,"climb":0.030,"eps":1.37,"epc":10.83,"geoidSep":47.120,"eph":5.145,"datum":"WGS84"}
$PRWIZCH,01,2,05,7,04,7,14,7,02,0,07,7,30,7,18,6,24,7,09,7,00,0,22,7*4C
{"class":"SKY","time":"2005-06-13T20:42:26.000Z"}
$GPZDA,204227.00,13,06,2005,00,00*64
$GPGGA,204227.00,5203.7576,N,00508.3123,E,1,08,,8.28,M,47.120,M,,*70
$GPRMC,204227.00,A,5203.7576,N,00508.3123,E,0.0000,0.000,130605,1.5,E*65
$GPGSA,A,3,5,4,14,7,30,24,9,22,,,,,,,*13
{"class":"TPV","mode":3,"time":"2005-06-13T20:42:27.000Z","leapseconds":13,"ept":0.005,"lat":52.062625946,"lon":5.138537608,"altHAE":55.400,"altMSL":8.280,"epv":5.415,"track":0.0000,"magtrack":1.5480,"magvar":1.5,"speed":0.000,"climb":0.000,"eps":1.37,"epc":10.83,"geoidSep":47.120,"eph":5.145,"datum":"WGS84"}
$PRWIZCH,01,2,05,7,04,7,14,7,02,0,07,7,30,7,18,6,24,7,09,7,00,0,22,7*4C
{"class":"SKY","time":"2005-06-13T20:42:27.000Z"}
$GPZDA,204228.00,13,06,2005,00,00*6B
$GPGGA,204228.00,5203.7576,N,00508.3123,E,1,08,,8.29,M,47.120,M,,*7E
$GPRMC,204228.00,A,5203.7576,N,00508.3123,E,0.0000,0.000,130605,1.5,E*6A
$GPGSA,A,3,5,4,14,7,30,24,9,22,,,,,,,*13
{"class":"TPV","mode":3,"time":"2005-06-13T20:42:28.000Z","leapseconds":13,"ept":0.005,"lat":52.062625946,"lon":5.138537608,"altHAE":55.410,"altMSL":8.290,"epv":5.415,"track":0.0000,"magtrack":1.5480,"magvar":1.5,"speed":0.000,"climb":0.010,"eps":1.37,"epc":10.83,"geoidSep":47.120,"eph":5.145,"datum":"WGS84"}
$PRWIZCH,01,2,05,7,04,7,14,7,02,0,07,7,30,7,18,6,24,7,09,7,00,0,22,7*4C
{"class":"SKY","time":"2005-06-13T20:42:28.000Z"}
$GPZDA,204229.00,13,06,2005,00,00*6A
$GPGGA,204229.00,5203.7576,N,00508.3123,E,1,08,,8.28,M,47.120,M,,*7E
$GPRMC,204229.00,A,5203.7576,N,00508.3123,E,0.0000,0.000,130605,1.5,E*6B
$GPGSA,A,3,5,4,14,7,30,24,9,22,,,,,,,*13
{"class":"TPV","mode":3,"time":"2005-06-13T20:42:29.000Z","leapseconds":13,"ept":0.005,"lat":52.062625946,"lon":5.138537608,"altHAE":55.400,"altMSL":8.280,"epv":5.415,"track":0.0000,"magtrack":1.5480,"magvar":1.5,"speed":0.000,"climb":-0.010,"eps":1.37,"epc":10.83,"geoidSep":47.120,"eph":5.145,"datum":"WGS84"}
$PRWIZCH,01,2,05,7,04,7,14,7,02,0,07,7,30,7,18,6,24,7,09,7,00,0,22,7*4C
{"class":"SKY","time":"2005-06-13T20:42:29.000Z"}
$GPZDA,204230.00,13,06,2005,00,00*62
$GPGGA,204230.00,5203.7576,N,00508.3123,E,1,08,,8.32,M,47.120,M,,*7D
$GPRMC,204230.00,A,5203.7576,N,00508.3123,E,0.0000,0.000,130605,1.5,E*63
$GPGSA,A,3,5,4,14,7,30,24,9,22,,,,,,,*13
{"class":"TPV","mode":3,"time":"2005-06-13T20:42:30.000Z","leapseconds":13,"ept":0.005,"lat":52.062625946,"lon":5.138537608,"altHAE":55.440,"altMSL":8.320,"epv":5.415,"track":0.0000,"magtrack":1.5480,"magvar":1.5,"speed":0.000,"climb":0.040,"eps":1.37,"epc":10.83,"geoidSep":47.120,"eph":5.145,"datum":"WGS84"}
$PRWIZCH,01,2,05,7,04,7,14,7,02,0,07,7,30,7,18,6,24,7,09,7,00,0,22,7*4C
{"class":"SKY","time":"2005-06-13T20:42:30.000Z"}
$GPZDA,204231.00,13,06,2005,00,00*63
$GPGGA,204231.00,5203.7576,N,00508.3123,E,1,08,,8.33,M,47.120,M,,*7D
$GPRMC,204231.00,A,5203.7576,N,00508.3123,E,0.0000,0.000,130605,1.5,E*62
$GPGSA,A,3,5,4,14,7,30,24,9,22,,,,,,,*13
{"class":"TPV","mode":3,"time":"2005-06-13T20:42:31.000Z","leapseconds":13,"ept":0.005,"lat":52.062625946,"lon":5.138537608,"altHAE":55.450,"altMSL":8.330,"epv":5.415,"track":0.0000,"magtrack":1.5480,"magvar":1.5,"speed":0.000,"climb":0.030,"eps":1.37,"epc":10.83,"geoidSep":47.120,"eph":5.145,"datum":"WGS84"}
$PRWIZCH,01,2,05,7,04,7,14,7,02,0,07,7,30,7,18,6,24,7,09,7,00,0,22,7*4C
{"class":"SKY","time":"2005-06-13T20:42:31.000Z"}
$GPZDA,204232.00,13,06,2005,00,00*60
$GPGGA,204232.00,5203.7576,N,00508.3123,E,1,08,,8.31,M,47.120,M,,*7C
$GPRMC,204232.00,A,5203.7576,N,00508.3123,E,0.0000,0.000,130605,1.5,E*61
$GPGSA,A,3,5,4,14,7,30,24,9,22,,,,,,,*13
{"class":"TPV","mode":3,"time":"2005-06-13T20:42:32.000Z","leapseconds":13,"ept":0.005,"lat":52.062625946,"lon":5.138537608,"altHAE":55.430,"altMSL":8.310,"epv":5.415,"track":0.0000,"magtrack":1.5480,"magvar":1.5,"speed":0.000,"climb":0.000,"eps":1.37,"epc":10.83,"geoidSep":47.120,"eph":5.145,"datum":"WGS84"}
$PRWIZCH,01,2,05,7,04,7,14,7,02,0,07,7,30,7,18,6,24,7,09,7,00,0,22,7*4C
{"class":"SKY","time":"2005-06-13T20:42:32.000Z"}
$GPZDA,204233.00,13,06,2005,00,00*61
$GPGGA,204233.00,5203.7576,N,00508.3123,E,1,08,,8.27,M,47.120,M,,*7A
$GPRMC,204233.00,A,5203.7576,N,00508.3123,E,0.0000,0.000,130605,1.5,E*60
$GPGSA,A,3,5,4,14,7,30,24,9,22,,,,,,,*13
{"class":"TPV","mode":3,"time":"2005-06-13T20:42:33.000Z","leapseconds":13,"ept":0.005,"lat":52.062625946,"lon":5.138537608,"altHAE":55.390,"altMSL":8.270,"epv":5.415,"track":0.0000,"magtrack":1.5480,"magvar":1.5,"speed":0.000,"climb":-0.020,"eps":1.37,"epc":10.83,"geoidSep":47.120,"eph":5.145,"datum":"WGS84"}
$PRWIZCH,01,2,05,7,04,7,14,7,02,0,07,7,30,7,18,6,24,7,09,7,00,0,22,7*4C
{"class":"SKY","time":"2005-06-13T20:42:33.000Z"}
$GPZDA,204234.00,13,06,2005,00,00*66
$GPGGA,204234.00,5203.7576,N,00508.3123,E,1,08,,8.29,M,47.120,M,,*73
$GPRMC,204234.00,A,5203.7576,N,00508.3123,E,0.0000,0.000,130605,1.5,E*67
$GPGSA,A,3,5,4,14,7,30,24,9,22,,,,,,,*13
{"class":"TPV","mode":3,"time":"2005-06-13T20:42:34.000Z","leapseconds":13,"ept":0.005,"lat":52.062625946,"lon":5.138537608,"altHAE":55.410,"altMSL":8.290,"epv":5.415,"track":0.0000,"magtrack":1.5480,"magvar":1.5,"speed":0.000,"climb":0.020,"eps":1.37,"epc":10.83,"geoidSep":47.120,"eph":5.145,"datum":"WGS84"}
$PRWIZCH,01,2,05,7,04,7,14,7,02,0,07,7,30,7,18,6,24,7,09,7,00,0,22,7*4C
{"class":"SKY","time":"2005-06-13T20:42:34.000Z"}
$GPZDA,204235.00,13,06,2005,00,00*67
$GPGGA,204235.00,5203.7576,N,00508.3123,E,1,08,,8.27,M,47.120,M,,*7C
$GPRMC,204235.00,A,5203.7576,N,00508.3123,E,0.0000,0.000,130605,1.5,E*66
$GPGSA,A,3,5,4,14,7,30,24,9,22,,,,,,,*13
{"class":"TPV","mode":3,"time":"2005-06-13T20:42:35.000Z","leapseconds":13,"ept":0.005,"lat":52.062625946,"lon":5.138537608,"altHAE":55.390,"altMSL":8.270,"epv":5.415,"track":0.0000,"magtrack":1.5480,"magvar":1.5,"speed":0.000,"climb":-0.010,"eps":1.37,"epc":10.83,"geoidSep":47.120,"eph":5.145,"datum":"WGS84"}
$PRWIZCH,01,2,05,7,04,7,14,7,02,0,07,7,30,7,18,6,24,7,09,7,00,0,22,7*4C
{"class":"SKY","time":"2005-06-13T20:42:35.000Z"}
$GPZDA,204236.00,13,06,2005,00,00*64
$GPGGA,204236.00,5203.7576,N,00508.3123,E,1,08,,8.26,M,47.120,M,,*7E
$GPRMC,204236.00,A,5203.7576,N,00508.3123,E,0.0000,0.000,130605,1.5,E*65
$GPGSA,A,3,5,4,14,7,30,24,9,22,,,,,,,*13
{"class":"TPV","mode":3,"time":"2005-06-13T20:42:36.000Z","leapseconds":13,"ept":0.005,"lat":52.062625946,"lon":5.138537608,"altHAE":55.380,"altMSL":8.260,"epv":5.415,"track":0.0000,"magtrack":1.5480,"magvar":1.5,"speed":0.000,"climb":-0.010,"eps":1.37,"epc":10.83,"geoidSep":47.120,"eph":5.145,"datum":"WGS84"}
$PRWIZCH,01,2,05,7,04,7,14,7,02,0,07,7,30,7,18,6,24,7,09,7,00,0,22,7*4C
{"class":"SKY","time":"2005-06-13T20:42:36.000Z"}
$GPZDA,204237.00,13,06,2005,00,00*65
$GPGGA,204237.00,5203.7576,N,00508.3123,E,1,08,,8.25,M,47.120,M,,*7C
$GPRMC,204237.00,A,5203.7576,N,00508.3123,E,0.0000,0.000,130605,1.5,E*64
$GPGSA,A,3,5,4,14,7,30,24,9,22,,,,,,,*13
{"class":"TPV","mode":3,"time":"2005-06-13T20:42:37.000Z","leapseconds":13,"ept":0.005,"lat":52.062625946,"lon":5.138537608,"altHAE":55.370,"altMSL":8.250,"epv":5.415,"track":0.0000,"magtrack":1.5480,"magvar":1.5,"speed":0.000,"climb":0.000,"eps":1.37,"epc":10.83,"geoidSep":47.120,"eph":5.145,"datum":"WGS84"}
$PRWIZCH,01,2,05,7,04,7,14,7,02,0,07,7,30,7,18,6,24,7,09,7,00,0,22,7*4C
{"class":"SKY","time":"2005-06-13T20:42:37.000Z"}
$GPZDA,204238.00,13,06,2005,00,00*6A
$GPGGA,204238.00,5203.7576,N,00508.3123,E,1,08,,8.20,M,47.120,M,,*76
$GPRMC,204238.00,A,5203.7576,N,00508.3123,E,0.0000,0.000,130605,1.5,E*6B
$GPGSA,A,3,5,4,14,7,30,24,9,22,,,,,,,*13
{"class":"TPV","mode":3,"time":"2005-06-13T20:42:38.000Z","leapseconds":13,"ept":0.005,"lat":52.062625946,"lon":5.138537608,"altHAE":55.320,"altMSL":8.200,"epv":5.415,"track":0.0000,"magtrack":1.5480,"magvar":1.5,"speed":0.000,"climb":-0.030,"eps":1.37,"epc":10.83,"geoidSep":47.120,"eph":5.145,"datum":"WGS84"}
$PRWIZCH,01,2,05,7,04,7,14,7,02,0,07,7,30,7,18,6,24,7,09,7,00,0,22,7*4C
{"class":"SKY","time":"2005-06-13T20:42:38.000Z"}
$GPZDA,204239.00,13,06,2005,00,00*6B
$GPGGA,204239.00,5203.7576,N,00508.3123,E,1,08,,8.18,M,47.120,M,,*7C
$GPRMC,204239.00,A,5203.7576,N,00508.3123,E,0.0000,0.000,130605,1.5,E*6A
$GPGSA,A,3,5,4,14,7,30,24,9,22,,,,,,,*13
{"class":"TPV","mode":3,"time":"2005-06-13T20:42:39.000Z","leapseconds":13,"ept":0.005,"lat":52.062625946,"lon":5.138537608,"altHAE":55.300,"altMSL":8.180,"epv":5.415,"track":0.0000,"magtrack":1.5480,"magvar":1.5,"speed":0.000,"climb":-0.030,"eps":1.37,"epc":10.83,"geoidSep":47.120,"eph":5.145,"datum":"WGS84"}
$PRWIZCH,01,2,05,7,04,7,14,7,02,0,07,7,30,7,18,6,24,7,09,7,00,0,22,7*4C
{"class":"SKY","time":"2005-06-13T20:42:39.000Z"}
$GPZDA,204240.00,13,06,2005,00,00*65
$GPGGA,204240.00,5203.7576,N,00508.3123,E,1,08,,8.19,M,47.120,M,,*73
$GPRMC,204240.00,A,5203.7576,N,00508.3123,E,0.0000,0.000,130605,1.5,E*64
$GPGSA,A,3,5,4,14,7,30,24,9,22,,,,,,,*13
{"class":"TPV","mode":3,"time":"2005-06-13T20:42:40.000Z","leapseconds":13,"ept":0.005,"lat":52.062625946,"lon":5.138537608,"altHAE":55.310,"altMSL":8.190,"epv":5.415,"track":0.0000,"magtrack":1.5480,"magvar":1.5,"speed":0.000,"climb":-0.010,"eps":1.37,"epc":10.83,"geoidSep":47.120,"eph":5.145,"datum":"WGS84"}
$PRWIZCH,01,2,05,7,04,7,14,7,02,0,07,7,30,7,18,6,24,7,09,7,00,0,22,7*4C
{"class":"SKY","time":"2005-06-13T20:42:40.000Z"}
