GPSD,W=1,R=1
$GPGGA,143448,4629.8972,N,00734.0447,E,1,05,2.40,1342.40,M,48.183,M,,*73
$GPRMC,143448,A,4629.8972,N,00734.0447,E,0.1776,10.379,090605,,*18
$GPGSA,A,3,08,10,04,02,27,,,,,,,,0.0,2.4,0.0*3E
GPSD,O=MID2 1118327688.280 0.005 46.498287 7.567412 1342.40 19.20 ? 10.3788 0.091 -0.085 ? ? ? 3
$GPGSV,2,1,08,23,06,084,00,28,07,160,00,08,66,189,44,29,13,273,00*74
$GPGSV,2,2,08,10,51,304,29,04,15,199,36,02,34,241,43,27,71,076,43*7C
GPSD,Y=MID4 1118327689.280 8:23 6 84 0 0:28 7 160 0 0:8 66 189 44 1:29 13 273 0 0:10 51 304 29 1:4 15 199 36 1:2 34 241 43 1:27 71 76 43 1:
$GPGGA,143449,4629.8976,N,00734.0447,E,1,05,2.40,1343.13,M,48.183,M,,*71
$GPRMC,143449,A,4629.8976,N,00734.0447,E,0.1776,10.379,090605,,*1D
$GPGSA,A,3,08,10,04,02,27,,,,,,,,1.9,2.4,1.4*33
GPSD,O=MID2 1118327689.280 0.005 46.498293 7.567412 1343.13 19.20 11.24 10.3788 0.091 -0.085 ? ? ? 3
$GPGGA,143450,4629.8980,N,00734.0440,E,1,05,2.40,1342.35,M,48.183,M,,*72
$GPRMC,143450,A,4629.8980,N,00734.0440,E,0.1776,10.379,090605,,*1B
$GPGSA,A,3,08,10,04,02,27,,,,,,,,1.9,2.4,1.4*33
GPSD,O=MID2 1118327690.280 0.005 46.498301 7.567400 1342.35 19.20 11.24 10.3788 0.091 -0.085 ? 38.40 ? 3
$GPGGA,143451,4629.8984,N,00734.0440,E,1,04,3.20,1343.08,M,48.183,M,,*7E
$GPRMC,143451,A,4629.8984,N,00734.0440,E,0.1776,10.379,090605,,*1E
$GPGSA,A,3,08,04,02,27,,,,,,,,,1.9,3.2,1.4*35
$PGRME,0.00,M,0.00,M,7.30,M*1A
GPSD,O=MID2 1118327691.280 0.005 46.498307 7.567400 1343.08 25.60 11.24 10.3788 0.091 -0.085 ? 44.80 ? 3
$GPGGA,143452,4629.8984,N,00734.0440,E,1,05,2.40,1343.08,M,48.183,M,,*7B
$GPRMC,143452,A,4629.8984,N,00734.0440,E,0.1776,10.379,090605,,*1D
$GPGSA,A,3,08,10,04,02,27,,,,,,,,1.9,2.4,1.4*33
GPSD,O=MID2 1118327692.280 0.005 46.498307 7.567400 1343.08 19.20 11.24 10.3788 0.091 -0.085 ? 44.80 ? 3
$GPGGA,143453,4629.8992,N,00734.0441,E,1,05,2.40,1343.12,M,48.183,M,,*77
$GPRMC,143453,A,4629.8992,N,00734.0441,E,0.1776,10.379,090605,,*1A
$GPGSA,A,3,08,10,04,02,27,,,,,,,,1.9,2.4,1.4*33
$PGRME,0.00,M,0.00,M,7.30,M*1A
GPSD,O=MID2 1118327693.280 0.005 46.498320 7.567402 1343.12 19.20 11.24 10.3788 0.091 -0.085 ? 38.40 ? 3
$GPGSV,2,1,08,23,06,084,00,28,07,160,00,08,66,189,44,29,13,273,00*74
$GPGSV,2,2,08,10,51,304,29,04,15,199,36,02,34,241,42,27,71,076,41*7F
GPSD,Y=MID4 1118327694.280 8:23 6 84 0 0:28 7 160 0 0:8 66 189 44 1:29 13 273 0 0:10 51 304 29 1:4 15 199 36 1:2 34 241 42 1:27 71 76 41 1:
$GPGGA,143454,4629.8992,N,00734.0441,E,1,05,2.40,1343.12,M,48.183,M,,*70
$GPRMC,143454,A,4629.8992,N,00734.0441,E,0.1776,10.379,090605,,*1D
$GPGSA,A,3,08,10,04,02,27,,,,,,,,1.9,2.4,1.4*33
GPSD,O=MID2 1118327694.280 0.005 46.498320 7.567402 1343.12 19.20 11.24 10.3788 0.091 -0.085 ? ? ? 3
$GPGGA,143455,4629.8992,N,00734.0441,E,1,05,2.40,1343.12,M,48.183,M,,*71
$GPRMC,143455,A,4629.8992,N,00734.0441,E,0.1776,10.379,090605,,*1C
$GPGSA,A,3,08,10,04,02,27,,,,,,,,1.9,2.4,1.4*33
$PGRME,0.00,M,0.00,M,7.30,M*1A
GPSD,O=MID2 1118327695.280 0.005 46.498320 7.567402 1343.12 19.20 11.24 10.3788 0.091 -0.085 ? 38.40 ? 3
$GPGGA,143456,4629.8999,N,00734.0442,E,1,05,2.40,1343.17,M,48.183,M,,*7F
$GPRMC,143456,A,4629.8999,N,00734.0442,E,0.1776,10.379,090605,,*17
$GPGSA,A,3,08,10,04,02,27,,,,,,,,1.9,2.4,1.4*33
$PGRME,0.00,M,0.00,M,7.30,M*1A
GPSD,O=MID2 1118327696.280 0.005 46.498332 7.567404 1343.17 19.20 11.24 10.3788 0.091 -0.085 ? 38.40 ? 3
$GPGGA,143457,4629.8999,N,00734.0442,E,1,04,3.20,1343.17,M,48.183,M,,*78
$GPRMC,143457,A,4629.8999,N,00734.0442,E,0.1776,10.379,090605,,*16
$GPGSA,A,3,08,04,02,27,,,,,,,,,1.9,3.2,1.4*35
$PGRME,0.00,M,0.00,M,7.30,M*1A
GPSD,O=MID2 1118327697.280 0.005 46.498332 7.567404 1343.17 25.60 11.24 10.3788 0.091 -0.085 ? 44.80 ? 3
$GPGGA,143458,4629.9000,N,00734.0435,E,1,05,2.40,1343.07,M,48.183,M,,*78
$GPRMC,143458,A,4629.9000,N,00734.0435,E,0.1776,10.379,090605,,*11
$GPGSA,A,3,08,10,04,02,27,,,,,,,,1.9,2.4,1.4*33
GPSD,O=MID2 1118327698.280 0.005 46.498333 7.567391 1343.07 19.20 11.24 10.3787 0.091 -0.085 ? 44.80 ? 3
$GPGSV,2,1,08,23,06,084,00,28,07,160,00,08,66,189,45,29,13,273,00*75
$GPGSV,2,2,08,10,51,304,30,04,15,199,36,02,34,241,41,27,71,076,43*76
GPSD,Y=MID4 1118327699.280 8:23 6 84 0 0:28 7 160 0 0:8 66 189 45 1:29 13 273 0 0:10 51 304 30 1:4 15 199 36 1:2 34 241 41 1:27 71 76 43 1:
$GPGGA,143459,4629.9004,N,00734.0436,E,1,05,2.40,1342.39,M,48.183,M,,*72
$GPRMC,143459,A,4629.9004,N,00734.0436,E,0.1776,10.379,090605,,*17
$GPGSA,A,3,08,10,04,02,27,,,,,,,,1.9,2.4,1.4*33
GPSD,O=MID2 1118327699.280 0.005 46.498340 7.567393 1342.39 19.20 11.24 10.3787 0.091 -0.085 ? ? ? 3
$GPGGA,143500,4629.9004,N,00734.0436,E,1,05,2.40,1342.39,M,48.183,M,,*7F
$GPRMC,143500,A,4629.9004,N,00734.0436,E,0.1776,10.379,090605,,*1A
$GPGSA,A,3,08,10,04,02,27,,,,,,,,1.9,2.4,1.4*33
GPSD,O=MID2 1118327700.280 0.005 46.498340 7.567393 1342.39 19.20 11.24 10.3787 0.091 -0.085 ? 38.40 ? 3
$GPGGA,143501,4629.9004,N,00734.0436,E,1,04,3.20,1342.39,M,48.183,M,,*78
$GPRMC,143501,A,4629.9004,N,00734.0436,E,0.1776,10.379,090605,,*1B
$GPGSA,A,3,08,04,02,27,,,,,,,,,1.9,3.2,1.4*35
$PGRME,0.00,M,0.00,M,7.30,M*1A
GPSD,O=MID2 1118327701.280 0.005 46.498340 7.567393 1342.39 25.60 11.24 10.3787 0.091 -0.085 ? 44.80 ? 3
$GPGGA,143502,4629.9008,N,00734.0437,E,1,05,2.40,1341.71,M,48.183,M,,*7F
$GPRMC,143502,A,4629.9008,N,00734.0437,E,0.1776,10.379,090605,,*15
$GPGSA,A,3,08,10,04,02,27,,,,,,,,1.9,2.4,1.4*33
$PGRME,0.00,M,0.00,M,7.30,M*1A
GPSD,O=MID2 1118327702.280 0.005 46.498346 7.567394 1341.71 19.20 11.24 10.3787 0.091 -0.085 ? 44.80 ? 3
$GPGGA,143503,4629.9008,N,00734.0429,E,1,04,3.20,1341.62,M,48.183,M,,*75
$GPRMC,143503,A,4629.9008,N,00734.0429,E,0.1776,10.379,090605,,*1B
$GPGSA,A,3,08,04,02,27,,,,,,,,,1.9,3.2,1.4*35
$PGRME,0.00,M,0.00,M,7.30,M*1A
GPSD,O=MID2 1118327703.280 0.005 46.498347 7.567382 1341.62 25.60 11.24 10.3787 0.091 -0.085 ? 44.80 ? 3
$GPGSV,2,1,08,23,06,084,00,28,07,160,00,08,66,189,45,29,13,273,00*75
$GPGSV,2,2,08,10,51,304,00,04,15,199,34,02,34,241,41,27,71,076,42*76
GPSD,Y=MID4 1118327704.280 8:23 6 84 0 0:28 7 160 0 0:8 66 189 45 1:29 13 273 0 0:10 51 304 0 0:4 15 199 34 1:2 34 241 41 1:27 71 76 42 1:
$GPGGA,143504,4629.9008,N,00734.0429,E,1,04,3.20,1341.62,M,48.183,M,,*72
$GPRMC,143504,A,4629.9008,N,00734.0429,E,0.1776,10.379,090605,,*1C
$GPGSA,A,3,08,04,02,27,,,,,,,,,1.9,3.2,1.4*35
GPSD,O=MID2 1118327704.280 0.005 46.498347 7.567382 1341.62 25.60 11.24 10.3787 0.091 -0.085 ? ? ? 3
$GPGGA,143505,4629.9008,N,00734.0429,E,1,04,3.20,1341.62,M,48.183,M,,*73
$GPRMC,143505,A,4629.9008,N,00734.0429,E,0.1776,10.379,090605,,*1D
$GPGSA,A,3,08,04,02,27,,,,,,,,,1.9,3.2,1.4*35
GPSD,O=MID2 1118327705.280 0.005 46.498347 7.567382 1341.62 25.60 11.24 10.3787 0.091 -0.085 ? 51.20 ? 3
$GPGGA,143506,4629.9008,N,00734.0430,E,1,04,3.20,1340.21,M,48.183,M,,*7E
$GPRMC,143506,A,4629.9008,N,00734.0430,E,0.1776,10.379,090605,,*16
$GPGSA,A,3,08,04,02,27,,,,,,,,,1.9,3.2,1.4*35
GPSD,O=MID2 1118327706.280 0.005 46.498347 7.567383 1340.21 25.60 11.24 10.3787 0.091 -0.085 ? 51.20 ? 3
$GPGGA,143507,4629.9008,N,00734.0430,E,1,04,3.20,1340.21,M,48.183,M,,*7F
$GPRMC,143507,A,4629.9008,N,00734.0430,E,0.1776,10.379,090605,,*17
$GPGSA,A,3,08,04,02,27,,,,,,,,,1.9,3.2,1.4*35
GPSD,O=MID2 1118327707.280 0.005 46.498347 7.567383 1340.21 25.60 11.24 10.3787 0.091 -0.085 ? 51.20 ? 3
$GPGGA,143508,4629.9008,N,00734.0430,E,1,04,3.20,1340.21,M,48.183,M,,*70
$GPRMC,143508,A,4629.9008,N,00734.0430,E,0.1776,10.379,090605,,*18
$GPGSA,A,3,08,04,02,27,,,,,,,,,1.9,3.2,1.4*35
$PGRME,0.00,M,0.00,M,7.30,M*1A
GPSD,O=MID2 1118327708.280 0.005 46.498347 7.567383 1340.21 25.60 11.24 10.3787 0.091 -0.085 ? 51.20 ? 3
$GPGSV,2,1,08,23,06,084,00,28,07,160,00,08,66,189,45,29,13,273,00*75
$GPGSV,2,2,08,10,51,304,23,04,15,199,37,02,34,241,40,27,71,076,41*76
GPSD,Y=MID4 1118327709.280 8:23 6 84 0 0:28 7 160 0 0:8 66 189 45 1:29 13 273 0 0:10 51 304 23 0:4 15 199 37 1:2 34 241 40 1:27 71 76 41 1:
$GPGGA,143509,4629.9004,N,00734.0429,E,1,05,2.40,1340.89,M,48.183,M,,*71
$GPRMC,143509,A,4629.9004,N,00734.0429,E,0.1776,10.379,090605,,*1D
$GPGSA,A,3,08,10,04,02,27,,,,,,,,1.9,2.4,1.4*33
GPSD,O=MID2 1118327709.280 0.005 46.498341 7.567382 1340.89 19.20 11.24 10.3787 0.091 -0.085 ? ? ? 3
$GPGGA,143510,4629.9004,N,00734.0429,E,1,05,2.40,1340.89,M,48.183,M,,*79
$GPRMC,143510,A,4629.9004,N,00734.0429,E,0.0000,0.000,090605,,*2E
$GPGSA,A,3,08,10,04,02,27,,,,,,,,1.9,2.4,1.4*33
$PGRME,0.00,M,0.00,M,7.30,M*1A
GPSD,O=MID2 1118327710.280 0.005 46.498341 7.567382 1340.89 19.20 11.24 0.0000 0.000 0.000 ? 38.40 ? 3
$GPGGA,143511,4629.9001,N,00734.0428,E,1,05,2.40,1341.58,M,48.183,M,,*71
$GPRMC,143511,A,4629.9001,N,00734.0428,E,0.0000,0.000,090605,,*2B
$GPGSA,A,3,08,10,04,02,27,,,,,,,,1.9,2.4,1.4*33
GPSD,O=MID2 1118327711.280 0.005 46.498334 7.567380 1341.58 19.20 11.24 0.0000 0.000 0.000 ? 38.40 ? 3
$GPGGA,143512,4629.9000,N,00734.0436,E,1,04,3.20,1341.67,M,48.183,M,,*76
$GPRMC,143512,A,4629.9000,N,00734.0436,E,0.3121,60.960,090605,,*1E
$GPGSA,A,3,08,04,02,27,,,,,,,,,1.9,3.2,1.4*35
$PGRME,0.00,M,0.00,M,7.30,M*1A
GPSD,O=MID2 1118327712.280 0.005 46.498333 7.567393 1341.67 25.60 11.24 60.9597 0.161 -0.074 ? 44.80 ? 3
$GPGGA,143513,4629.8996,N,00734.0435,E,1,04,3.80,1342.35,M,48.183,M,,*7D
$GPRMC,143513,A,4629.8996,N,00734.0435,E,1.5556,157.529,090605,,*2C
$GPGSA,A,3,08,10,02,27,,,,,,,,,1.9,3.8,1.4*3A
$PGRME,0.00,M,0.00,M,7.30,M*1A
GPSD,O=MID2 1118327713.280 0.005 46.498327 7.567391 1342.35 30.40 11.24 157.5287 0.800 0.013 ? 56.00 ? 3
$GPGSV,2,1,08,23,06,084,00,28,07,160,00,08,66,189,39,29,13,273,00*7E
$GPGSV,2,2,08,10,51,304,36,04,15,199,26,02,34,241,36,27,71,076,43*71
GPSD,Y=MID4 1118327714.280 8:23 6 84 0 0:28 7 160 0 0:8 66 189 39 1:29 13 273 0 0:10 51 304 36 1:4 15 199 26 0:2 34 241 36 1:27 71 76 43 1:
$GPGGA,143514,4629.8992,N,00734.0434,E,1,04,3.80,1343.03,M,48.183,M,,*7B
$GPRMC,143514,A,4629.8992,N,00734.0434,E,0.7149,141.014,090605,,*2B
$GPGSA,A,3,08,10,02,27,,,,,,,,,1.9,3.8,1.4*3A
GPSD,O=MID2 1118327714.280 0.005 46.498320 7.567389 1343.03 30.40 11.24 141.0144 0.368 -0.073 ? ? ? 3
$GPGGA,143515,4629.8984,N,00734.0440,E,1,04,3.80,1343.08,M,48.183,M,,*75
$GPRMC,143515,A,4629.8984,N,00734.0440,E,0.5719,158.581,090605,,*2E
$GPGSA,A,3,08,10,02,27,,,,,,,,,1.9,3.8,1.4*3A
GPSD,O=MID2 1118327715.280 0.005 46.498307 7.567400 1343.08 30.40 11.24 158.5811 0.294 -0.085 ? 60.80 ? 3
$GPGGA,143516,4629.8984,N,00734.0440,E,1,03,12.80,1343.08,M,48.183,M,,*41
$GPRMC,143516,A,4629.8984,N,00734.0440,E,0.4207,150.233,090605,,*20
$GPGSA,A,2,08,02,27,,,,,,,,,,1.9,12.8,1.4*0A
$PGRME,0.00,M,0.00,M,7.30,M*1A
GPSD,O=MID2 1118327716.280 0.005 46.498307 7.567400 ? 102.40 ? 150.2328 0.216 ? ? 132.80 ? 2
$GPGGA,143517,4629.8980,N,00734.0439,E,1,04,3.80,1343.76,M,48.183,M,,*74
$GPRMC,143517,A,4629.8980,N,00734.0439,E,0.3435,5.346,090605,,*29
$GPGSA,A,3,08,10,02,27,,,,,,,,,1.9,3.8,1.4*3A
GPSD,O=MID2 1118327717.280 0.005 46.498300 7.567399 1343.76 30.40 11.24 5.3456 0.177 0.005 ? 132.80 ? 3
$GPGGA,143518,4629.8976,N,00734.0438,E,1,04,2.80,1344.44,M,48.183,M,,*74
$GPRMC,143518,A,4629.8976,N,00734.0438,E,0.0000,0.000,090605,,*2B
$GPGSA,A,3,08,10,04,27,,,,,,,,,1.9,2.8,1.4*3D
$PGRME,0.00,M,0.00,M,7.30,M*1A
GPSD,O=MID2 1118327718.280 0.005 46.498294 7.567397 1344.44 22.40 11.24 0.0000 0.000 0.000 ? 52.80 ? 3
$GPGSV,2,1,08,23,06,084,00,28,07,160,00,08,66,189,41,29,14,273,00*76
$GPGSV,2,2,08,10,51,304,34,04,15,199,23,02,34,241,37,27,71,075,41*76
GPSD,Y=MID4 1118327719.280 8:23 6 84 0 0:28 7 160 0 0:8 66 189 41 1:29 14 273 0 0:10 51 304 34 1:4 15 199 23 1:2 34 241 37 0:27 71 75 41 1:
