{"class":"DEVICE","activated":1251108133.43}
$GPGGA,143447,4629.8972,N,00734.0447,E,1,05,2.40,1342.40,M,48.183,M,,*7C
$GPRMC,143447,A,4629.8972,N,00734.0447,E,0.1776,10.379,090605,,*17
$GPGSA,A,3,08,10,04,02,27,,,,,,,,0.0,2.4,0.0*3E
{"class":"TPV","tag":"MID2","time":1118327687.280,"ept":0.005,"lat":46.498287177,"lon":7.567411672,"alt":1342.402,"eph":36.000,"track":10.3788,"speed":0.091,"climb":-0.085,"mode":3}
$GPRMC,000000,V,4629.8977,N,00734.0444,E,0.0000,0.000,000000,,*36
$GPGSA,A,1,08,10,04,02,27,,,,,,,,,,,*38
$PGRME,1.28,M,2.33,M,0.00,M*17
{"class":"TPV","tag":"GND","time":1118327687.280,"ept":0.005,"lat":46.498294800,"lon":7.567406900,"alt":1342.402,"eph":2.660,"epv":4.830,"track":10.3788,"speed":0.091,"climb":-0.085,"mode":3}
$GPGSV,2,1,08,23,06,084,00,28,07,160,00,08,66,189,44,29,13,273,00*74
$GPGSV,2,2,08,10,51,304,29,04,15,199,36,02,34,241,43,27,71,076,43*7C
{"class":"SKY","tag":"MID4","time":1118327688.280,"reported":8,"satellites":[{"PRN":23,"el":6,"az":84,"ss":0,"used":false},{"PRN":28,"el":7,"az":160,"ss":0,"used":false},{"PRN":8,"el":66,"az":189,"ss":44,"used":true},{"PRN":29,"el":13,"az":273,"ss":0,"used":false},{"PRN":10,"el":51,"az":304,"ss":29,"used":true},{"PRN":4,"el":15,"az":199,"ss":36,"used":true},{"PRN":2,"el":34,"az":241,"ss":43,"used":true},{"PRN":27,"el":71,"az":76,"ss":43,"used":true}]}
$GPGGA,143448,4629.8976,N,00734.0447,E,1,05,2.40,1343.13,M,48.183,M,,*70
$GPRMC,143448,A,4629.8976,N,00734.0447,E,0.1776,10.379,090605,,*1C
$GPGSA,A,3,08,10,04,02,27,,,,,,,,1.9,2.4,1.4*33
{"class":"TPV","tag":"MID2","time":1118327688.280,"ept":0.005,"lat":46.498293369,"lon":7.567411672,"alt":1343.127,"eph":36.000,"epv":32.321,"track":10.3788,"speed":0.091,"climb":-0.085,"mode":3}
$GPRMC,000000,V,4629.8980,N,00734.0443,E,0.0000,0.000,000000,,*39
$GPGSA,A,1,08,10,04,02,27,,,,,,,,,,,*38
$PGRME,1.28,M,2.33,M,0.00,M*17
{"class":"TPV","tag":"GND","time":1118327688.280,"ept":0.005,"lat":46.498300100,"lon":7.567405500,"alt":1343.127,"eph":2.660,"epv":4.840,"track":10.3788,"speed":0.091,"climb":-0.085,"mode":3}
$GPGGA,143449,4629.8980,N,00734.0440,E,1,05,2.40,1342.35,M,48.183,M,,*7A
$GPRMC,143449,A,4629.8980,N,00734.0440,E,0.1776,10.379,090605,,*13
$GPGSA,A,3,08,10,04,02,27,,,,,,,,1.9,2.4,1.4*33
{"class":"TPV","tag":"MID2","time":1118327689.280,"ept":0.005,"lat":46.498300695,"lon":7.567400477,"alt":1342.354,"eph":36.000,"epv":32.321,"track":10.3788,"speed":0.091,"climb":-0.085,"eps":38.66,"mode":3}
$GPRMC,000000,V,4629.8982,N,00734.0443,E,0.0000,0.000,000000,,*3B
$GPGSA,A,1,08,10,04,02,27,,,,,,,,,,,*38
$PGRME,1.29,M,2.33,M,17.34,M*27
{"class":"TPV","tag":"GND","time":1118327689.280,"ept":0.005,"lat":46.498304100,"lon":7.567404500,"alt":1342.354,"eph":2.670,"epv":4.830,"track":10.3788,"speed":0.091,"climb":-0.085,"eps":38.66,"mode":3}
$GPGGA,143450,4629.8984,N,00734.0440,E,1,04,3.20,1343.08,M,48.183,M,,*7F
$GPRMC,143450,A,4629.8984,N,00734.0440,E,0.1776,10.379,090605,,*1F
$GPGSA,A,3,08,04,02,27,,,,,,,,,1.9,3.2,1.4*35
$PGRME,0.00,M,0.00,M,17.34,M*2F
{"class":"TPV","tag":"MID2","time":1118327690.280,"ept":0.005,"lat":46.498306886,"lon":7.567400477,"alt":1343.079,"eph":48.000,"epv":32.321,"track":10.3788,"speed":0.091,"climb":-0.085,"eps":50.67,"mode":3}
$GPRMC,000000,V,4629.8986,N,00734.0442,E,0.0000,0.000,000000,,*3E
$GPGSA,A,1,08,04,02,27,,,,,,,,,,,,*39
$PGRME,1.28,M,2.33,M,0.00,M*17
{"class":"TPV","tag":"GND","time":1118327690.280,"ept":0.005,"lat":46.498309500,"lon":7.567402700,"alt":1343.079,"eph":2.660,"epv":4.840,"track":10.3788,"speed":0.091,"climb":-0.085,"eps":50.67,"mode":3}
$GPGGA,143451,4629.8984,N,00734.0440,E,1,05,2.40,1343.08,M,48.183,M,,*78
$GPRMC,143451,A,4629.8984,N,00734.0440,E,0.1776,10.379,090605,,*1E
$GPGSA,A,3,08,10,04,02,27,,,,,,,,1.9,2.4,1.4*33
{"class":"TPV","tag":"MID2","time":1118327691.280,"ept":0.005,"lat":46.498306886,"lon":7.567400477,"alt":1343.079,"eph":36.000,"epv":32.321,"track":10.3788,"speed":0.091,"climb":-0.085,"eps":38.66,"mode":3}
$GPRMC,000000,V,4629.8989,N,00734.0441,E,0.0000,0.000,000000,,*32
$GPGSA,A,1,08,10,04,02,27,,,,,,,,,,,*38
$PGRME,1.28,M,2.33,M,17.34,M*26
{"class":"TPV","tag":"GND","time":1118327691.280,"ept":0.005,"lat":46.498314500,"lon":7.567401500,"alt":1343.079,"eph":2.660,"epv":4.840,"track":10.3788,"speed":0.091,"climb":-0.085,"eps":38.66,"mode":3}
$GPGGA,143452,4629.8992,N,00734.0441,E,1,05,2.40,1343.12,M,48.183,M,,*76
$GPRMC,143452,A,4629.8992,N,00734.0441,E,0.1776,10.379,090605,,*1B
$GPGSA,A,3,08,10,04,02,27,,,,,,,,1.9,2.4,1.4*33
$PGRME,0.00,M,0.00,M,17.34,M*2F
{"class":"TPV","tag":"MID2","time":1118327692.280,"ept":0.005,"lat":46.498319544,"lon":7.567402192,"alt":1343.122,"eph":36.000,"epv":32.321,"track":10.3788,"speed":0.091,"climb":-0.085,"eps":38.66,"mode":3}
$GPRMC,000000,V,4629.8991,N,00734.0440,E,0.0000,0.000,000000,,*3A
$GPGSA,A,1,08,10,04,02,27,,,,,,,,,,,*38
$PGRME,1.28,M,2.33,M,17.34,M*26
{"class":"TPV","tag":"GND","time":1118327692.280,"ept":0.005,"lat":46.498318900,"lon":7.567400700,"alt":1343.122,"eph":2.650,"epv":4.840,"track":10.3788,"speed":0.091,"climb":-0.085,"eps":38.66,"mode":3}
$GPGSV,2,1,08,23,06,084,00,28,07,160,00,08,66,189,45,29,13,273,00*75
$GPGSV,2,2,08,10,51,304,29,04,15,199,37,02,34,241,42,27,71,076,42*7D
{"class":"SKY","tag":"MID4","time":1118327693.280,"reported":8,"satellites":[{"PRN":23,"el":6,"az":84,"ss":0,"used":false},{"PRN":28,"el":7,"az":160,"ss":0,"used":false},{"PRN":8,"el":66,"az":189,"ss":45,"used":true},{"PRN":29,"el":13,"az":273,"ss":0,"used":false},{"PRN":10,"el":51,"az":304,"ss":29,"used":true},{"PRN":4,"el":15,"az":199,"ss":37,"used":true},{"PRN":2,"el":34,"az":241,"ss":42,"used":true},{"PRN":27,"el":71,"az":76,"ss":42,"used":true}]}
$GPGGA,143453,4629.8992,N,00734.0441,E,1,05,2.40,1343.12,M,48.183,M,,*77
$GPRMC,143453,A,4629.8992,N,00734.0441,E,0.1776,10.379,090605,,*1A
$GPGSA,A,3,08,10,04,02,27,,,,,,,,1.9,2.4,1.4*33
{"class":"TPV","tag":"MID2","time":1118327693.280,"ept":0.005,"lat":46.498319544,"lon":7.567402192,"alt":1343.122,"eph":36.000,"epv":32.321,"track":10.3788,"speed":0.091,"climb":-0.085,"mode":3}
$GPRMC,000000,V,4629.8994,N,00734.0440,E,0.0000,0.000,000000,,*3F
$GPGSA,A,1,08,10,04,02,27,,,,,,,,,,,*38
$PGRME,1.28,M,2.32,M,17.34,M*27
{"class":"TPV","tag":"GND","time":1118327693.280,"ept":0.005,"lat":46.498323100,"lon":7.567399900,"alt":1343.122,"eph":2.650,"epv":4.820,"track":10.3788,"speed":0.091,"climb":-0.085,"mode":3}
$GPGGA,143454,4629.8992,N,00734.0441,E,1,05,2.40,1343.12,M,48.183,M,,*70
$GPRMC,143454,A,4629.8992,N,00734.0441,E,0.1776,10.379,090605,,*1D
$GPGSA,A,3,08,10,04,02,27,,,,,,,,1.9,2.4,1.4*33
$PGRME,0.00,M,0.00,M,17.34,M*2F
{"class":"TPV","tag":"MID2","time":1118327694.280,"ept":0.005,"lat":46.498319544,"lon":7.567402192,"alt":1343.122,"eph":36.000,"epv":32.321,"track":10.3788,"speed":0.091,"climb":-0.085,"eps":38.65,"mode":3}
$GPRMC,000000,V,4629.8996,N,00734.0439,E,0.0000,0.000,000000,,*33
$GPGSA,A,1,08,10,04,02,27,,,,,,,,,,,*38
$PGRME,1.28,M,2.33,M,17.34,M*26
{"class":"TPV","tag":"GND","time":1118327694.280,"ept":0.005,"lat":46.498327100,"lon":7.567398700,"alt":1343.122,"eph":2.660,"epv":4.830,"track":10.3788,"speed":0.091,"climb":-0.085,"eps":38.65,"mode":3}
$GPGGA,143455,4629.8999,N,00734.0442,E,1,05,2.40,1343.17,M,48.183,M,,*7C
$GPRMC,143455,A,4629.8999,N,00734.0442,E,0.1776,10.379,090605,,*14
$GPGSA,A,3,08,10,04,02,27,,,,,,,,1.9,2.4,1.4*33
$PGRME,0.00,M,0.00,M,17.34,M*2F
{"class":"TPV","tag":"MID2","time":1118327695.280,"ept":0.005,"lat":46.498332203,"lon":7.567403907,"alt":1343.165,"eph":36.000,"epv":32.321,"track":10.3788,"speed":0.091,"climb":-0.085,"eps":38.66,"mode":3}
$GPRMC,000000,V,4629.8998,N,00734.0439,E,0.0000,0.000,000000,,*3D
$GPGSA,A,1,08,10,04,02,27,,,,,,,,,,,*38
$PGRME,1.29,M,2.33,M,17.34,M*27
{"class":"TPV","tag":"GND","time":1118327695.280,"ept":0.005,"lat":46.498329900,"lon":7.567397800,"alt":1343.165,"eph":2.680,"epv":4.830,"track":10.3788,"speed":0.091,"climb":-0.085,"eps":38.66,"mode":3}
$GPGGA,143456,4629.8999,N,00734.0442,E,1,04,3.20,1343.17,M,48.183,M,,*79
$GPRMC,143456,A,4629.8999,N,00734.0442,E,0.1776,10.379,090605,,*17
$GPGSA,A,3,08,04,02,27,,,,,,,,,1.9,3.2,1.4*35
$PGRME,0.00,M,0.00,M,17.34,M*2F
{"class":"TPV","tag":"MID2","time":1118327696.280,"ept":0.005,"lat":46.498332203,"lon":7.567403907,"alt":1343.165,"eph":48.000,"epv":32.321,"track":10.3788,"speed":0.091,"climb":-0.085,"eps":50.68,"mode":3}
$GPRMC,000000,V,4629.9000,N,00734.0438,E,0.0000,0.000,000000,,*35
$GPGSA,A,1,08,04,02,27,,,,,,,,,,,,*39
$PGRME,1.28,M,2.33,M,0.00,M*17
{"class":"TPV","tag":"GND","time":1118327696.280,"ept":0.005,"lat":46.498333100,"lon":7.567396500,"alt":1343.165,"eph":2.650,"epv":4.830,"track":10.3788,"speed":0.091,"climb":-0.085,"eps":50.68,"mode":3}
$GPGGA,143457,4629.9000,N,00734.0435,E,1,05,2.40,1343.07,M,48.183,M,,*77
$GPRMC,143457,A,4629.9000,N,00734.0435,E,0.1776,10.379,090605,,*1E
$GPGSA,A,3,08,10,04,02,27,,,,,,,,1.9,2.4,1.4*33
{"class":"TPV","tag":"MID2","time":1118327697.280,"ept":0.005,"lat":46.498333062,"lon":7.567390997,"alt":1343.075,"eph":36.000,"epv":32.321,"track":10.3787,"speed":0.091,"climb":-0.085,"eps":38.65,"mode":3}
$GPRMC,000000,V,4629.9002,N,00734.0437,E,0.0000,0.000,000000,,*38
$GPGSA,A,1,08,10,04,02,27,,,,,,,,,,,*38
$PGRME,1.28,M,2.33,M,17.34,M*26
{"class":"TPV","tag":"GND","time":1118327697.280,"ept":0.005,"lat":46.498336600,"lon":7.567394900,"alt":1343.075,"eph":2.660,"epv":4.840,"track":10.3787,"speed":0.091,"climb":-0.085,"eps":38.65,"mode":3}
$GPGSV,2,1,08,23,06,084,00,28,07,160,00,08,66,189,46,29,13,273,00*76
$GPGSV,2,2,08,10,51,304,31,04,15,199,37,02,34,241,42,27,71,076,43*75
{"class":"SKY","tag":"MID4","time":1118327698.280,"reported":8,"satellites":[{"PRN":23,"el":6,"az":84,"ss":0,"used":false},{"PRN":28,"el":7,"az":160,"ss":0,"used":false},{"PRN":8,"el":66,"az":189,"ss":46,"used":true},{"PRN":29,"el":13,"az":273,"ss":0,"used":false},{"PRN":10,"el":51,"az":304,"ss":31,"used":true},{"PRN":4,"el":15,"az":199,"ss":37,"used":true},{"PRN":2,"el":34,"az":241,"ss":42,"used":true},{"PRN":27,"el":71,"az":76,"ss":43,"used":true}]}
$GPGGA,143458,4629.9004,N,00734.0436,E,1,05,2.40,1342.39,M,48.183,M,,*73
$GPRMC,143458,A,4629.9004,N,00734.0436,E,0.1776,10.379,090605,,*16
$GPGSA,A,3,08,10,04,02,27,,,,,,,,1.9,2.4,1.4*33
{"class":"TPV","tag":"MID2","time":1118327698.280,"ept":0.005,"lat":46.498339529,"lon":7.567392712,"alt":1342.392,"eph":36.000,"epv":32.321,"track":10.3787,"speed":0.091,"climb":-0.085,"mode":3}
$GPRMC,000000,V,4629.9003,N,00734.0436,E,0.0000,0.000,000000,,*38
$GPGSA,A,1,08,10,04,02,27,,,,,,,,,,,*38
$PGRME,1.28,M,2.33,M,0.00,M*17
{"class":"TPV","tag":"GND","time":1118327698.280,"ept":0.005,"lat":46.498338800,"lon":7.567393500,"alt":1342.392,"eph":2.660,"epv":4.840,"track":10.3787,"speed":0.091,"climb":-0.085,"mode":3}
$GPGGA,143459,4629.9004,N,00734.0436,E,1,05,2.40,1342.39,M,48.183,M,,*72
$GPRMC,143459,A,4629.9004,N,00734.0436,E,0.1776,10.379,090605,,*17
$GPGSA,A,3,08,10,04,02,27,,,,,,,,1.9,2.4,1.4*33
{"class":"TPV","tag":"MID2","time":1118327699.280,"ept":0.005,"lat":46.498339529,"lon":7.567392712,"alt":1342.392,"eph":36.000,"epv":32.321,"track":10.3787,"speed":0.091,"climb":-0.085,"eps":38.66,"mode":3}
$GPRMC,000000,V,4629.9004,N,00734.0435,E,0.0000,0.000,000000,,*3C
$GPGSA,A,1,08,10,04,02,27,,,,,,,,,,,*38
$PGRME,1.29,M,2.33,M,17.34,M*27
{"class":"TPV","tag":"GND","time":1118327699.280,"ept":0.005,"lat":46.498340000,"lon":7.567392200,"alt":1342.392,"eph":2.670,"epv":4.830,"track":10.3787,"speed":0.091,"climb":-0.085,"eps":38.66,"mode":3}
$GPGGA,143500,4629.9004,N,00734.0436,E,1,04,3.20,1342.39,M,48.183,M,,*79
$GPRMC,143500,A,4629.9004,N,00734.0436,E,0.1776,10.379,090605,,*1A
$GPGSA,A,3,08,04,02,27,,,,,,,,,1.9,3.2,1.4*35
$PGRME,0.00,M,0.00,M,17.34,M*2F
{"class":"TPV","tag":"MID2","time":1118327700.280,"ept":0.005,"lat":46.498339529,"lon":7.567392712,"alt":1342.392,"eph":48.000,"epv":32.321,"track":10.3787,"speed":0.091,"climb":-0.085,"eps":50.67,"mode":3}
$GPRMC,000000,V,4629.9006,N,00734.0434,E,0.0000,0.000,000000,,*3F
$GPGSA,A,1,08,04,02,27,,,,,,,,,,,,*39
$PGRME,1.27,M,2.33,M,17.34,M*29
{"class":"TPV","tag":"GND","time":1118327700.280,"ept":0.005,"lat":46.498343300,"lon":7.567389200,"alt":1342.392,"eph":2.640,"epv":4.830,"track":10.3787,"speed":0.091,"climb":-0.085,"eps":50.67,"mode":3}
$GPGGA,143501,4629.9008,N,00734.0437,E,1,05,2.40,1341.71,M,48.183,M,,*7C
$GPRMC,143501,A,4629.9008,N,00734.0437,E,0.1776,10.379,090605,,*16
$GPGSA,A,3,08,10,04,02,27,,,,,,,,1.9,2.4,1.4*33
$PGRME,0.00,M,0.00,M,17.34,M*2F
{"class":"TPV","tag":"MID2","time":1118327701.280,"ept":0.005,"lat":46.498345996,"lon":7.567394427,"alt":1341.710,"eph":36.000,"epv":32.321,"track":10.3787,"speed":0.091,"climb":-0.085,"eps":38.64,"mode":3}
$GPRMC,000000,V,4629.9007,N,00734.0432,E,0.0000,0.000,000000,,*38
$GPGSA,A,1,08,10,04,02,27,,,,,,,,,,,*38
$PGRME,1.30,M,2.33,M,17.34,M*2F
{"class":"TPV","tag":"GND","time":1118327701.280,"ept":0.005,"lat":46.498345300,"lon":7.567386900,"alt":1341.710,"eph":2.690,"epv":4.830,"track":10.3787,"speed":0.091,"climb":-0.085,"eps":38.64,"mode":3}
$GPGGA,143502,4629.9008,N,00734.0429,E,1,04,3.20,1341.62,M,48.183,M,,*74
$GPRMC,143502,A,4629.9008,N,00734.0429,E,0.1776,10.379,090605,,*1A
$GPGSA,A,3,08,04,02,27,,,,,,,,,1.9,3.2,1.4*35
$PGRME,0.00,M,0.00,M,17.34,M*2F
{"class":"TPV","tag":"MID2","time":1118327702.280,"ept":0.005,"lat":46.498346855,"lon":7.567381517,"alt":1341.619,"eph":48.000,"epv":32.321,"track":10.3787,"speed":0.091,"climb":-0.085,"eps":50.69,"mode":3}
$GPRMC,000000,V,4629.9008,N,00734.0431,E,0.0000,0.000,000000,,*34
$GPGSA,A,1,08,04,02,27,,,,,,,,,,,,*39
$PGRME,1.29,M,2.33,M,0.00,M*16
{"class":"TPV","tag":"GND","time":1118327702.280,"ept":0.005,"lat":46.498346300,"lon":7.567385500,"alt":1341.619,"eph":2.680,"epv":4.840,"track":10.3787,"speed":0.091,"climb":-0.085,"eps":50.69,"mode":3}
$GPGSV,2,1,08,23,06,084,00,28,07,160,00,08,66,189,45,29,13,273,00*75
$GPGSV,2,2,08,10,51,304,00,04,15,199,34,02,34,241,42,27,71,076,43*74
{"class":"SKY","tag":"MID4","time":1118327703.280,"reported":8,"satellites":[{"PRN":23,"el":6,"az":84,"ss":0,"used":false},{"PRN":28,"el":7,"az":160,"ss":0,"used":false},{"PRN":8,"el":66,"az":189,"ss":45,"used":true},{"PRN":29,"el":13,"az":273,"ss":0,"used":false},{"PRN":10,"el":51,"az":304,"ss":0,"used":false},{"PRN":4,"el":15,"az":199,"ss":34,"used":true},{"PRN":2,"el":34,"az":241,"ss":42,"used":true},{"PRN":27,"el":71,"az":76,"ss":43,"used":true}]}
$GPGGA,143503,4629.9008,N,00734.0429,E,1,04,3.20,1341.62,M,48.183,M,,*75
$GPRMC,143503,A,4629.9008,N,00734.0429,E,0.1776,10.379,090605,,*1B
$GPGSA,A,3,08,04,02,27,,,,,,,,,1.9,3.2,1.4*35
{"class":"TPV","tag":"MID2","time":1118327703.280,"ept":0.005,"lat":46.498346855,"lon":7.567381517,"alt":1341.619,"eph":48.000,"epv":32.321,"track":10.3787,"speed":0.091,"climb":-0.085,"mode":3}
$GPRMC,000000,V,4629.9008,N,00734.0431,E,0.0000,0.000,000000,,*34
$GPGSA,A,1,08,04,02,27,,,,,,,,,,,,*39
$PGRME,1.29,M,2.33,M,0.00,M*16
{"class":"TPV","tag":"GND","time":1118327703.280,"ept":0.005,"lat":46.498346700,"lon":7.567384700,"alt":1341.619,"eph":2.680,"epv":4.830,"track":10.3787,"speed":0.091,"climb":-0.085,"mode":3}
$GPGGA,143504,4629.9008,N,00734.0429,E,1,04,3.20,1341.62,M,48.183,M,,*72
$GPRMC,143504,A,4629.9008,N,00734.0429,E,0.1776,10.379,090605,,*1C
$GPGSA,A,3,08,04,02,27,,,,,,,,,1.9,3.2,1.4*35
{"class":"TPV","tag":"MID2","time":1118327704.280,"ept":0.005,"lat":46.498346855,"lon":7.567381517,"alt":1341.619,"eph":48.000,"epv":32.321,"track":10.3787,"speed":0.091,"climb":-0.085,"eps":50.68,"mode":3}
$GPRMC,000000,V,4629.9008,N,00734.0430,E,0.0000,0.000,000000,,*35
$GPGSA,A,1,08,04,02,27,,,,,,,,,,,,*39
$PGRME,1.30,M,2.33,M,0.00,M*1E
{"class":"TPV","tag":"GND","time":1118327704.280,"ept":0.005,"lat":46.498346600,"lon":7.567383600,"alt":1341.619,"eph":2.690,"epv":4.840,"track":10.3787,"speed":0.091,"climb":-0.085,"eps":50.68,"mode":3}
$GPGGA,143505,4629.9008,N,00734.0430,E,1,04,3.20,1340.21,M,48.183,M,,*7D
$GPRMC,143505,A,4629.9008,N,00734.0430,E,0.1776,10.379,090605,,*15
$GPGSA,A,3,08,04,02,27,,,,,,,,,1.9,3.2,1.4*35
{"class":"TPV","tag":"MID2","time":1118327705.280,"ept":0.005,"lat":46.498347131,"lon":7.567383232,"alt":1340.211,"eph":48.000,"epv":32.321,"track":10.3787,"speed":0.091,"climb":-0.085,"eps":50.69,"mode":3}
$GPRMC,000000,V,4629.9008,N,00734.0430,E,0.0000,0.000,000000,,*35
$GPGSA,A,1,08,04,02,27,,,,,,,,,,,,*39
$PGRME,1.29,M,2.33,M,0.00,M*16
{"class":"TPV","tag":"GND","time":1118327705.280,"ept":0.005,"lat":46.498346100,"lon":7.567382900,"alt":1340.211,"eph":2.680,"epv":4.830,"track":10.3787,"speed":0.091,"climb":-0.085,"eps":50.69,"mode":3}
$GPGGA,143506,4629.9008,N,00734.0430,E,1,04,3.20,1340.21,M,48.183,M,,*7E
$GPRMC,143506,A,4629.9008,N,00734.0430,E,0.1776,10.379,090605,,*16
$GPGSA,A,3,08,04,02,27,,,,,,,,,1.9,3.2,1.4*35
{"class":"TPV","tag":"MID2","time":1118327706.280,"ept":0.005,"lat":46.498347131,"lon":7.567383232,"alt":1340.211,"eph":48.000,"epv":32.321,"track":10.3787,"speed":0.091,"climb":-0.085,"eps":50.68,"mode":3}
$GPRMC,000000,V,4629.9007,N,00734.0430,E,0.0000,0.000,000000,,*3A
$GPGSA,A,1,08,04,02,27,,,,,,,,,,,,*39
$PGRME,1.30,M,2.33,M,17.34,M*2F
{"class":"TPV","tag":"GND","time":1118327706.280,"ept":0.005,"lat":46.498345400,"lon":7.567382800,"alt":1340.211,"eph":2.690,"epv":4.830,"track":10.3787,"speed":0.091,"climb":-0.085,"eps":50.68,"mode":3}
$GPGGA,143507,4629.9008,N,00734.0430,E,1,04,3.20,1340.21,M,48.183,M,,*7F
$GPRMC,143507,A,4629.9008,N,00734.0430,E,0.1776,10.379,090605,,*17
$GPGSA,A,3,08,04,02,27,,,,,,,,,1.9,3.2,1.4*35
$PGRME,0.00,M,0.00,M,17.34,M*2F
{"class":"TPV","tag":"MID2","time":1118327707.280,"ept":0.005,"lat":46.498347131,"lon":7.567383232,"alt":1340.211,"eph":48.000,"epv":32.321,"track":10.3787,"speed":0.091,"climb":-0.085,"eps":50.69,"mode":3}
$GPRMC,000000,V,4629.9006,N,00734.0430,E,0.0000,0.000,000000,,*3B
$GPGSA,A,1,08,04,02,27,,,,,,,,,,,,*39
$PGRME,1.29,M,2.33,M,17.34,M*27
{"class":"TPV","tag":"GND","time":1118327707.280,"ept":0.005,"lat":46.498343900,"lon":7.567383600,"alt":1340.211,"eph":2.670,"epv":4.830,"track":10.3787,"speed":0.091,"climb":-0.085,"eps":50.69,"mode":3}
$GPGSV,2,1,08,23,06,084,00,28,07,160,00,08,66,189,45,29,13,273,00*75
$GPGSV,2,2,08,10,51,304,23,04,15,199,38,02,34,241,40,27,71,076,41*79
{"class":"SKY","tag":"MID4","time":1118327708.280,"reported":8,"satellites":[{"PRN":23,"el":6,"az":84,"ss":0,"used":false},{"PRN":28,"el":7,"az":160,"ss":0,"used":false},{"PRN":8,"el":66,"az":189,"ss":45,"used":true},{"PRN":29,"el":13,"az":273,"ss":0,"used":false},{"PRN":10,"el":51,"az":304,"ss":23,"used":false},{"PRN":4,"el":15,"az":199,"ss":38,"used":true},{"PRN":2,"el":34,"az":241,"ss":40,"used":true},{"PRN":27,"el":71,"az":76,"ss":41,"used":true}]}
$GPGGA,143508,4629.9004,N,00734.0429,E,1,05,2.40,1340.89,M,48.183,M,,*70
$GPRMC,143508,A,4629.9004,N,00734.0429,E,0.1776,10.379,090605,,*1C
$GPGSA,A,3,08,10,04,02,27,,,,,,,,1.9,2.4,1.4*33
{"class":"TPV","tag":"MID2","time":1118327708.280,"ept":0.005,"lat":46.498340664,"lon":7.567381517,"alt":1340.894,"eph":36.000,"epv":32.321,"track":10.3787,"speed":0.091,"climb":-0.085,"mode":3}
$GPRMC,000000,V,4629.9005,N,00734.0431,E,0.0000,0.000,000000,,*39
$GPGSA,A,1,08,10,04,02,27,,,,,,,,,,,*38
$PGRME,1.28,M,2.33,M,17.34,M*26
{"class":"TPV","tag":"GND","time":1118327708.280,"ept":0.005,"lat":46.498341000,"lon":7.567384800,"alt":1340.894,"eph":2.650,"epv":4.840,"track":10.3787,"speed":0.091,"climb":-0.085,"mode":3}
$GPGGA,143509,4629.9004,N,00734.0429,E,1,05,2.40,1340.89,M,48.183,M,,*71
$GPRMC,143509,A,4629.9004,N,00734.0429,E,0.0000,0.000,090605,,*26
$GPGSA,A,3,08,10,04,02,27,,,,,,,,1.9,2.4,1.4*33
$PGRME,0.00,M,0.00,M,17.34,M*2F
{"class":"TPV","tag":"MID2","time":1118327709.280,"ept":0.005,"lat":46.498340664,"lon":7.567381517,"alt":1340.894,"eph":36.000,"epv":32.321,"track":0.0000,"speed":0.000,"climb":0.000,"eps":38.65,"mode":3}
$GPRMC,000000,V,4629.9003,N,00734.0432,E,0.0000,0.000,000000,,*3C
$GPGSA,A,1,08,10,04,02,27,,,,,,,,,,,*38
$PGRME,1.27,M,2.32,M,0.00,M*19
{"class":"TPV","tag":"GND","time":1118327709.280,"ept":0.005,"lat":46.498337700,"lon":7.567385900,"alt":1340.894,"eph":2.640,"epv":4.820,"track":0.0000,"speed":0.000,"climb":0.000,"eps":38.65,"mode":3}
$GPGGA,143510,4629.9001,N,00734.0428,E,1,05,2.40,1341.58,M,48.183,M,,*70
$GPRMC,143510,A,4629.9001,N,00734.0428,E,0.0000,0.000,090605,,*2A
$GPGSA,A,3,08,10,04,02,27,,,,,,,,1.9,2.4,1.4*33
{"class":"TPV","tag":"MID2","time":1118327710.280,"ept":0.005,"lat":46.498334197,"lon":7.567379802,"alt":1341.576,"eph":36.000,"epv":32.321,"track":0.0000,"speed":0.000,"climb":0.000,"eps":38.64,"mode":3}
$GPRMC,000000,V,4629.9001,N,00734.0432,E,0.0000,0.000,000000,,*3E
$GPGSA,A,1,08,10,04,02,27,,,,,,,,,,,*38
$PGRME,1.31,M,2.36,M,17.34,M*2B
{"class":"TPV","tag":"GND","time":1118327710.280,"ept":0.005,"lat":46.498335300,"lon":7.567387300,"alt":1341.576,"eph":2.730,"epv":4.910,"track":0.0000,"speed":0.000,"climb":0.000,"eps":38.64,"mode":3}
$GPGGA,143511,4629.9000,N,00734.0436,E,1,04,3.20,1341.67,M,48.183,M,,*75
$GPRMC,143511,A,4629.9000,N,00734.0436,E,0.3121,60.960,090605,,*1D
$GPGSA,A,3,08,04,02,27,,,,,,,,,1.9,3.2,1.4*35
$PGRME,0.00,M,0.00,M,17.34,M*2F
{"class":"TPV","tag":"MID2","time":1118327711.280,"ept":0.005,"lat":46.498333338,"lon":7.567392712,"alt":1341.667,"eph":48.000,"epv":32.321,"track":60.9597,"speed":0.161,"climb":-0.074,"eps":50.73,"mode":3}
$GPRMC,000000,V,4629.8997,N,00734.0435,E,0.0000,0.000,000000,,*3E
$GPGSA,A,1,08,04,02,27,,,,,,,,,,,,*39
$PGRME,1.31,M,2.38,M,17.34,M*25
{"class":"TPV","tag":"GND","time":1118327711.280,"ept":0.005,"lat":46.498328400,"lon":7.567390900,"alt":1341.667,"eph":2.730,"epv":4.950,"track":60.9597,"speed":0.161,"climb":-0.074,"eps":50.73,"mode":3}
$GPGGA,143512,4629.8996,N,00734.0435,E,1,04,3.80,1342.35,M,48.183,M,,*7C
$GPRMC,143512,A,4629.8996,N,00734.0435,E,1.5556,157.529,090605,,*2D
$GPGSA,A,3,08,10,02,27,,,,,,,,,1.9,3.8,1.4*3A
$PGRME,0.00,M,0.00,M,17.34,M*2F
{"class":"TPV","tag":"MID2","time":1118327712.280,"ept":0.005,"lat":46.498326871,"lon":7.567390997,"alt":1342.349,"eph":57.000,"epv":32.321,"track":157.5287,"speed":0.800,"climb":0.013,"eps":59.73,"mode":3}
$GPRMC,000000,V,4629.8992,N,00734.0437,E,0.0000,0.000,000000,,*39
$GPGSA,A,1,08,10,02,27,,,,,,,,,,,,*3C
$PGRME,1.30,M,2.38,M,17.34,M*24
{"class":"TPV","tag":"GND","time":1118327712.280,"ept":0.005,"lat":46.498319700,"lon":7.567394900,"alt":1342.349,"eph":2.700,"epv":4.950,"track":157.5287,"speed":0.800,"climb":0.013,"eps":59.73,"mode":3}
$GPGSV,2,1,08,23,06,084,00,28,07,160,00,08,66,189,40,29,13,273,00*70
$GPGSV,2,2,08,10,51,304,36,04,15,199,27,02,34,241,36,27,71,076,43*70
{"class":"SKY","tag":"MID4","time":1118327713.280,"reported":8,"satellites":[{"PRN":23,"el":6,"az":84,"ss":0,"used":false},{"PRN":28,"el":7,"az":160,"ss":0,"used":false},{"PRN":8,"el":66,"az":189,"ss":40,"used":true},{"PRN":29,"el":13,"az":273,"ss":0,"used":false},{"PRN":10,"el":51,"az":304,"ss":36,"used":true},{"PRN":4,"el":15,"az":199,"ss":27,"used":false},{"PRN":2,"el":34,"az":241,"ss":36,"used":true},{"PRN":27,"el":71,"az":76,"ss":43,"used":true}]}
$GPGGA,143513,4629.8992,N,00734.0434,E,1,04,3.80,1343.03,M,48.183,M,,*7C
$GPRMC,143513,A,4629.8992,N,00734.0434,E,0.7149,141.014,090605,,*2C
$GPGSA,A,3,08,10,02,27,,,,,,,,,1.9,3.8,1.4*3A
{"class":"TPV","tag":"MID2","time":1118327713.280,"ept":0.005,"lat":46.498320404,"lon":7.567389282,"alt":1343.032,"eph":57.000,"epv":32.321,"track":141.0144,"speed":0.368,"climb":-0.073,"mode":3}
$GPRMC,000000,V,4629.8987,N,00734.0438,E,0.0000,0.000,000000,,*32
$GPGSA,A,1,08,10,02,27,,,,,,,,,,,,*3C
$PGRME,1.31,M,2.40,M,0.00,M*1B
{"class":"TPV","tag":"GND","time":1118327713.280,"ept":0.005,"lat":46.498312400,"lon":7.567397200,"alt":1343.032,"eph":2.710,"epv":4.990,"track":141.0144,"speed":0.368,"climb":-0.073,"mode":3}
$GPGGA,143514,4629.8984,N,00734.0440,E,1,04,3.80,1343.08,M,48.183,M,,*74
$GPRMC,143514,A,4629.8984,N,00734.0440,E,0.5719,158.581,090605,,*2F
$GPGSA,A,3,08,10,02,27,,,,,,,,,1.9,3.8,1.4*3A
{"class":"TPV","tag":"MID2","time":1118327714.280,"ept":0.005,"lat":46.498306886,"lon":7.567400477,"alt":1343.079,"eph":57.000,"epv":32.321,"track":158.5811,"speed":0.294,"climb":-0.085,"eps":59.71,"mode":3}
$GPRMC,000000,V,4629.8984,N,00734.0439,E,0.0000,0.000,000000,,*30
$GPGSA,A,1,08,10,02,27,,,,,,,,,,,,*3C
$PGRME,1.35,M,2.41,M,17.34,M*2F
{"class":"TPV","tag":"GND","time":1118327714.280,"ept":0.005,"lat":46.498306200,"lon":7.567398200,"alt":1343.079,"eph":2.810,"epv":5.010,"track":158.5811,"speed":0.294,"climb":-0.085,"eps":59.71,"mode":3}
$GPGGA,143515,4629.8984,N,00734.0440,E,1,03,12.80,1343.08,M,48.183,M,,*42
$GPRMC,143515,A,4629.8984,N,00734.0440,E,0.4207,150.233,090605,,*23
$GPGSA,A,2,08,02,27,,,,,,,,,,1.9,12.8,1.4*0A
$PGRME,0.00,M,0.00,M,17.34,M*2F
{"class":"TPV","tag":"MID2","time":1118327715.280,"ept":0.005,"lat":46.498306886,"lon":7.567400477,"eph":192.000,"track":150.2328,"speed":0.216,"eps":194.81,"mode":2}
$GPRMC,000000,V,4629.8980,N,00734.0439,E,0.0000,0.000,000000,,*34
$GPGSA,A,1,08,02,27,,,,,,,,,,,,,*3D
$PGRME,1.40,M,2.44,M,0.00,M*19
{"class":"TPV","tag":"GND","time":1118327715.280,"ept":0.005,"lat":46.498299700,"lon":7.567398300,"eph":2.900,"epv":5.070,"track":150.2328,"speed":0.216,"eps":194.81,"mode":2}
$GPGGA,143516,4629.8980,N,00734.0439,E,1,04,3.80,1343.76,M,48.183,M,,*75
$GPRMC,143516,A,4629.8980,N,00734.0439,E,0.3435,5.346,090605,,*28
$GPGSA,A,3,08,10,02,27,,,,,,,,,1.9,3.8,1.4*3A
{"class":"TPV","tag":"MID2","time":1118327716.280,"ept":0.005,"lat":46.498300419,"lon":7.567398762,"alt":1343.762,"eph":57.000,"epv":32.321,"track":5.3456,"speed":0.177,"climb":0.005,"eps":59.90,"mode":3}
$GPRMC,000000,V,4629.8977,N,00734.0440,E,0.0000,0.000,000000,,*32
$GPGSA,A,1,08,10,02,27,,,,,,,,,,,,*3C
$PGRME,1.45,M,2.44,M,17.34,M*2D
{"class":"TPV","tag":"GND","time":1118327716.280,"ept":0.005,"lat":46.498294500,"lon":7.567400000,"alt":1343.762,"eph":3.020,"epv":5.070,"track":5.3456,"speed":0.177,"climb":0.005,"eps":59.90,"mode":3}
$GPGGA,143517,4629.8976,N,00734.0438,E,1,04,2.80,1344.44,M,48.183,M,,*7B
$GPRMC,143517,A,4629.8976,N,00734.0438,E,0.0000,0.000,090605,,*24
$GPGSA,A,3,08,10,04,27,,,,,,,,,1.9,2.8,1.4*3D
$PGRME,0.00,M,0.00,M,17.34,M*2F
{"class":"TPV","tag":"MID2","time":1118327717.280,"ept":0.005,"lat":46.498293952,"lon":7.567397047,"alt":1344.444,"eph":42.000,"epv":32.321,"track":0.0000,"speed":0.000,"climb":0.000,"eps":45.02,"mode":3}
$GPRMC,000000,V,4629.8975,N,00734.0441,E,0.0000,0.000,000000,,*31
$GPGSA,A,1,08,10,04,27,,,,,,,,,,,,*3A
$PGRME,1.45,M,2.46,M,17.34,M*2F
{"class":"TPV","tag":"GND","time":1118327717.280,"ept":0.005,"lat":46.498291400,"lon":7.567401000,"alt":1344.444,"eph":3.010,"epv":5.100,"track":0.0000,"speed":0.000,"climb":0.000,"eps":45.02,"mode":3}
$GPGSV,2,1,08,23,06,084,00,28,07,160,00,08,66,189,41,29,14,273,00*76
$GPGSV,2,2,08,10,51,304,35,04,15,199,23,02,34,241,37,27,71,075,41*77
{"class":"SKY","tag":"MID4","time":1118327718.280,"reported":8,"satellites":[{"PRN":23,"el":6,"az":84,"ss":0,"used":false},{"PRN":28,"el":7,"az":160,"ss":0,"used":false},{"PRN":8,"el":66,"az":189,"ss":41,"used":true},{"PRN":29,"el":14,"az":273,"ss":0,"used":false},{"PRN":10,"el":51,"az":304,"ss":35,"used":true},{"PRN":4,"el":15,"az":199,"ss":23,"used":true},{"PRN":2,"el":34,"az":241,"ss":37,"used":false},{"PRN":27,"el":71,"az":75,"ss":41,"used":true}]}
