$GPRMC,000000,V,4629.8923,N,00734.0838,E,0.0000,0.000,000000,,*30
$GPGSA,A,1,,,,,,,,,,,,,,,,*32
$PGRME,1.26,M,2.31,M,0.00,M*1B
GPSD,O=?
$GPGSV,2,1,07,10,45,196,10,29,67,310,42,28,59,108,40,26,51,304,44*70
$GPGSV,2,2,07,08,44,058,43,27,16,066,37,21,10,301,00*4A
GPSD,Y=MID4 1119197546.890 7:10 45 196 10 0:29 67 310 42 0:28 59 108 40 0:26 51 304 44 0:8 44 58 43 0:27 16 66 37 0:21 10 301 0 0:
$GPGGA,161226,4629.8923,N,00734.0837,E,1,05,3.20,1327.69,M,48.183,M,,*7D
$GPRMC,161226,A,4629.8923,N,00734.0837,E,0.1673,180.000,190605,,*29
$GPGSA,A,3,29,28,26,08,27,,,,,,,,5.6,3.2,5.4*39
GPSD,O=MID2 1119197546.890 0.005 46.498204496 7.568061439 1327.689 48.000 124.484 180.0000 0.086 -0.091 ? ? ? 3
$GPRMC,000000,V,4629.8923,N,00734.0837,E,0.0000,0.000,000000,,*3F
$GPGSA,A,1,29,28,26,08,27,,,,,,,,,,,*3A
$PGRME,1.27,M,2.32,M,0.00,M*19
GPSD,O=?
$GPGGA,161227,4629.8923,N,00734.0837,E,1,05,3.20,1327.69,M,48.183,M,,*7C
$GPRMC,161227,A,4629.8923,N,00734.0837,E,0.1776,10.380,190605,,*1F
$GPGSA,A,3,29,28,26,08,27,,,,,,,,5.6,3.2,5.4*39
GPSD,O=MID2 1119197547.890 0.005 46.498204496 7.568061439 1327.689 48.000 124.484 10.3797 0.091 -0.085 ? 50.63 ? 3
$GPRMC,000000,V,4629.8923,N,00734.0834,E,0.0000,0.000,000000,,*3C
$GPGSA,A,1,29,28,26,08,27,,,,,,,,,,,*3A
$PGRME,1.22,M,2.31,M,51.47,M*28
GPSD,O=?
$GPGGA,161228,4629.8923,N,00734.0837,E,1,06,1.40,1327.69,M,48.183,M,,*74
$GPRMC,161228,A,4629.8923,N,00734.0837,E,0.1673,180.000,190605,,*27
$GPGSA,A,3,10,29,28,26,08,27,,,,,,,5.6,1.4,5.4*3C
$PGRME,0.00,M,0.00,M,51.47,M*29
GPSD,O=MID2 1119197548.890 0.005 46.498204496 7.568061439 1327.689 21.000 124.484 180.0000 0.086 -0.091 ? 23.54 ? 3
$GPRMC,000000,V,4629.8922,N,00734.0833,E,0.0000,0.000,000000,,*3A
$GPGSA,A,1,10,29,28,26,08,27,,,,,,,,,,*3B
$PGRME,1.25,M,2.31,M,51.47,M*2F
GPSD,O=?
$GPGGA,161229,4629.8923,N,00734.0837,E,1,06,1.40,1327.69,M,48.183,M,,*75
$GPRMC,161229,A,4629.8923,N,00734.0837,E,0.0000,0.000,190605,,*2C
$GPGSA,A,3,10,29,28,26,08,27,,,,,,,5.6,1.4,5.4*3C
$PGRME,0.00,M,0.00,M,51.47,M*29
GPSD,O=MID2 1119197549.890 0.005 46.498204496 7.568061439 1327.689 21.000 124.484 0.0000 0.000 0.000 ? 23.59 ? 3
$GPRMC,000000,V,4629.8921,N,00734.0833,E,0.0000,0.000,000000,,*39
$GPGSA,A,1,10,29,28,26,08,27,,,,,,,,,,*3B
$PGRME,1.23,M,2.31,M,0.00,M*1E
GPSD,O=?
$GPGGA,161230,4629.8919,N,00734.0837,E,1,06,1.40,1326.96,M,48.183,M,,*75
$GPRMC,161230,A,4629.8919,N,00734.0837,E,0.1673,180.000,190605,,*27
$GPGSA,A,3,10,29,28,26,08,27,,,,,,,5.6,1.4,5.4*3C
GPSD,O=MID2 1119197550.890 0.005 46.498198305 7.568061439 1326.964 21.000 124.484 180.0000 0.086 -0.091 ? 23.55 ? 3
$GPRMC,000000,V,4629.8920,N,00734.0834,E,0.0000,0.000,000000,,*3F
$GPGSA,A,1,10,29,28,26,08,27,,,,,,,,,,*3B
$PGRME,1.23,M,2.31,M,0.00,M*1E
GPSD,O=?
$GPGSV,2,1,07,10,45,196,34,29,67,310,40,28,59,108,43,26,51,304,43*70
$GPGSV,2,2,07,08,44,058,42,27,16,066,39,21,10,301,00*45
GPSD,Y=MID4 1119197551.890 7:10 45 196 34 1:29 67 310 40 1:28 59 108 43 1:26 51 304 43 1:8 44 58 42 1:27 16 66 39 1:21 10 301 0 0:
$GPGGA,161231,4629.8919,N,00734.0837,E,1,06,1.40,1326.96,M,48.183,M,,*74
$GPRMC,161231,A,4629.8919,N,00734.0837,E,0.0000,0.000,190605,,*2C
$GPGSA,A,3,10,29,28,26,08,27,,,,,,,5.6,1.4,5.4*3C
GPSD,O=MID2 1119197551.890 0.005 46.498198305 7.568061439 1326.964 21.000 124.484 0.0000 0.000 0.000 ? ? ? 3
$GPRMC,000000,V,4629.8919,N,00734.0836,E,0.0000,0.000,000000,,*37
$GPGSA,A,1,10,29,28,26,08,27,,,,,,,,,,*3B
$PGRME,1.23,M,2.31,M,0.00,M*1E
GPSD,O=?
$GPGGA,161232,4629.8919,N,00734.0837,E,1,06,1.40,1326.96,M,48.183,M,,*77
$GPRMC,161232,A,4629.8919,N,00734.0837,E,0.0000,0.000,190605,,*2F
$GPGSA,A,3,10,29,28,26,08,27,,,,,,,5.6,1.4,5.4*3C
GPSD,O=MID2 1119197552.890 0.005 46.498198305 7.568061439 1326.964 21.000 124.484 0.0000 0.000 0.000 ? 23.55 ? 3
$GPRMC,000000,V,4629.8919,N,00734.0839,E,0.0000,0.000,000000,,*38
$GPGSA,A,1,10,29,28,26,08,27,,,,,,,,,,*3B
$PGRME,1.23,M,2.30,M,0.00,M*1F
GPSD,O=?
$GPGGA,161233,4629.8919,N,00734.0837,E,1,06,1.40,1326.96,M,48.183,M,,*76
$GPRMC,161233,A,4629.8919,N,00734.0837,E,0.0000,0.000,190605,,*2E
$GPGSA,A,3,10,29,28,26,08,27,,,,,,,5.6,1.4,5.4*3C
GPSD,O=MID2 1119197553.890 0.005 46.498198305 7.568061439 1326.964 21.000 124.484 0.0000 0.000 0.000 ? 23.56 ? 3
$GPRMC,000000,V,4629.8919,N,00734.0841,E,0.0000,0.000,000000,,*37
$GPGSA,A,1,10,29,28,26,08,27,,,,,,,,,,*3B
$PGRME,1.23,M,2.31,M,51.47,M*29
GPSD,O=?
$GPGGA,161234,4629.8918,N,00734.0845,E,1,06,1.40,1327.05,M,48.183,M,,*7E
$GPRMC,161234,A,4629.8918,N,00734.0845,E,0.0000,0.000,190605,,*2D
$GPGSA,A,3,10,29,28,26,08,27,,,,,,,5.6,1.4,5.4*3C
$PGRME,0.00,M,0.00,M,51.47,M*29
GPSD,O=MID2 1119197554.890 0.005 46.498197446 7.568074350 1327.054 21.000 124.484 0.0000 0.000 0.000 ? 23.55 ? 3
$GPRMC,000000,V,4629.8919,N,00734.0842,E,0.0000,0.000,000000,,*34
$GPGSA,A,1,10,29,28,26,08,27,,,,,,,,,,*3B
$PGRME,1.23,M,2.31,M,51.47,M*29
GPSD,O=?
$GPGGA,161235,4629.8918,N,00734.0845,E,1,06,1.40,1327.05,M,48.183,M,,*7F
$GPRMC,161235,A,4629.8918,N,00734.0845,E,0.0000,0.000,190605,,*2C
$GPGSA,A,3,10,29,28,26,08,27,,,,,,,5.6,1.4,5.4*3C
$PGRME,0.00,M,0.00,M,51.47,M*29
GPSD,O=MID2 1119197555.890 0.005 46.498197446 7.568074350 1327.054 21.000 124.484 0.0000 0.000 0.000 ? 23.56 ? 3
$GPRMC,000000,V,4629.8919,N,00734.0842,E,0.0000,0.000,000000,,*34
$GPGSA,A,1,10,29,28,26,08,27,,,,,,,,,,*3B
$PGRME,1.23,M,2.31,M,51.47,M*29
GPSD,O=?
$GPGSV,2,1,07,10,45,196,35,29,67,310,40,28,59,108,43,26,51,304,41*73
$GPGSV,2,2,07,08,44,058,41,27,16,066,39,21,10,301,00*46
GPSD,Y=MID4 1119197556.890 7:10 45 196 35 1:29 67 310 40 1:28 59 108 43 1:26 51 304 41 1:8 44 58 41 1:27 16 66 39 1:21 10 301 0 0:
$GPGGA,161236,4629.8918,N,00734.0845,E,1,06,1.40,1327.05,M,48.183,M,,*7C
$GPRMC,161236,A,4629.8918,N,00734.0845,E,0.0000,0.000,190605,,*2F
$GPGSA,A,3,10,29,28,26,08,27,,,,,,,5.6,1.4,5.4*3C
GPSD,O=MID2 1119197556.890 0.005 46.498197446 7.568074350 1327.054 21.000 124.484 0.0000 0.000 0.000 ? ? ? 3
$GPRMC,000000,V,4629.8920,N,00734.0842,E,0.0000,0.000,000000,,*3E
$GPGSA,A,1,10,29,28,26,08,27,,,,,,,,,,*3B
$PGRME,1.23,M,2.31,M,0.00,M*1E
GPSD,O=?
$GPGGA,161237,4629.8918,N,00734.0845,E,1,06,1.40,1327.05,M,48.183,M,,*7D
$GPRMC,161237,A,4629.8918,N,00734.0845,E,0.0000,0.000,190605,,*2E
$GPGSA,A,3,10,29,28,26,08,27,,,,,,,5.6,1.4,5.4*3C
GPSD,O=MID2 1119197557.890 0.005 46.498197446 7.568074350 1327.054 21.000 124.484 0.0000 0.000 0.000 ? 23.56 ? 3
$GPRMC,000000,V,4629.8921,N,00734.0842,E,0.0000,0.000,000000,,*3F
$GPGSA,A,1,10,29,28,26,08,27,,,,,,,,,,*3B
$PGRME,1.23,M,2.30,M,0.00,M*1F
GPSD,O=?
$GPGGA,161238,4629.8922,N,00734.0845,E,1,06,1.40,1327.78,M,48.183,M,,*71
$GPRMC,161238,A,4629.8922,N,00734.0845,E,0.0000,0.000,190605,,*28
$GPGSA,A,3,10,29,28,26,08,27,,,,,,,5.6,1.4,5.4*3C
GPSD,O=MID2 1119197558.890 0.005 46.498203637 7.568074350 1327.780 21.000 124.484 0.0000 0.000 0.000 ? 23.56 ? 3
$GPRMC,000000,V,4629.8923,N,00734.0843,E,0.0000,0.000,000000,,*3C
$GPGSA,A,1,10,29,28,26,08,27,,,,,,,,,,*3B
$PGRME,1.23,M,2.31,M,0.00,M*1E
GPSD,O=?
$GPGGA,161239,4629.8922,N,00734.0845,E,1,06,1.40,1327.78,M,48.183,M,,*70
$GPRMC,161239,A,4629.8922,N,00734.0845,E,0.0000,0.000,190605,,*29
$GPGSA,A,3,10,29,28,26,08,27,,,,,,,5.6,1.4,5.4*3C
GPSD,O=MID2 1119197559.890 0.005 46.498203637 7.568074350 1327.780 21.000 124.484 0.0000 0.000 0.000 ? 23.55 ? 3
$GPRMC,000000,V,4629.8924,N,00734.0846,E,0.0000,0.000,000000,,*3E
$GPGSA,A,1,10,29,28,26,08,27,,,,,,,,,,*3B
$PGRME,1.23,M,2.30,M,0.00,M*1F
GPSD,O=?
$GPGGA,161240,4629.8922,N,00734.0845,E,1,06,1.40,1327.78,M,48.183,M,,*7E
$GPRMC,161240,A,4629.8922,N,00734.0845,E,0.0000,0.000,190605,,*27
$GPGSA,A,3,10,29,28,26,08,27,,,,,,,5.6,1.4,5.4*3C
GPSD,O=MID2 1119197560.890 0.005 46.498203637 7.568074350 1327.780 21.000 124.484 0.0000 0.000 0.000 ? 23.56 ? 3
$GPRMC,000000,V,4629.8926,N,00734.0849,E,0.0000,0.000,000000,,*33
$GPGSA,A,1,10,29,28,26,08,27,,,,,,,,,,*3B
$PGRME,1.23,M,2.30,M,51.47,M*28
GPSD,O=?
$GPGSV,2,1,07,10,45,196,34,29,67,310,40,28,59,108,43,26,51,304,44*77
$GPGSV,2,2,07,08,44,058,42,27,16,066,40,21,10,301,00*4B
GPSD,Y=MID4 1119197561.890 7:10 45 196 34 1:29 67 310 40 1:28 59 108 43 1:26 51 304 44 1:8 44 58 42 1:27 16 66 40 1:21 10 301 0 0:
$GPGGA,161241,4629.8925,N,00734.0852,E,1,06,1.40,1328.60,M,48.183,M,,*78
$GPRMC,161241,A,4629.8925,N,00734.0852,E,0.0000,0.000,190605,,*27
$GPGSA,A,3,10,29,28,26,08,27,,,,,,,5.6,1.4,5.4*3C
GPSD,O=MID2 1119197561.890 0.005 46.498208969 7.568087260 1328.596 21.000 124.484 0.0000 0.000 0.000 ? ? ? 3
$GPRMC,000000,V,4629.8928,N,00734.0851,E,0.0000,0.000,000000,,*34
$GPGSA,A,1,10,29,28,26,08,27,,,,,,,,,,*3B
$PGRME,1.25,M,2.31,M,0.00,M*18
GPSD,O=?
$GPGGA,161242,4629.8925,N,00734.0852,E,1,06,1.40,1328.60,M,48.183,M,,*7B
$GPRMC,161242,A,4629.8925,N,00734.0852,E,0.1776,190.380,190605,,*20
$GPGSA,A,3,10,29,28,26,08,27,,,,,,,5.6,1.4,5.4*3C
GPSD,O=MID2 1119197562.890 0.005 46.498208969 7.568087260 1328.596 21.000 124.484 190.3797 0.091 0.085 ? 23.60 ? 3
$GPRMC,000000,V,4629.8929,N,00734.0853,E,0.0000,0.000,000000,,*37
$GPGSA,A,1,10,29,28,26,08,27,,,,,,,,,,*3B
$PGRME,1.22,M,2.34,M,0.00,M*1A
GPSD,O=?
$GPGGA,161243,4629.8929,N,00734.0852,E,1,06,1.40,1329.32,M,48.183,M,,*70
$GPRMC,161243,A,4629.8929,N,00734.0852,E,0.1673,0.000,190605,,*2A
$GPGSA,A,3,10,29,28,26,08,27,,,,,,,5.6,1.4,5.4*3C
GPSD,O=MID2 1119197563.890 0.005 46.498215161 7.568087260 1329.321 21.000 124.484 0.0000 0.086 0.091 ? 23.53 ? 3
$GPRMC,000000,V,4629.8931,N,00734.0854,E,0.0000,0.000,000000,,*39
$GPGSA,A,1,10,29,28,26,08,27,,,,,,,,,,*3B
$PGRME,1.23,M,2.30,M,0.00,M*1F
GPSD,O=?
$GPGGA,161244,4629.8933,N,00734.0853,E,1,06,1.40,1328.64,M,48.183,M,,*7F
$GPRMC,161244,A,4629.8933,N,00734.0853,E,0.1673,0.000,190605,,*27
$GPGSA,A,3,10,29,28,26,08,27,,,,,,,5.6,1.4,5.4*3C
GPSD,O=MID2 1119197564.890 0.005 46.498221628 7.568088976 1328.639 21.000 124.484 0.0000 0.086 0.091 ? 23.56 ? 3
$GPRMC,000000,V,4629.8932,N,00734.0855,E,0.0000,0.000,000000,,*3B
$GPGSA,A,1,10,29,28,26,08,27,,,,,,,,,,*3B
$PGRME,1.23,M,2.30,M,51.47,M*28
GPSD,O=?
$GPGGA,161245,4629.8933,N,00734.0853,E,1,06,1.40,1328.64,M,48.183,M,,*7E
$GPRMC,161245,A,4629.8933,N,00734.0853,E,0.2420,95.505,190605,,*1D
$GPGSA,A,3,10,29,28,26,08,27,,,,,,,5.6,1.4,5.4*3C
$PGRME,0.00,M,0.00,M,51.47,M*29
GPSD,O=MID2 1119197565.890 0.005 46.498221628 7.568088976 1328.639 21.000 124.484 95.5047 0.124 0.011 ? 23.56 ? 3
$GPRMC,000000,V,4629.8933,N,00734.0855,E,0.0000,0.000,000000,,*3A
$GPGSA,A,1,10,29,28,26,08,27,,,,,,,,,,*3B
$PGRME,1.23,M,2.30,M,0.00,M*1F
GPSD,O=?
$GPGSV,2,1,07,10,45,196,43,29,67,312,46,28,59,108,45,26,51,304,43*72
$GPGSV,2,2,07,08,44,058,45,27,16,066,39,21,10,301,00*42
GPSD,Y=MID4 1119197566.890 7:10 45 196 43 1:29 67 312 46 1:28 59 108 45 1:26 51 304 43 1:8 44 58 45 1:27 16 66 39 1:21 10 301 0 0:
$GPGGA,161246,4629.8933,N,00734.0853,E,1,06,1.40,1328.64,M,48.183,M,,*7D
$GPRMC,161246,A,4629.8933,N,00734.0853,E,0.1776,190.380,190605,,*22
$GPGSA,A,3,10,29,28,26,08,27,,,,,,,5.6,1.4,5.4*3C
GPSD,O=MID2 1119197566.890 0.005 46.498221628 7.568088976 1328.639 21.000 124.484 190.3797 0.091 0.085 ? ? ? 3
$GPRMC,000000,V,4629.8932,N,00734.0856,E,0.0000,0.000,000000,,*38
$GPGSA,A,1,10,29,28,26,08,27,,,,,,,,,,*3B
$PGRME,1.23,M,2.30,M,51.47,M*28
GPSD,O=?
$GPGGA,161247,4629.8929,N,00734.0852,E,1,06,1.40,1329.32,M,48.183,M,,*74
$GPRMC,161247,A,4629.8929,N,00734.0852,E,0.1776,190.380,190605,,*29
$GPGSA,A,3,10,29,28,26,08,27,,,,,,,5.6,1.4,5.4*3C
$PGRME,0.00,M,0.00,M,51.47,M*29
GPSD,O=MID2 1119197567.890 0.005 46.498215161 7.568087260 1329.321 21.000 124.484 190.3797 0.091 0.085 ? 23.56 ? 3
$GPRMC,000000,V,4629.8931,N,00734.0855,E,0.0000,0.000,000000,,*38
$GPGSA,A,1,10,29,28,26,08,27,,,,,,,,,,*3B
$PGRME,1.23,M,2.30,M,51.47,M*28
GPSD,O=?
$GPGGA,161248,4629.8929,N,00734.0852,E,1,06,1.40,1329.32,M,48.183,M,,*7B
$GPRMC,161248,A,4629.8929,N,00734.0852,E,0.1776,190.380,190605,,*26
$GPGSA,A,3,10,29,28,26,08,27,,,,,,,5.6,1.4,5.4*3C
$PGRME,0.00,M,0.00,M,51.47,M*29
GPSD,O=MID2 1119197568.890 0.005 46.498215161 7.568087260 1329.321 21.000 124.484 190.3797 0.091 0.085 ? 23.56 ? 3
$GPRMC,000000,V,4629.8930,N,00734.0855,E,0.0000,0.000,000000,,*39
$GPGSA,A,1,10,29,28,26,08,27,,,,,,,,,,*3B
$PGRME,1.23,M,2.30,M,51.47,M*28
GPSD,O=?
$GPGGA,161249,4629.8933,N,00734.0852,E,1,06,1.40,1330.05,M,48.183,M,,*7D
$GPRMC,161249,A,4629.8933,N,00734.0852,E,0.1776,190.380,190605,,*2C
$GPGSA,A,3,10,29,28,26,08,27,,,,,,,5.6,1.4,5.4*3C
$PGRME,0.00,M,0.00,M,51.47,M*29
GPSD,O=MID2 1119197569.890 0.005 46.498221352 7.568087260 1330.046 21.000 124.484 190.3797 0.091 0.085 ? 23.56 ? 3
$GPRMC,000000,V,4629.8930,N,00734.0853,E,0.0000,0.000,000000,,*3F
$GPGSA,A,1,10,29,28,26,08,27,,,,,,,,,,*3B
$PGRME,1.23,M,2.30,M,51.47,M*28
GPSD,O=?
$GPGGA,161250,4629.8929,N,00734.0851,E,1,06,1.40,1330.73,M,48.183,M,,*7C
$GPRMC,161250,A,4629.8929,N,00734.0851,E,0.1776,190.380,190605,,*2C
$GPGSA,A,3,10,29,28,26,08,27,,,,,,,5.6,1.4,5.4*3C
$PGRME,0.00,M,0.00,M,51.47,M*29
GPSD,O=MID2 1119197570.890 0.005 46.498214885 7.568085545 1330.729 21.000 124.484 190.3797 0.091 0.085 ? 23.56 ? 3
$GPRMC,000000,V,4629.8930,N,00734.0851,E,0.0000,0.000,000000,,*3D
$GPGSA,A,1,10,29,28,26,08,27,,,,,,,,,,*3B
$PGRME,1.23,M,2.30,M,51.47,M*28
GPSD,O=?
$GPGSV,2,1,07,10,45,196,44,29,67,312,46,28,59,108,46,26,51,304,46*73
$GPGSV,2,2,07,08,44,058,47,27,16,066,38,21,10,301,00*41
GPSD,Y=MID4 1119197571.890 7:10 45 196 44 1:29 67 312 46 1:28 59 108 46 1:26 51 304 46 1:8 44 58 47 1:27 16 66 38 1:21 10 301 0 0:
$GPGGA,161251,4629.8929,N,00734.0851,E,1,06,1.40,1330.73,M,48.183,M,,*7D
$GPRMC,161251,A,4629.8929,N,00734.0851,E,0.2420,275.505,190605,,*2D
$GPGSA,A,3,10,29,28,26,08,27,,,,,,,5.6,1.4,5.4*3C
GPSD,O=MID2 1119197571.890 0.005 46.498214885 7.568085545 1330.729 21.000 124.484 275.5047 0.124 -0.011 ? ? ? 3
$GPRMC,000000,V,4629.8931,N,00734.0846,E,0.0000,0.000,000000,,*3A
$GPGSA,A,1,10,29,28,26,08,27,,,,,,,,,,*3B
$PGRME,1.23,M,2.30,M,51.47,M*28
GPSD,O=?
$GPGGA,161252,4629.8929,N,00734.0844,E,1,06,1.40,1330.64,M,48.183,M,,*7C
$GPRMC,161252,A,4629.8929,N,00734.0844,E,1.4953,310.306,190605,,*23
$GPGSA,A,3,10,29,28,26,08,27,,,,,,,5.6,1.4,5.4*3C
$PGRME,0.00,M,0.00,M,51.47,M*29
GPSD,O=MID2 1119197572.890 0.005 46.498215744 7.568072634 1330.638 21.000 124.484 310.3062 0.769 0.045 ? 23.56 ? 3
$GPRMC,000000,V,4629.8934,N,00734.0838,E,0.0000,0.000,000000,,*36
$GPGSA,A,1,10,29,28,26,08,27,,,,,,,,,,*3B
$PGRME,1.23,M,2.31,M,51.47,M*29
GPSD,O=?
$GPGGA,161253,4629.8934,N,00734.0836,E,1,06,1.40,1331.27,M,48.183,M,,*72
$GPRMC,161253,A,4629.8934,N,00734.0836,E,2.2921,306.984,190605,,*2C
$GPGSA,A,3,10,29,28,26,08,27,,,,,,,5.6,1.4,5.4*3C
$PGRME,0.00,M,0.00,M,51.47,M*29
GPSD,O=MID2 1119197573.890 0.005 46.498222794 7.568059724 1331.273 21.000 124.484 306.9839 1.179 0.016 ? 23.55 ? 3
$GPRMC,000000,V,4629.8938,N,00734.0828,E,0.0000,0.000,000000,,*3B
$GPGSA,A,1,10,29,28,26,08,27,,,,,,,,,,*3B
$PGRME,1.23,M,2.30,M,51.47,M*28
GPSD,O=?
