{"class":"DEVICE","activated":1251108146.01}
$GPGGA,143415,4629.8901,N,00734.0471,E,1,05,2.40,1349.51,M,48.183,M,,*71
$GPRMC,143415,A,4629.8901,N,00734.0471,E,0.1776,10.379,090605,,*11
$GPGSA,A,3,08,10,04,02,27,,,,,,,,1.9,2.4,1.4*33
{"class":"TPV","tag":"MID2","time":1118327655.280,"ept":0.005,"lat":46.498167579,"lon":7.567452213,"alt":1349.507,"eph":36.000,"epv":32.905,"track":10.3789,"speed":0.091,"climb":-0.085,"mode":3}
$GPRMC,000000,V,4629.8904,N,00734.0473,E,0.0000,0.000,000000,,*36
$GPGSA,A,1,08,10,04,02,27,,,,,,,,,,,*38
$PGRME,1.28,M,2.46,M,17.47,M*20
{"class":"TPV","tag":"GND","time":1118327655.280,"ept":0.005,"lat":46.498173900,"lon":7.567455500,"alt":1349.507,"eph":2.660,"epv":5.110,"track":10.3789,"speed":0.091,"climb":-0.085,"mode":3}
$GPGGA,143416,4629.8905,N,00734.0473,E,1,05,2.40,1347.42,M,48.183,M,,*78
$GPRMC,143416,A,4629.8905,N,00734.0473,E,0.1776,10.379,090605,,*14
$GPGSA,A,3,08,10,04,02,27,,,,,,,,1.9,2.4,1.4*33
$PGRME,0.00,M,0.00,M,17.47,M*2B
{"class":"TPV","tag":"MID2","time":1118327656.280,"ept":0.005,"lat":46.498174322,"lon":7.567455643,"alt":1347.417,"eph":2.660,"epv":5.110,"track":10.3789,"speed":0.091,"climb":-0.085,"eps":5.32,"mode":3}
$GPRMC,000000,V,4629.8907,N,00734.0475,E,0.0000,0.000,000000,,*33
$GPGSA,A,1,08,10,04,02,27,,,,,,,,,,,*38
$PGRME,1.29,M,2.41,M,0.00,M*13
{"class":"TPV","tag":"GND","time":1118327656.280,"ept":0.005,"lat":46.498178200,"lon":7.567457500,"alt":1347.417,"eph":2.670,"epv":5.010,"track":10.3789,"speed":0.091,"climb":-0.085,"eps":5.32,"mode":3}
$GPGGA,143417,4629.8908,N,00734.0474,E,1,05,2.40,1346.73,M,48.183,M,,*70
$GPRMC,143417,A,4629.8908,N,00734.0474,E,0.0000,0.000,090605,,*24
$GPGSA,A,3,08,10,04,02,27,,,,,,,,1.9,2.4,1.4*33
{"class":"TPV","tag":"MID2","time":1118327657.280,"ept":0.005,"lat":46.498180788,"lon":7.567457358,"alt":1346.734,"eph":2.670,"epv":5.010,"track":0.0000,"speed":0.000,"climb":0.000,"eps":5.32,"mode":3}
$GPRMC,000000,V,4629.8909,N,00734.0476,E,0.0000,0.000,000000,,*3E
$GPGSA,A,1,08,10,04,02,27,,,,,,,,,,,*38
$PGRME,1.27,M,2.37,M,0.00,M*1C
{"class":"TPV","tag":"GND","time":1118327657.280,"ept":0.005,"lat":46.498182100,"lon":7.567459200,"alt":1346.734,"eph":2.640,"epv":4.920,"track":0.0000,"speed":0.000,"climb":0.000,"eps":5.32,"mode":3}
$GPGGA,143418,4629.8912,N,00734.0475,E,1,05,2.40,1346.05,M,48.183,M,,*74
$GPRMC,143418,A,4629.8912,N,00734.0475,E,0.1776,10.379,090605,,*1A
$GPGSA,A,3,08,10,04,02,27,,,,,,,,1.9,2.4,1.4*33
{"class":"TPV","tag":"MID2","time":1118327658.280,"ept":0.005,"lat":46.498187255,"lon":7.567459073,"alt":1346.052,"eph":2.640,"epv":4.920,"track":10.3789,"speed":0.091,"climb":-0.085,"eps":5.32,"mode":3}
$GPRMC,000000,V,4629.8911,N,00734.0476,E,0.0000,0.000,000000,,*37
$GPGSA,A,1,08,10,04,02,27,,,,,,,,,,,*38
$PGRME,1.28,M,2.35,M,17.47,M*24
{"class":"TPV","tag":"GND","time":1118327658.280,"ept":0.005,"lat":46.498185400,"lon":7.567460000,"alt":1346.052,"eph":2.660,"epv":4.870,"track":10.3789,"speed":0.091,"climb":-0.085,"eps":5.32,"mode":3}
$GPGGA,143419,4629.8909,N,00734.0475,E,1,05,2.40,1345.33,M,48.183,M,,*79
$GPRMC,143419,A,4629.8909,N,00734.0475,E,0.1776,10.379,090605,,*11
$GPGSA,A,3,08,10,04,02,27,,,,,,,,1.9,2.4,1.4*33
$PGRME,0.00,M,0.00,M,17.47,M*2B
{"class":"TPV","tag":"MID2","time":1118327659.280,"ept":0.005,"lat":46.498181064,"lon":7.567459073,"alt":1345.327,"eph":2.660,"epv":4.870,"track":10.3789,"speed":0.091,"climb":-0.085,"eps":5.32,"mode":3}
$GPRMC,000000,V,4629.8913,N,00734.0476,E,0.0000,0.000,000000,,*35
$GPGSA,A,1,08,10,04,02,27,,,,,,,,,,,*38
$PGRME,1.29,M,2.35,M,17.47,M*25
{"class":"TPV","tag":"GND","time":1118327659.280,"ept":0.005,"lat":46.498188200,"lon":7.567459500,"alt":1345.327,"eph":2.670,"epv":4.870,"track":10.3789,"speed":0.091,"climb":-0.085,"eps":5.32,"mode":3}
$GPGSV,2,1,08,23,06,084,00,28,07,160,00,08,65,189,46,29,13,273,00*75
$GPGSV,2,2,08,10,50,304,38,04,16,199,34,02,34,241,41,27,71,076,41*7C
{"class":"SKY","tag":"MID4","time":1118327660.280,"reported":8,"satellites":[{"PRN":23,"el":6,"az":84,"ss":0,"used":false},{"PRN":28,"el":7,"az":160,"ss":0,"used":false},{"PRN":8,"el":65,"az":189,"ss":46,"used":true},{"PRN":29,"el":13,"az":273,"ss":0,"used":false},{"PRN":10,"el":50,"az":304,"ss":38,"used":true},{"PRN":4,"el":16,"az":199,"ss":34,"used":true},{"PRN":2,"el":34,"az":241,"ss":41,"used":true},{"PRN":27,"el":71,"az":76,"ss":41,"used":true}]}
$GPGGA,143420,4629.8913,N,00734.0476,E,1,05,2.40,1344.64,M,48.183,M,,*78
$GPRMC,143420,A,4629.8913,N,00734.0476,E,0.1673,180.000,090605,,*22
$GPGSA,A,3,08,10,04,02,27,,,,,,,,1.9,2.4,1.4*33
{"class":"TPV","tag":"MID2","time":1118327660.280,"ept":0.005,"lat":46.498187531,"lon":7.567460788,"alt":1344.644,"eph":2.670,"epv":4.870,"track":180.0000,"speed":0.086,"climb":-0.091,"eps":5.32,"mode":3}
$GPRMC,000000,V,4629.8915,N,00734.0475,E,0.0000,0.000,000000,,*30
$GPGSA,A,1,08,10,04,02,27,,,,,,,,,,,*38
$PGRME,1.27,M,2.34,M,0.00,M*1F
{"class":"TPV","tag":"GND","time":1118327660.280,"ept":0.005,"lat":46.498190900,"lon":7.567458300,"alt":1344.644,"eph":2.640,"epv":4.850,"track":180.0000,"speed":0.086,"climb":-0.091,"eps":5.32,"mode":3}
$GPGGA,143421,4629.8916,N,00734.0478,E,1,05,2.40,1343.96,M,48.183,M,,*78
$GPRMC,143421,A,4629.8916,N,00734.0478,E,0.1776,10.379,090605,,*19
$GPGSA,A,3,08,10,04,02,27,,,,,,,,1.9,2.4,1.4*33
{"class":"TPV","tag":"MID2","time":1118327661.280,"ept":0.005,"lat":46.498193998,"lon":7.567462504,"alt":1343.962,"eph":2.640,"epv":4.850,"track":10.3789,"speed":0.091,"climb":-0.085,"eps":5.32,"mode":3}
$GPRMC,000000,V,4629.8916,N,00734.0474,E,0.0000,0.000,000000,,*32
$GPGSA,A,1,08,10,04,02,27,,,,,,,,,,,*38
$PGRME,1.29,M,2.34,M,0.00,M*11
{"class":"TPV","tag":"GND","time":1118327661.280,"ept":0.005,"lat":46.498193600,"lon":7.567456700,"alt":1343.962,"eph":2.670,"epv":4.860,"track":10.3789,"speed":0.091,"climb":-0.085,"eps":5.32,"mode":3}
$GPGGA,143422,4629.8916,N,00734.0478,E,1,05,2.40,1343.96,M,48.183,M,,*7B
$GPRMC,143422,A,4629.8916,N,00734.0478,E,0.0000,0.000,090605,,*21
$GPGSA,A,3,08,10,04,02,27,,,,,,,,1.9,2.4,1.4*33
{"class":"TPV","tag":"MID2","time":1118327662.280,"ept":0.005,"lat":46.498193998,"lon":7.567462504,"alt":1343.962,"eph":2.670,"epv":4.860,"track":0.0000,"speed":0.000,"climb":0.000,"eps":5.32,"mode":3}
$GPRMC,000000,V,4629.8918,N,00734.0473,E,0.0000,0.000,000000,,*3B
$GPGSA,A,1,08,10,04,02,27,,,,,,,,,,,*38
$PGRME,1.27,M,2.34,M,17.47,M*2A
{"class":"TPV","tag":"GND","time":1118327662.280,"ept":0.005,"lat":46.498196400,"lon":7.567454900,"alt":1343.962,"eph":2.640,"epv":4.860,"track":0.0000,"speed":0.000,"climb":0.000,"eps":5.32,"mode":3}
$GPGGA,143423,4629.8917,N,00734.0470,E,1,05,2.40,1343.87,M,48.183,M,,*73
$GPRMC,143423,A,4629.8917,N,00734.0470,E,0.0000,0.000,090605,,*29
$GPGSA,A,3,08,10,04,02,27,,,,,,,,1.9,2.4,1.4*33
$PGRME,0.00,M,0.00,M,17.47,M*2B
{"class":"TPV","tag":"MID2","time":1118327663.280,"ept":0.005,"lat":46.498194857,"lon":7.567449593,"alt":1343.871,"eph":2.640,"epv":4.860,"track":0.0000,"speed":0.000,"climb":0.000,"eps":5.32,"mode":3}
$GPRMC,000000,V,4629.8920,N,00734.0472,E,0.0000,0.000,000000,,*31
$GPGSA,A,1,08,10,04,02,27,,,,,,,,,,,*38
$PGRME,1.28,M,2.34,M,17.47,M*25
{"class":"TPV","tag":"GND","time":1118327663.280,"ept":0.005,"lat":46.498200000,"lon":7.567452600,"alt":1343.871,"eph":2.660,"epv":4.850,"track":0.0000,"speed":0.000,"climb":0.000,"eps":5.32,"mode":3}
$GPGGA,143424,4629.8921,N,00734.0471,E,1,05,2.40,1343.19,M,48.183,M,,*77
$GPRMC,143424,A,4629.8921,N,00734.0471,E,0.1776,10.379,090605,,*11
$GPGSA,A,3,08,10,04,02,27,,,,,,,,1.9,2.4,1.4*33
$PGRME,0.00,M,0.00,M,17.47,M*2B
{"class":"TPV","tag":"MID2","time":1118327664.280,"ept":0.005,"lat":46.498201324,"lon":7.567451308,"alt":1343.189,"eph":2.660,"epv":4.850,"track":10.3788,"speed":0.091,"climb":-0.085,"eps":5.32,"mode":3}
$GPRMC,000000,V,4629.8922,N,00734.0470,E,0.0000,0.000,000000,,*31
$GPGSA,A,1,08,10,04,02,27,,,,,,,,,,,*38
$PGRME,1.28,M,2.34,M,17.47,M*25
{"class":"TPV","tag":"GND","time":1118327664.280,"ept":0.005,"lat":46.498203900,"lon":7.567450500,"alt":1343.189,"eph":2.660,"epv":4.860,"track":10.3788,"speed":0.091,"climb":-0.085,"eps":5.32,"mode":3}
$GPGSV,2,1,08,23,06,084,00,28,07,160,00,08,65,189,46,29,13,273,00*75
$GPGSV,2,2,08,10,50,304,36,04,16,199,37,02,34,241,42,27,71,076,42*71
{"class":"SKY","tag":"MID4","time":1118327665.280,"reported":8,"satellites":[{"PRN":23,"el":6,"az":84,"ss":0,"used":false},{"PRN":28,"el":7,"az":160,"ss":0,"used":false},{"PRN":8,"el":65,"az":189,"ss":46,"used":true},{"PRN":29,"el":13,"az":273,"ss":0,"used":false},{"PRN":10,"el":50,"az":304,"ss":36,"used":true},{"PRN":4,"el":16,"az":199,"ss":37,"used":true},{"PRN":2,"el":34,"az":241,"ss":42,"used":true},{"PRN":27,"el":71,"az":76,"ss":42,"used":true}]}
$GPGGA,143425,4629.8921,N,00734.0471,E,1,05,2.40,1343.19,M,48.183,M,,*76
$GPRMC,143425,A,4629.8921,N,00734.0471,E,0.1776,10.379,090605,,*10
$GPGSA,A,3,08,10,04,02,27,,,,,,,,1.9,2.4,1.4*33
{"class":"TPV","tag":"MID2","time":1118327665.280,"ept":0.005,"lat":46.498201324,"lon":7.567451308,"alt":1343.189,"eph":2.660,"epv":4.860,"track":10.3788,"speed":0.091,"climb":-0.085,"eps":5.32,"mode":3}
$GPRMC,000000,V,4629.8925,N,00734.0470,E,0.0000,0.000,000000,,*36
$GPGSA,A,1,08,10,04,02,27,,,,,,,,,,,*38
$PGRME,1.28,M,2.34,M,0.00,M*10
{"class":"TPV","tag":"GND","time":1118327665.280,"ept":0.005,"lat":46.498208400,"lon":7.567449200,"alt":1343.189,"eph":2.660,"epv":4.850,"track":10.3788,"speed":0.091,"climb":-0.085,"eps":5.32,"mode":3}
