# Name: Eurotech Com-1289
# Chipset: Fastrax iTrax03
# Cycle-time: 1-second
# Start-of-cycle: ?
# Pause-noted: ?
# Well-behaved: Y
# Submitted-by: Simon Le Pape <simon.le-pape@hotmail.fr>
# Date: ?
# Location: ?
$GPGSA,A,3,05,06,07,10,16,21,23,24,30,31,,,1.7,1.1,1.2*30
$GPGSV,3,1,11,01,06,230,35,05,16,114,43,06,65,063,50,07,72,061,47*79
$GPGSV,3,2,11,10,09,057,40,16,35,295,48,21,43,153,53,23,12,316,51*72
$GPGSV,3,3,11,24,51,098,55,30,33,110,50,31,60,230,47*4A
$GPRMC,143748.77,A,4806.3731,N,00138.6217,W,0.00,266.5,121007,2.6,W,A*0A
$GPGGA,143748.77,4806.3731,N,00138.6217,W,1,10,1.1,42.2,M,48.5,M,,*4B
$PFST,FOM,6*63
$GPGSA,A,3,05,06,07,10,16,21,23,24,30,31,,,1.7,1.1,1.2*30
$GPGSV,3,1,11,01,06,230,35,05,16,114,43,06,65,063,50,07,72,061,47*79
$GPGSV,3,2,11,10,09,057,39,16,35,295,48,21,43,153,53,23,12,316,51*7C
$GPGSV,3,3,11,24,51,098,55,30,33,110,50,31,60,230,47*4A
$GPRMC,143749.77,A,4806.3731,N,00138.6217,W,0.00,266.5,121007,2.6,W,A*0B
$GPGGA,143749.77,4806.3731,N,00138.6217,W,1,10,1.1,42.2,M,48.5,M,,*4A
$PFST,FOM,5*60
$GPGSA,A,3,05,06,07,10,16,21,23,24,30,31,,,1.7,1.1,1.2*30
$GPGSV,3,1,11,01,06,230,34,05,16,114,42,06,65,063,50,07,72,061,47*79
$GPGSV,3,2,11,10,09,057,40,16,35,295,48,21,43,153,53,23,12,316,51*72
$GPGSV,3,3,11,24,51,098,55,30,33,110,50,31,60,230,47*4A
$GPRMC,143750.77,A,4806.3731,N,00138.6217,W,0.00,266.5,121007,2.6,W,A*03
$GPGGA,143750.77,4806.3731,N,00138.6217,W,1,10,1.0,42.2,M,48.5,M,,*43
$PFST,FOM,6*63
$GPGSA,A,3,01,05,06,07,16,21,23,24,30,31,,,1.5,1.0,1.2*33
$GPGSV,3,1,11,01,06,230,34,05,16,114,42,06,65,063,50,07,72,061,47*79
$GPGSV,3,2,11,10,09,057,40,16,35,295,48,21,43,153,53,23,12,316,51*72
$GPGSV,3,3,11,24,51,098,,110,50,31,60,230,46*4B
$GPRMC,143751.77,A,4806.3731,N,00138.6217,W,0.00,266.5,121007,2.6,W,A*02
$GPGGA,143751.77,4806.3731,N,00138.6217,W,1,10,1.3,42.2,M,48.5,M,,*41
$PFST,FOM,6*63
$GPGSA,A,3,01,05,06,07,16,21,23,24,30,31,,,1.9,1.3,1.3*3D
$GPGSV,3,1,11,01,06,230,35,05,16,114,42,06,65,063,50,07,72,061,47*78
$GPGSV,3,2,11,10,09,057,40,16,35,295,48,21,43,153,53,23,12,316,51*72
$GPGSV,3,3,11,24,51,098,55,30,33,110,50,31,60,230,46*4B
$GPRMC,143752.77,A,4806.3731,N,00138.6217,W,0.00,266.5,121007,2.6,W,A*01
$GPGGA,143752.77,4806.3731,N,00138.6217,W,1,10,1.1,42.1,M,48.5,M,,*43
$PFST,FOM,5*60
$GPGSA,A,3,05,06,07,10,16,21,23,24,30,31,,,1.7,1.1,1.2*30
$GPGSV,3,1,11,01,06,230,35,05,16,114,42,06,65,063,50,07,72,061,47*78
$GPGSV,3,2,11,10,09,057,41,16,35,295,48,21,44,152,53,23,12,316,51*75
$GPGSV,3,3,11,24,51,098,55,30,33,110,50,31,60,230,46*4B
$GPRMC,143753.77,A,4806.3731,N,00138.6217,W,0.00,266.5,121007,2.6,W,A*00
$GPGGA,143753.77,4806.3731,N,00138.6217,W,1,10,1.1,42.2,M,48.5,M,,*41
$PFST,FOM,3*66
$GPGSA,A,3,05,06,07,10,16,21,23,24,30,31,,,1.7,1.1,1.2*30
$GPGSV,3,1,11,01,06,230,34,05,16,114,42,06,65,063,50,07,72,061,47*79
$GPGSV,3,2,11,10,09,057,41,16,35,295,48,21,44,152,53,23,12,316,51*75
$GPGSV,3,3,11,24,51,098,55,30,33,110,50,31,60,230,46*4B
$GPRMC,143754.77,A,4806.3731,N,00138.6217,W,0.00,266.5,121007,2.6,W,A*07
$GPGGA,143754.77,4806.3731,N,00138.6217,W,1,10,1.1,42.1,M,48.5,M,,*45
$PFST,FOM,2*67
$GPGSA,A,3,05,06,07,10,16,21,23,24,30,31,,,1.7,1.1,1.2*30
$GPGSV,3,1,11,01,06,230,34,05,16,114,41,06,65,063,50,07,72,061,47*7A
$GPGSV,3,2,11,10,09,057,40,16,35,295,48,21,44,152,53,23,12,316,51*74
$GPGSV,3,3,11,24,51,098,55,30,33,110,50,31,60,230,47*4A
$GPRMC,143755.77,A,4806.3731,N,00138.6217,W,0.00,266.5,121007,2.6,W,A*06
$GPGGA,143755.77,4806.3731,N,00138.6217,W,1,10,1.1,42.1,M,48.5,M,,*44
$PFST,FOM,3*66
$GPGSA,A,3,05,06,07,10,16,21,23,24,30,31,,,1.7,1.1,1.2*30
$GPGSV,3,1,11,01,06,230,34,05,16,114,41,06,65,063,49,07,72,061,47*72
$GPGSV,3,2,11,10,09,057,40,16,35,295,48,21,44,152,53,23,12,316,51*74
$GPGSV,3,3,11,24,51,097,55,30,33,110,51,31,60,230,47*44
$GPRMC,143756.77,A,4806.3731,N,00138.6217,W,0.00,266.5,121007,2.6,W,A*05
$GPGGA,143756.77,4806.3731,N,00138.6217,W,1,10,1.1,42.1,M,48.5,M,,*47
$PFST,FOM,3*66
$GPGSA,A,3,05,06,07,10,16,21,23,24,30,31,,,1.7,1.1,1.2*30
$GPGSV,3,1,11,01,06,230,33,05,16,114,42,06,65,063,49,07,72,061,47*76
$GPGSV,3,2,11,10,09,057,39,16,35,295,48,21,44,152,53,23,12,316,51*7A
$GPGSV,3,3,11,24,51,097,54,30,33,110,50,31,60,230,47*44
$GPRMC,143757.77,A,4806.3731,N,00138.6217,W,0.00,266.5,121007,2.6,W,A*04
$GPGGA,143757.77,4806.3731,N,00138.6217,W,1,10,1.3,42.1,M,48.5,M,,*44
$PFST,FOM,5*60
$GPGSA,A,3,05,06,07,10,16,21,23,24,30,31,,,1.9,1.3,1.3*3D
$GPGSV,3,1,11,01,06,230,33,05,16,114,42,06,65,063,49,07,72,061,47*76
$GPGSV,3,2,11,10,09,057,38,16,35,295,48,21,44,152,53,23,12,316,51*7B
$GPGSV,3,3,11,24,51,097,54,30,33,110,50,31,60,230,47*44
$GPRMC,143758.77,A,4806.3731,N,00138.6217,W,0.00,266.5,121007,2.6,W,A*0B
$GPGGA,143758.77,4806.3731,N,00138.6217,W,1,09,1.3,42.1,M,48.5,M,,*43
$PFST,FOM,4*61
$GPGSA,A,3,05,06,07,16,21,23,24,30,31,,,,1.9,1.3,1.3*3C
$GPGSV,3,1,11,01,06,230,32,05,16,114,42,06,65,063,49,07,72,061,46*76
$GPGSV,3,2,11,10,09,057,37,16,35,295,48,21,44,152,53,23,12,316,51*74
$GPGSV,3,3,11,24,51,097,54,30,33,110,50,31,60,230,47*44
$GPRMC,143759.77,A,4806.3731,N,00138.6216,W,0.00,266.5,121007,2.6,W,A*0B
$GPGGA,143759.77,4806.3731,N,00138.6216,W,1,09,1.3,42.1,M,48.5,M,,*43
$PFST,FOM,4*61
$GPGSA,A,3,05,06,07,16,21,23,24,30,31,,,,2.2,1.3,1.7*30
$GPGSV,3,1,11,01,06,230,32,05,16,114,42,06,65,063,49,07,72,061,46*76
$GPGSV,3,2,11,10,09,057,38,16,35,295,48,21,44,152,53,23,12,316,51*7B
$GPGSV,3,3,11,24,51,097,54,30,33,110,50,31,60,230,47*44
$GPRMC,143800.77,A,4806.3732,N,00138.6216,W,0.00,266.5,121007,2.6,W,A*0B
$GPGGA,143800.77,4806.3732,N,00138.6216,W,1,09,1.3,42.1,M,48.5,M,,*43
$PFST,FOM,5*60
$GPGSA,A,3,05,06,07,16,21,23,24,30,31,,,,1.9,1.3,1.3*3C
$GPGSV,3,1,11,01,06,230,31,05,16,114,42,06,65,063,49,07,72,061,46*75
$GPGSV,3,2,11,10,09,057,38,16,35,295,48,21,44,152,53,23,12,316,51*7B
$GPGSV,3,3,11,24,51,097,54,30,33,110,50,31,60,230,46*45
$GPRMC,143801.77,A,4806.3732,N,00138.6216,W,0.00,266.5,121007,2.6,W,A*0A
$GPGGA,143801.77,4806.3732,N,00138.6216,W,1,10,1.7,42.1,M,48.5,M,,*4E
$PFST,FOM,7*62
$GPGSA,A,3,05,06,07,10,16,21,23,24,30,31,,,2.4,1.7,1.6*32
$GPGSV,3,1,11,01,06,230,32,05,16,114,43,06,65,063,49,07,72,061,46*77
$GPGSV,3,2,11,10,09,057,38,16,35,295,48,21,44,152,53,23,12,316,51*7B
$GPGSV,3,3,11,24,51,097,54,30,32,110,50,31,60,230,46*44
$GPRMC,143802.77,A,4806.3732,N,00138.6216,W,0.00,266.5,121007,2.6,W,A*09
$GPGGA,143802.77,4806.3732,N,00138.6216,W,1,09,1.7,42.1,M,48.5,M,,*45
$PFST,FOM,5*60
$GPGSA,A,3,05,06,07,10,16,21,23,24,30,,,,2.4,1.7,1.6*30
$GPGSV,3,1,11,01,06,230,32,05,16,114,43,06,65,063,49,07,72,061,47*76
$GPGSV,3,2,11,10,09,057,39,16,35,295,48,21,44,152,53,23,12,316,51*7A
$GPGSV,3,3,11,24,51,097,54,30,32,110,50,31,60,229,46*4C
$GPRMC,143803.77,A,4806.3732,N,00138.6216,W,0.00,266.5,121007,2.6,W,A*08
$GPGGA,143803.77,4806.3732,N,00138.6216,W,1,11,1.1,42.1,M,48.5,M,,*4B
$PFST,FOM,8*6D
$GPGSA,A,3,01,05,06,07,10,16,21,23,24,30,31,,1.7,1.1,1.2*31
$GPGSV,3,1,11,01,06,230,32,05,16,114,44,06,65,063,49,07,72,061,47*71
$GPGSV,3,2,11,10,09,057,39,16,35,295,48,21,44,152,53,23,12,316,52*79
$GPGSV,3,3,11,24,51,097,55,30,32,110,50,31,60,229,46*4D
$GPRMC,143804.78,A,4806.3732,N,00138.6216,W,0.00,266.5,121007,2.6,W,A*00
$GPGGA,143804.78,4806.3732,N,00138.6216,W,1,09,1.3,42.1,M,48.5,M,,*48
$PFST,FOM,5*60
$GPGSA,A,3,05,06,07,16,21,23,24,30,31,,,,1.9,1.3,1.3*3C
$GPGSV,3,1,11,01,06,230,33,05,16,114,44,06,65,063,49,07,72,061,47*70
$GPGSV,3,2,11,10,09,057,40,16,35,295,48,21,44,152,53,23,12,316,52*77
$GPGSV,3,3,11,24,51,097,55,30,32,110,50,31,60,229,46*4D
$GPRMC,143805.78,A,4806.3732,N,00138.6216,W,0.00,266.5,121007,2.6,W,A*01
$GPGGA,143805.78,4806.3732,N,00138.6216,W,1,09,1.3,42.1,M,48.5,M,,*49
$PFST,FOM,5*60
$GPGSA,A,3,05,06,07,16,21,23,24,30,31,,,,1.9,1.3,1.3*3C
$GPGSV,3,1,11,01,06,230,00,05,16,114,44,06,65,063,49,07,72,061,47*70
$GPGSV,3,2,11,10,09,057,40,16,35,295,48,21,44,152,53,23,12,316,51*74
$GPGSV,3,3,11,24,51,097,55,30,32,110,50,31,60,229,46*4D
$GPRMC,143806.78,A,4806.3732,N,00138.6216,W,0.00,266.5,121007,2.6,W,A*02
$GPGGA,143806.78,4806.3732,N,00138.6216,W,1,10,1.1,42.1,M,48.5,M,,*40
$PFST,FOM,5*60
$GPGSA,A,3,05,06,07,10,16,21,23,24,30,31,,,1.7,1.1,1.2*30
$GPGSV,3,1,11,01,06,230,13,05,16,114,44,06,65,063,49,07,72,061,47*72
$GPGSV,3,2,11,10,09,057,41,16,35,295,48,21,44,152,53,23,12,316,52*76
$GPGSV,3,3,11,24,51,097,55,30,32,110,50,31,60,229,46*4D
$GPRMC,143807.78,A,4806.3732,N,00138.6216,W,0.00,266.5,121007,2.6,W,A*03
$GPGGA,143807.78,4806.3732,N,00138.6216,W,1,10,1.1,42.1,M,48.5,M,,*41
$PFST,FOM,6*63
$GPGSA,A,3,05,06,07,10,16,21,23,24,30,31,,,1.7,1.1,1.2*30
$GPGSV,3,1,11,01,06,230,30,05,16,114,44,06,65,063,49,07,72,061,47*73
$GPGSV,3,2,11,10,09,057,41,16,35,295,48,21,44,152,53,23,12,316,52*76
$GPGSV,3,3,11,24,51,097,55,30,32,110,50,31,60,229,46*4D
$GPRMC,143808.78,A,4806.3732,N,00138.6216,W,0.00,266.5,121007,2.6,W,A*0C
$GPGGA,143808.78,4806.3732,N,00138.6216,W,1,10,1.1,42.1,M,48.5,M,,*4E
$PFST,FOM,6*63
$GPGSA,A,3,05,06,07,10,16,21,23,24,30,31,,,1.7,1.1,1.2*30
$GPGSV,3,1,11,01,06,230,33,05,16,114,43,06,65,063,49,07,72,061,47*77
$GPGSV,3,2,11,10,09,057,40,16,35,295,48,21,44,152,53,23,12,316,51*74
$GPGSV,3,3,11,24,51,097,55,30,32,110,51,31,60,229,47*4D
$GPRMC,143809.78,A,4806.3732,N,00138.6216,W,0.00,266.5,121007,2.6,W,A*0D
$GPGGA,143809.78,4806.3732,N,00138.6216,W,1,09,1.3,42.1,M,48.5,M,,*45
$PFST,FOM,5*60
$GPGSA,A,3,05,06,07,16,21,23,24,30,31,,,,2.2,1.3,1.7*30
$GPGSV,3,1,11,01,06,230,33,05,16,114,45,06,65,063,49,07,72,061,47*71
$GPGSV,3,2,11,10,09,057,38,16,35,295,48,21,44,152,53,23,12,316,52*78
$GPGSV,3,3,11,24,51,097,54,30,32,110,51,31,60,229,46*4D
$GPRMC,143810.78,A,4806.3732,N,00138.6216,W,0.00,266.5,121007,2.6,W,A*05
$GPGGA,143810.78,4806.3732,N,00138.6216,W,1,10,1.0,42.1,M,48.5,M,,*46
$PFST,FOM,6*63
$GPGSA,A,3,01,05,06,07,16,21,23,24,30,31,,,1.5,1.0,1.2*33
$GPGSV,3,1,11,01,06,230,36,05,16,114,44,06,65,063,49,07,72,061,47*75
$GPGSV,3,2,11,10,09,057,37,16,35,295,49,21,44,152,53,23,12,316,52*76
$GPGSV,3,3,11,24,51,097,53,30,32,110,51,31,60,229,46*4A
$GPRMC,143811.78,A,4806.3732,N,00138.6216,W,0.00,266.5,121007,2.6,W,A*04
$GPGGA,143811.78,4806.3732,N,00138.6216,W,1,10,1.3,42.1,M,48.5,M,,*44
$PFST,FOM,7*62
$GPGSA,A,3,01,05,06,07,16,21,23,24,30,31,,,1.9,1.3,1.3*3D
$GPGSV,3,1,11,01,06,230,38,05,16,114,42,06,65,063,49,07,72,061,47*7D
$GPGSV,3,2,11,10,09,057,38,16,35,295,48,21,44,152,53,23,12,316,51*7B
$GPGSV,3,3,11,24,51,097,54,30,32,110,51,31,60,229,46*4D
$GPRMC,143812.78,A,4806.3732,N,00138.6216,W,0.00,266.5,121007,2.6,W,A*07
$GPGGA,143812.78,4806.3732,N,00138.6216,W,1,11,1.3,42.1,M,48.5,M,,*46
$PFST,FOM,7*62
$GPGSA,A,3,01,05,06,07,10,16,21,23,24,30,31,,1.9,1.3,1.3*3C
$GPGSV,3,1,11,01,06,230,39,05,16,114,43,06,65,063,48,07,72,061,47*7C
$GPGSV,3,2,11,10,09,057,37,16,35,295,48,21,44,152,52,23,12,316,52*76
$GPGSV,3,3,11,24,51,097,54,30,32,110,51,31,60,229,47*4C
$GPRMC,143813.78,A,4806.3732,N,00138.6216,W,0.00,266.5,121007,2.6,W,A*06
$GPGGA,143813.78,4806.3732,N,00138.6216,W,1,09,1.3,42.1,M,48.5,M,,*4E
$PFST,FOM,4*61
$GPGSA,A,3,05,06,07,16,21,23,24,30,31,,,,1.9,1.3,1.3*3C
$GPGSV,3,1,11,01,06,230,38,05,16,114,44,06,65,063,48,07,72,061,47*7A
$GPGSV,3,2,11,10,09,057,36,16,35,295,47,21,44,152,53,23,12,316,51*7A
$GPGSV,3,3,11,24,51,097,54,30,32,110,50,31,60,229,48*42
$GPRMC,143814.78,A,4806.3732,N,00138.6216,W,0.00,266.5,121007,2.6,W,A*01
$GPGGA,143814.78,4806.3732,N,00138.6216,W,1,10,1.3,42.1,M,48.5,M,,*41
$PFST,FOM,5*60
$GPGSA,A,3,05,06,07,10,16,21,23,24,30,31,,,1.9,1.3,1.3*3D
$GPGSV,3,1,11,01,06,230,38,05,16,114,44,06,65,063,47,07,72,061,47*75
$GPGSV,3,2,11,10,09,057,37,16,35,295,48,21,44,152,52,23,12,316,52*76
$GPGSV,3,3,11,24,51,097,54,30,32,110,51,31,60,229,48*43
$GPRMC,143815.78,A,4806.3732,N,00138.6216,W,0.00,266.5,121007,2.6,W,A*00
$GPGGA,143815.78,4806.3732,N,00138.6216,W,1,10,1.2,42.1,M,48.5,M,,*41
$PFST,FOM,2*67
$GPGSA,A,3,05,06,07,10,16,21,23,24,30,31,,,1.7,1.2,1.3*32
$GPGSV,3,1,11,01,06,230,37,05,16,114,45,06,65,063,48,07,72,061,47*74
$GPGSV,3,2,11,10,09,057,40,16,35,295,49,21,44,152,52,23,12,316,50*75
$GPGSV,3,3,11,24,51,097,54,30,32,110,51,31,60,229,46*4D
$GPRMC,143816.78,A,4806.3732,N,00138.6216,W,0.00,266.5,121007,2.6,W,A*03
$GPGGA,143816.78,4806.3732,N,00138.6216,W,1,10,1.2,42.1,M,48.5,M,,*42
$PFST,FOM,4*61
$GPGSA,A,3,01,05,06,07,10,16,21,23,24,30,,,1.7,1.2,1.3*31
$GPGSV,3,1,11,01,06,230,37,05,16,114,45,06,65,063,48,07,72,061,46*75
$GPGSV,3,2,11,10,09,057,40,16,35,295,48,21,44,152,53,23,12,316,52*77
$GPGSV,3,3,11,24,51,097,54,30,32,110,51,31,60,229,45*4E
$GPRMC,143817.78,A,4806.3732,N,00138.6216,W,0.00,266.5,121007,2.6,W,A*02
$GPGGA,143817.78,4806.3732,N,00138.6216,W,1,11,0.8,42.1,M,48.5,M,,*49
$PFST,FOM,4*61
$GPGSA,A,3,01,05,06,07,10,16,21,23,24,30,31,,1.3,0.8,1.0*3F
$GPGSV,3,1,11,01,06,230,34,05,16,114,44,06,65,063,48,07,72,061,46*77
$GPGSV,3,2,11,10,09,057,39,16,35,295,48,21,44,152,53,23,12,316,51*7A
$GPGSV,3,3,11,24,51,097,54,30,32,110,50,31,60,229,44*4E
$GPRMC,143818.78,A,4806.3728,N,00138.6239,W,1.56,266.1,121007,2.6,W,A*0D
$GPGGA,143818.78,4806.3728,N,00138.6239,W,1,10,1.3,41.5,M,48.5,M,,*4C
$PFST,FOM,5*60
$GPGSA,A,3,05,06,07,10,16,21,23,24,30,31,,,1.9,1.3,1.3*3D
$GPGSV,3,1,11,01,06,230,34,05,16,114,44,06,65,063,48,07,72,061,46*77
$GPGSV,3,2,11,10,09,057,42,16,35,295,47,21,44,152,52,23,12,316,51*78
$GPGSV,3,3,11,24,51,097,54,30,32,110,51,31,60,229,46*4D
$GPRMC,143819.79,A,4806.3729,N,00138.6247,W,0.00,266.1,121007,2.6,W,A*07
$GPGGA,143819.79,4806.3729,N,00138.6247,W,1,10,1.1,41.4,M,48.5,M,,*47
$PFST,FOM,5*60
$GPGSA,A,3,05,06,07,10,16,21,23,24,30,31,,,1.7,1.1,1.2*30
$GPGSV,3,1,11,01,06,230,00,05,16,114,44,06,65,063,48,07,72,061,46*70
$GPGSV,3,2,11,10,09,057,39,16,35,295,49,21,44,152,52,23,12,316,51*7A
$GPGSV,3,3,11,24,51,097,54,30,32,110,52,31,60,229,48*40
$GPRMC,143820.79,A,4806.3730,N,00138.6251,W,0.00,266.1,121007,2.6,W,A*02
$GPGGA,143820.79,4806.3730,N,00138.6251,W,1,10,1.2,41.4,M,48.5,M,,*41
$PFST,FOM,4*61
$GPGSA,A,3,05,06,07,10,16,21,23,24,30,31,,,1.9,1.2,1.5*3A
$GPGSV,3,1,11,01,06,230,20,05,16,114,44,06,65,063,48,07,72,061,45*71
$GPGSV,3,2,11,10,09,057,40,16,35,295,50,21,44,152,53,23,12,316,51*7D
$GPGSV,3,3,11,24,51,097,54,30,32,110,52,31,60,229,47*4F
$GPRMC,143821.79,A,4806.3732,N,00138.6265,W,2.31,266.8,121007,2.6,W,A*0F
$GPGGA,143821.79,4806.3732,N,00138.6265,W,1,10,1.2,41.4,M,48.5,M,,*45
$PFST,FOM,4*61
$GPGSA,A,3,05,06,07,10,16,21,23,24,30,31,,,1.9,1.2,1.5*3A
$GPGSV,3,1,11,01,06,230,34,05,16,114,45,06,65,063,48,07,72,061,46*76
$GPGSV,3,2,11,10,09,057,40,16,35,295,50,21,44,152,53,23,12,316,51*7D
$GPGSV,3,3,11,24,51,097,54,30,32,110,52,31,60,229,46*4E
$GPRMC,143822.79,A,4806.3731,N,00138.6276,W,2.58,266.3,121007,2.6,W,A*09
$GPGGA,143822.79,4806.3731,N,00138.6276,W,1,10,1.2,41.4,M,48.5,M,,*47
$PFST,FOM,2*67
$GPGSA,A,3,05,06,07,10,16,21,23,24,30,31,,,1.7,1.2,1.3*32
$GPGSV,3,1,1230,00,05,16,114,44,06,65,063,49,07,72,061,47*70
$GPGSV,3,2,11,10,09,057,39,16,35,295,50,21,44,152,53,23,12,316,51*73
$GPGSV,3,3,11,24,51,097,54,30,32,110,52,31,60,229,45*4D
$GPRMC,143823.79,A,4806.3728,N,00138.6293,W,2.82,266.9,121007,2.6,W,A*06
$GPGGA,143823.79,4806.3728,N,00138.6293,W,1,10,1.1,41.4,M,48.5,M,,*46
$PFST,FOM,3*66
$GPGSA,A,3,05,06,07,10,16,21,23,24,30,31,,,1.7,1.1,1.2*30
$GPGSV,3,1,11,01,06,230,17,05,16,114,45,06,65,063,49,07,72,061,47*77
$GPGSV,3,2,11,10,09,057,42,16,35,295,49,21,44,152,52,23,12,316,51*76
$GPGSV,3,3,11,24,51,097,54,30,32,110,52,31,60,229,46*4E
$GPRMC,143824.79,A,4806.3727,N,00138.6306,W,3.10,266.8,121007,2.6,W,A*08
$GPGGA,143824.79,4806.3727,N,00138.6306,W,1,10,1.1,41.4,M,48.5,M,,*43
$PFST,FOM,4*61
$GPGSA,A,3,05,06,07,10,16,21,23,24,30,31,,,1.7,1.1,1.2*30
$GPGSV,3,1,11,01,06,230,34,05,16,114,44,06,65,063,49,07,72,061,46*76
$GPGSV,3,2,11,10,09,057,42,16,35,295,50,21,44,152,52,23,12,316,50*7F
$GPGSV,3,3,11,24,51,097,55,30,32,110,51,31,60,229,47*4D
$GPRMC,143825.79,A,4806.3725,N,00138.6321,W,3.34,267.0,121007,2.6,W,A*01
$GPGGA,143825.79,4806.3725,N,00138.6321,W,1,10,0.9,41.4,M,48.5,M,,*4C
$PFST,FOM,4*61
$GPGSA,A,3,01,06,07,10,16,21,23,24,30,31,,,1.4,0.9,1.1*3D
$GPGSV,3,1,11,01,06,230,35,05,16,114,45,06,65,063,48,07,72,061,48*79
$GPGSV,3,2,11,10,09,057,43,16,35,295,48,21,44,152,52,23,12,316,51*76
$GPGSV,3,3,11,24,51,097,55,30,32,110,53,31,60,229,46*4E
$GPRMC,143826.79,A,4806.3724,N,00138.6335,W,3.61,266.8,121007,2.6,W,A*0F
$GPGGA,143826.79,4806.3724,N,00138.6335,W,1,10,1.1,41.4,M,48.5,M,,*42
$PFST,FOM,3*66
$GPGSA,A,3,05,06,07,10,16,21,23,24,30,31,,,1.7,1.1,1.2*30
$GPGSV,3,1,11,01,06,230,38,05,16,114,46,06,65,063,49,07,72,061,47*79
$GPGSV,3,2,11,10,09,057,42,16,35,295,49,21,44,152,53,23,12,316,50*76
$GPGSV,3,3,11,24,51,097,55,30,32,110,52,31,60,229,46*4F
$GPRMC,143827.79,A,4806.3724,N,00138.6352,W,3.85,267.0,121007,2.6,W,A*0C
$GPGGA,143827.79,4806.3724,N,00138.6352,W,1,10,1.1,41.4,M,48.5,M,,*42
$PFST,FOM,4*61
$GPGSA,A,3,05,06,07,10,16,21,23,24,30,31,,,1.7,1.1,1.2*30
$GPGSV,3,1,11,01,06,230,37,05,16,114,46,06,65,063,49,07,72,061,46*77
$GPGSV,3,2,11,10,09,057,43,16,35,295,49,21,44,152,52,23,12,316,49*7E
$GPGSV,3,3,11,24,51,097,55,30,32,110,52,31,60,229,47*4E
$GPRMC,143828.79,A,4806.3725,N,00138.6368,W,4.12,266.8,121007,2.6,W,A*0B
$GPGGA,143828.79,4806.3725,N,00138.6368,W,1,11,0.8,41.4,M,48.5,M,,*4C
$PFST,FOM,4*61
$GPGSA,A,3,01,05,06,07,10,16,21,23,24,30,31,,1.3,0.8,1.0*3F
$GPGSV,3,1,11,01,06,230,36,05,16,114,46,06,65,063,49,07,72,061,48*78
$GPGSV,3,2,11,10,09,057,42,16,35,295,49,21,44,152,51,23,12,316,49*7C
$GPGSV,3,3,11,24,51,097,55,30,32,110,53,31,60,229,47*4F
$GPRMC,143829.79,A,4806.3724,N,00138.6386,W,4.39,266.7,121007,2.6,W,A*0D
$GPGGA,143829.79,4806.3724,N,00138.6386,W,1,10,1.1,41.4,M,48.5,M,,*45
$PFST,FOM,2*67
$GPGSA,A,3,05,06,07,10,16,21,23,24,30,31,,,1.7,1.1,1.2*30
$GPGSV,3,1,11,01,06,230,35,05,16,114,45,06,65,063,49,07,72,061,47*77
$GPGSV,3,2,11,10,09,057,40,16,35,295,48,21,44,152,52,23,12,316,50*74
$GPGSV,3,3,11,24,51,097,54,30,32,110,51,31,60,229,47*4C
$GPRMC,143830.79,A,4806.3723,N,00138.6405,W,4.66,266.3,121007,2.6,W,A*00
$GPGGA,143830.79,4806.3723,N,00138.6405,W,1,10,1.1,41.4,M,48.5,M,,*46
$PFST,FOM,3*66
$GPGSA,A,3,05,06,07,10,16,21,23,24,30,31,,,1.7,1.1,1.2*30
$GPGSV,3,1,11,01,06,230,37,05,16,114,45,06,65,063,48,07,72,061,48*7B
$GPGSV,3,2,11,10,09,057,41,16,35,295,47,21,44,152,53,23,12,316,46*7C
$GPGSV,3,3,11,24,51,097,55,30,32,110,51,31,60,229,47*4D
$GPRMC,143831.79,A,4806.3723,N,00138.6424,W,4.91,266.5,121007,2.6,W,A*0C
$GPGGA,143831.79,4806.3723,N,00138.6424,W,1,10,1.3,41.4,M,48.5,M,,*46
$PFST,FOM,7*62
$GPGSA,A,3,01,05,06,07,16,21,23,24,30,31,,,1.9,1.3,1.4*3A
$GPGSV,3,1,11,01,06,230,38,05,16,114,45,06,65,063,48,07,72,061,47*7B
$GPGSV,3,2,11,10,09,057,38,16,35,295,46,21,44,152,53,23,12,316,43*76
$GPGSV,3,3,11,24,51,097,55,30,32,110,51,31,60,229,47*4D
$GPRMC,143832.79,A,4806.3723,N,00138.6444,W,5.05,266.3,121007,2.6,W,A*03
$GPGGA,143832.79,4806.3723,N,00138.6444,W,1,10,1.4,41.4,M,48.5,M,,*44
$PFST,FOM,3*66
$GPGSA,A,3,05,06,07,10,16,21,23,24,30,31,,,2.0,1.4,1.4*37
$GPGSV,3,1,11,01,06,230,37,05,16,114,44,06,65,063,48,07,72,061,48*7A
$GPGSV,3,2,11,10,09,057,37,16,35,295,47,21,44,152,53,23,12,316,44*7F
$GPGSV,3,3,11,24,51,097,55,30,32,110,52,31,60,229,47*4E
$GPRMC,143833.79,A,4806.3721,N,00138.6464,W,5.13,265.8,121007,2.6,W,A*0D
$GPGGA,143833.79,4806.3721,N,00138.6464,W,1,09,1.3,41.4,M,48.5,M,,*4A
$PFST,FOM,3*66
$GPGSA,A,3,05,06,07,16,21,23,24,30,31,,,,1.9,1.3,1.3*3C
$GPGSV,3,1,11,01,06,230,38,05,16,114,43,06,65,063,48,07,72,061,48*72
$GPGSV,3,2,11,10,09,057,38,16,35,295,48,21,44,152,52,23,12,316,46*7C
$GPGSV,3,3,11,24,51,097,55,30,32,110,52,31,60,229,47*4E
$GPRMC,143834.80,A,4806.3719,N,00138.6484,W,5.21,266.1,121007,2.6,W,A*02
$GPGGA,143834.80,4806.3719,N,00138.6484,W,1,09,1.5,41.3,M,48.5,M,,*4F
$PFST,FOM,3*66
$GPGSA,A,3,05,06,07,16,21,23,24,30,31,,,,2.3,1.5,1.8*38
$GPGSV,3,1,11,01,06,230,36,05,16,114,44,06,65,063,48,07,72,061,48*7B
$GPGSV,3,2,11,10,09,057,38,16,35,295,47,21,44,152,52,23,12,316,43*76
$GPGSV,3,3,11,24,51,097,55,30,32,110,53,31,60,229,48*40
$GPRMC,143835.80,A,4806.3719,N,00138.6509,W,5.31,265.1,121007,2.6,W,A*05
$GPGGA,143835.80,4806.3719,N,00138.6509,W,1,10,1.1,41.3,M,48.5,M,,*46
$PFST,FOM,4*61
$GPGSA,A,3,05,06,07,10,16,21,23,24,30,31,,,1.7,1.1,1.2*30
$GPGSV,3,1,11,01,06,230,36,05,16,114,42,06,65,063,48,07,72,061,48*7D
$GPGSV,3,2,11,10,09,057,39,16,35,295,47,21,44,152,52,23,12,316,48*7C
$GPGSV,3,3,11,24,51,097,55,30,32,110,53,31,60,229,47*4F
$GPRMC,143836.80,A,4806.3718,N,00138.6527,W,5.42,264.6,121007,2.6,W,A*09
$GPGGA,143836.80,4806.3718,N,00138.6527,W,1,10,1.2,41.4,M,48.5,M,,*4C
$PFST,FOM,3*66
$GPGSA,A,3,05,06,07,10,16,21,23,24,30,31,,,1.9,1.2,1.5*3A
$GPGSV,3,1,11,01,06,230,34,05,16,114,42,06,65,063,48,07,72,061,48*7F
$GPGSV,3,2,11,10,09,057,38,16,35,295,47,21,44,152,52,23,12,316,45*70
$GPGSV,3,3,11,24,51,097,55,30,32,110,53,31,60,229,47*4F
$GPRMC,143837.80,A,4806.3716,N,00138.6546,W,5.53,264.3,121007,2.6,W,A*04
$GPGGA,143837.80,4806.3716,N,00138.6546,W,1,10,1.3,41.4,M,48.5,M,,*45
$PFST,FOM,7*62
$GPGSA,A,3,05,06,07,10,16,21,23,24,30,31,,,1.9,1.3,1.3*3D
$GPGSV,3,1,11,01,06,230,34,05,16,114,46,06,65,063,47,07,72,061,47*7B
$GPGSV,3,2,11,10,09,057,37,16,35,295,48,21,44,152,52,23,12,316,44*71
$GPGSV,3,3,11,24,51,097,55,30,32,110,53,31,60,229,47*4F
$GPRMC,143838.80,A,4806.3716,N,00138.6569,W,5.64,264.4,121007,2.6,W,A*05
$GPGGA,143838.80,4806.3716,N,00138.6569,W,1,10,1.1,41.4,M,48.5,M,,*45
$PFST,FOM,5*60
$GPGSA,A,3,05,06,07,10,16,21,23,24,30,31,,,1.7,1.1,1.2*30
$GPGSV,3,1,11,01,06,230,00,05,16,114,47,06,65,063,47,07,72,061,47*7D
$GPGSV,3,2,11,10,09,057,38,16,35,295,48,21,44,152,52,23,12,316,47*7D
$GPGSV,3,3,11,24,51,097,54,30,32,110,52,31,60,229,48*40
$GPRMC,143839.80,A,4806.3715,N,00138.6593,W,5.74,264.1,121007,2.6,W,A*06
$GPGGA,143839.80,4806.3715,N,00138.6593,W,1,09,1.3,41.5,M,48.5,M,,*49
$PFST,FOM,4*61
$GPGSA,A,3,05,06,07,16,21,23,24,30,31,,,,1.9,1.3,1.3*3C
$GPGSV,3,1,11,01,06,230,12,05,16,114,46,06,65,063,48,07,72,061,47*70
$GPGSV,3,2,11,10,09,057,35,16,35,295,47,21,44,152,52,23,12,316,48*70
$GPGSV,3,3,11,24,51,097,54,30,32,110,53,31,60,229,48*41
$GPRMC,143840.80,A,4806.3715,N,00138.6618,W,5.91,263.8,121007,2.6,W,A*0D
$GPGGA,143840.80,4806.3715,N,00138.6618,W,1,10,1.4,41.4,M,48.5,M,,*49
$PFST,FOM,5*60
$GPGSA,A,3,05,06,07,10,16,21,23,24,30,31,,,2.1,1.4,1.5*37
$GPGSV,3,1,11,01,06,230,31,05,16,114,46,06,65,063,47,07,72,061,47*7E
$GPGSV,3,2,11,10,09,057,38,16,35,295,48,21,44,152,51,23,12,316,48*71
$GPGSV,3,3,11,24,51,097,54,30,32,110,53,31,60,229,48*41
$GPRMC,143841.80,A,4806.3713,N,00138.6642,W,6.07,263.1,121007,2.6,W,A*00
$GPGGA,143841.80,4806.3713,N,00138.6642,W,1,10,1.6,41.5,M,48.5,M,,*42
$PFST,FOM,4*61
$GPGSA,A,3,05,06,07,10,16,21,23,24,30,31,,,2.5,1.6,1.9*3D
$GPGSV,3,1,11,01,06,230,32,05,16,114,47,06,65,063,47,07,72,061,46*7D
$GPGSV,3,2,11,10,09,057,41,16,35,295,49,21,44,152,50,23,12,316,48*7F
$GPGSV,3,3,11,24,51,097,54,30,32,110,52,31,60,229,48*40
$GPRMC,143842.80,A,4806.3713,N,00138.6667,W,6.33,262.2,121007,2.6,W,A*01
$GPGGA,143842.80,4806.3713,N,00138.6667,W,1,10,1.1,41.5,M,48.5,M,,*41
$PFST,FOM,3*66
$GPGSA,A,3,05,06,07,10,16,21,23,24,30,31,,,1.7,1.1,1.2*30
$GPGSV,3,1,11,01,06,230,32,05,16,114,45,06,65,063,47,07,72,061,46*7F
$GPGSV,3,2,11,10,09,057,39,16,35,295,48,21,44,152,51,23,12,316,48*70
$GPGSV,3,3,11,24,51,097,54,30,32,110,52,31,60,229,48*40
$GPRMC,143843.80,A,4806.3711,N,00138.6694,W,6.52,261.1,121007,2.6,W,A*09
$GPGGA,143843.80,4806.3711,N,00138.6694,W,1,10,1.1,41.5,M,48.5,M,,*4E
$PFST,FOM,4*61
$GPGSA,A,3,05,06,07,10,16,21,23,24,30,31,,,1.7,1.1,1.2*30
$GPGSV,3,1,11,01,06,230,34,05,16,114,44,06,65,063,47,07,72,061,47*79
$GPGSV,3,2,11,10,09,057,38,16,35,295,48,21,44,152,50,23,12,316,48*70
$GPGSV,3,3,11,24,51,097,54,30,32,110,51,31,60,229,49*42
$GPRMC,143844.80,A,4806.3707,N,00138.6723,W,6.72,261.3,121007,2.6,W,A*04
$GPGGA,143844.80,4806.3707,N,00138.6723,W,1,10,1.1,41.6,M,48.5,M,,*40
$PFST,FOM,4*61
$GPGSA,A,3,05,06,07,10,16,21,23,24,30,31,,,1.7,1.1,1.2*30
$GPGSV,3,1,11,01,06,230,33,05,16,114,48,06,65,063,48,07,72,061,47*7D
$GPGSV,3,2,11,10,09,057,40,16,35,295,48,21,44,152,50,23,12,316,47*70
$GPGSV,3,3,11,24,51,097,54,30,32,110,51,31,60,229,48*43
$GPRMC,143845.80,A,4806.3705,N,00138.6753,W,6.92,261.2,121007,2.6,W,A*0F
$GPGGA,143845.80,4806.3705,N,00138.6753,W,1,10,1.1,41.7,M,48.5,M,,*45
$PFST,FOM,3*66
$GPGSA,A,3,05,06,07,10,16,21,23,24,30,31,,,1.7,1.1,1.3*31
$GPGSV,3,1,11,01,06,230,32,05,16,114,48,06,65,063,48,07,72,061,47*7C
$GPGSV,3,2,11,10,09,057,40,16,35,295,48,21,44,152,50,23,12,316,47*70
$GPGSV,3,3,11,24,51,097,55,30,32,110,51,31,60,229,48*42
$GPRMC,143846.80,A,4806.3700,N,00138.6785,W,7.03,261.0,121007,2.6,W,A*09
$GPGGA,143846.80,4806.3700,N,00138.6785,W,1,10,1.1,41.8,M,48.5,M,,*47
$PFST,FOM,5*60
$GPGSA,A,3,05,06,07,10,16,21,23,24,30,31,,,1.7,1.1,1.2*30
$GPGSV,3,1,11,01,06,230,00,05,16,114,47,06,65,063,48,07,72,061,47*72
$GPGSV,3,2,11,10,09,057,42,16,35,295,47,21,44,152,49,23,12,316,43*71
$GPGSV,3,3,11,24,51,097,54,30,32,110,51,31,60,229,49*42
$GPRMC,143847.80,A,4806.3696,N,00138.6818,W,7.31,259.8,121007,2.6,W,A*0F
$GPGGA,143847.80,4806.3696,N,00138.6818,W,1,10,1.1,42.0,M,48.5,M,,*48
$PFST,FOM,5*60
$GPGSA,A,3,05,06,07,10,16,21,23,24,30,31,,,1.7,1.1,1.3*31
$GPGSV,3,1,11,01,06,230,09,05,16,114,47,06,65,063,48,07,72,061,46*7A
$GPGSV,3,2,11,10,09,057,42,16,35,295,48,21,44,152,49,23,12,316,44*79
$GPGSV,3,3,11,24,51,097,,110,51,31,60,229,48*43
$GPRMC,143848.80,A,4806.3690,N,00138.6849,W,7.55,258.3,121007,2.6,W,A*0A
$GPGGA,143848.80,4806.3690,N,00138.6849,W,1,10,1.1,42.1,M,48.5,M,,*44
$PFST,FOM,4*61
$GPGSA,A,3,05,06,07,10,16,21,23,24,30,31,,,1.7,1.1,1.2*30
$GPGSV,3,1,11,01,06,230,30,05,16,114,45,06,65,063,48,07,72,061,46*72
$GPGSV,3,2,11,10,09,057,43,16,35,295,48,21,44,152,49,23,12,316,42*7E
$GPGSV,3,3,11,24,51,097,54,30,32,110,51,31,60,229,48*43
$GPRMC,143849.80,A,4806.3685,N,00138.6878,W,7.74,258.7,121007,2.6,W,A*0A
$GPGGA,143849.80,4806.3685,N,00138.6878,W,1,11,1.1,42.2,M,48.5,M,,*41
$PFST,FOM,5*60
$GPGSA,A,3,01,05,06,07,10,16,21,23,24,30,31,,1.7,1.1,1.2*31
$GPGSV,3,1,11,01,06,230,33,05,16,114,48,06,65,063,48,07,72,061,46*7C
$GPGSV,3,2,11,10,09,057,43,16,35,295,48,21,44,152,49,23,12,316,44*78
$GPGSV,3,3,11,24,51,097,54,30,32,110,51,31,60,229,48*43
$GPRMC,143850.81,A,4806.3683,N,00138.6909,W,7.94,258.6,121007,2.6,W,A*0D
$GPGGA,143850.81,4806.3683,N,00138.6909,W,1,11,0.8,42.1,M,48.5,M,,*42
$PFST,FOM,5*60
$GPGSA,A,3,01,05,06,07,10,16,21,23,24,30,31,,1.3,0.8,1.0*3F
$GPGSV,3,1,11,01,06,230,33,05,16,114,47,06,65,063,49,07,72,061,45*71
$GPGSV,3,2,11,10,09,057,42,16,35,295,49,21,44,152,49,23,12,316,45*79
$GPGSV,3,3,11,24,51,097,54,30,32,110,51,31,60,229,48*43
$GPRMC,143851.81,A,4806.3683,N,00138.6943,W,8.17,257.6,121007,2.6,W,A*09
$GPGGA,143851.81,4806.3683,N,00138.6943,W,1,10,1.3,42.0,M,48.5,M,,*47
$PFST,FOM,3*66
$GPGSA,A,3,05,06,07,10,16,21,23,24,30,31,,,1.9,1.3,1.3*3D
$GPGSV,3,1,11,01,06,230,33,05,16,114,47,06,65,063,48,07,72,061,45*70
$GPGSV,3,2,11,10,09,057,39,16,35,295,48,21,44,152,50,23,12,316,46*7F
$GPGSV,3,3,11,24,51,097,54,30,32,110,52,31,60,229,48*40
$GPRMC,143852.81,A,4806.3682,N,00138.6977,W,8.35,258.2,121007,2.6,W,A*07
$GPGGA,143852.81,4806.3682,N,00138.6977,W,1,10,1.3,41.9,M,48.5,M,,*48
$PFST,FOM,6*63
$GPGSA,A,3,05,06,07,10,16,21,23,24,30,31,,,1.9,1.3,1.3*3D
$GPGSV,3,1,11,01,06,230,00,05,16,114,46,06,65,063,49,07,72,061,45*70
$GPGSV,3,2,11,10,09,057,40,16,35,295,47,21,44,152,50,23,12,316,45*7D
$GPGSV,3,3,11,24,51,097,54,30,32,110,52,31,60,229,48*40
$GPRMC,143853.81,A,4806.3680,N,00138.7009,W,8.67,258.2,121007,2.6,W,A*02
$GPGGA,143853.81,4806.3680,N,00138.7009,W,1,09,1.3,41.9,M,48.5,M,,*42
$PFST,FOM,3*66
$GPGSA,A,3,05,06,07,16,21,23,24,30,31,,,,1.9,1.3,1.4*3B
$GPGSV,3,1,11,01,06,230,06,05,16,114,48,06,65,063,49,07,72,061,46*7B
$GPGSV,3,2,11,10,09,057,38,16,35,295,48,21,44,152,50,23,12,316,46*7E
$GPGSV,3,3,11,24,51,097,55,30,32,110,52,31,60,229,49*40
$GPRMC,143854.81,A,4806.3676,N,00138.7046,W,9.03,259.0,121007,2.6,W,A*07
$GPGGA,143854.81,4806.3676,N,00138.7046,W,1,10,1.3,41.8,M,48.5,M,,*4E
$PFST,FOM,4*61
$GPGSA,A,3,05,06,07,10,16,21,23,24,30,31,,,1.9,1.3,1.3*3D
$GPGSV,3,1,11,01,06,230,25,05,16,114,48,06,65,063,48,07,72,061,47*7A
$GPGSV,3,2,11,10,09,057,43,16,35,295,48,21,44,152,50,23,12,316,47*73
$GPGSV,3,3,11,24,51,097,54,30,32,110,52,31,60,229,49*41
$GPRMC,143855.81,A,4806.3671,N,00138.7084,W,9.30,259.5,121007,2.6,W,A*0A
$GPGGA,143855.81,4806.3671,N,00138.7084,W,1,10,1.1,41.8,M,48.5,M,,*44
$PFST,FOM,3*66
$GPGSA,A,3,05,06,07,10,16,21,23,24,30,31,,,1.7,1.1,1.2*30
$GPGSV,3,1,11,01,06,230,30,05,16,114,48,06,65,063,48,07,72,061,47*7E
$GPGSV,3,2,11,10,09,057,41,16,35,295,48,21,44,152,51,23,12,316,48*7F
$GPGSV,3,3,11,24,51,097,54,30,32,110,52,31,60,229,49*41
$GPRMC,143856.81,A,4806.3666,N,00138.7126,W,9.60,261.0,121007,2.6,W,A*0D
$GPGGA,143856.81,4806.3666,N,00138.7126,W,1,10,1.1,41.8,M,48.5,M,,*48
$PFST,FOM,4*61
$GPGSA,A,3,05,06,07,10,16,21,23,24,30,31,,,1.7,1.1,1.2*30
$GPGSV,3,1,11,01,06,230,30,05,16,114,46,06,65,063,48,07,72,061,47*70
$GPGSV,3,2,11,10,09,057,42,16,35,295,47,21,44,152,51,23,12,316,48*73
$GPGSV,3,3,11,24,51,097,54,30,32,110,53,31,60,229,47*4E
$GPRMC,143857.81,A,4806.3662,N,00138.7165,W,9.91,262.2,121007,2.6,W,A*00
$GPGGA,143857.81,4806.3662,N,00138.7165,W,1,10,1.3,41.6,M,48.5,M,,*46
$PFST,FOM,5*60
$GPGSA,A,3,05,06,07,10,16,21,23,24,30,31,,,1.9,1.3,1.3*3D
$GPGSV,3,1,11,01,06,230,00,05,16,114,45,06,65,063,48,07,72,061,48*7F
$GPGSV,3,2,11,10,09,057,41,16,35,295,48,21,44,152,52,23,12,316,48*7C
$GPGSV,3,3,11,24,51,097,54,30,32,110,52,31,60,229,47*4F
$GPRMC,143858.81,A,4806.3660,N,00138.7204,W,10.26,264.0,121007,2.6,W,A*39
$GPGGA,143858.81,4806.3660,N,00138.7204,W,1,09,1.3,41.4,M,48.5,M,,*45
$PFST,FOM,4*61
$GPGSA,A,3,05,06,07,16,21,23,24,30,31,,,,1.9,1.3,1.3*3C
$GPGSV,3,1,11,01,06,230,07,05,16,114,41,06,65,063,48,07,72,061,48*7C
$GPGSV,3,2,11,10,09,057,39,16,35,295,47,21,44,152,52,23,12,315,50*76
$GPGSV,3,3,11,24,51,097,55,30,32,110,53,31,60,229,47*4F
$GPRMC,143859.81,A,4806.3659,N,00138.7245,W,10.50,265.0,121007,2.6,W,A*37
$GPGGA,143859.81,4806.3659,N,00138.7245,W,1,10,1.3,41.6,M,48.5,M,,*41
$PFST,FOM,6*63
$GPGSA,A,3,05,06,07,10,16,21,23,24,30,31,,,1.9,1.3,1.3*3D
$GPGSV,3,1,11,01,06,230,24,05,16,114,43,06,65,063,48,07,72,061,48*7F
$GPGSV,3,2,11,10,09,057,42,16,35,295,48,21,44,152,52,23,12,315,50*75
$GPGSV,3,3,11,24,51,097,54,30,32,110,53,31,60,229,46*4F
$GPRMC,143900.81,A,4806.3657,N,00138.7291,W,10.79,266.9,121007,2.6,W,A*3C
$GPGGA,143900.81,4806.3657,N,00138.7291,W,1,10,1.1,42.0,M,48.5,M,,*4C
$PFST,FOM,4*61
$GPGSA,A,3,05,06,07,10,16,21,23,24,30,31,,,1.7,1.1,1.2*30
$GPGSV,3,1,11,01,06,230,28,05,16,114,45,06,65,063,49,07,72,061,47*7B
$GPGSV,3,2,11,10,09,057,41,16,35,295,48,21,44,152,52,23,12,315,51*77
$GPGSV,3,3,11,24,51,097,54,30,32,110,52,31,60,229,46*4E
$GPRMC,143901.81,A,4806.3656,N,00138.7336,W,11.08,268.3,121007,2.6,W,A*33
$GPGGA,143901.81,4806.3656,N,00138.7336,W,1,10,1.3,42.0,M,48.5,M,,*42
$PFST,FOM,4*61
$GPGSA,A,3,05,06,07,10,16,21,23,24,30,31,,,1.9,1.3,1.3*3D
$GPGSV,3,1,11,01,06,230,28,05,16,114,47,06,65,063,49,07,72,061,47*79
$GPGSV,3,2,11,10,09,057,41,16,35,295,47,21,44,152,52,23,12,315,50*79
$GPGSV,3,3,11,24,51,097,54,30,32,110,52,31,60,229,46*4E
$GPRMC,143902.81,A,4806.3654,N,00138.7386,W,11.39,269.4,121007,2.6,W,A*3D
$GPGGA,143902.81,4806.3654,N,00138.7386,W,1,10,1.1,42.2,M,48.5,M,,*48
$PFST,FOM,4*61
$GPGSA,A,3,05,06,07,10,16,21,23,24,30,31,,,1.7,1.1,1.2*30
$GPGSV,3,1,11,01,06,230,00,05,16,114,47,06,65,063,48,07,72,061,46*73
$GPGSV,3,2,11,10,09,057,43,16,35,295,49,21,44,152,51,23,12,315,51*77
$GPGSV,3,3,11,24,51,097,54,30,32,110,50,31,60,229,45*4F
$GPRMC,143903.81,A,4806.3653,N,00138.7437,W,11.70,271.7,121007,2.6,W,A*31
$GPGGA,143903.81,4806.3653,N,00138.7437,W,1,10,1.1,42.2,M,48.5,M,,*43
$PFST,FOM,4*61
$GPGSA,A,3,05,06,07,10,16,21,23,24,30,31,,,1.7,1.1,1.2*30
$GPGSV,3,1,11,01,06,230,15,05,16,114,42,06,65,063,49,07,72,061,46*73
$GPGSV,3,2,11,10,09,057,46,16,35,295,48,21,44,152,51,23,12,315,51*73
$GPGSV,3,3,11,24,51,097,53,30,32,110,49,31,60,229,45*40
$GPRMC,143904.81,A,4806.3656,N,00138.7486,W,11.97,273.7,121007,2.6,W,A*32
$GPGGA,143904.81,4806.3656,N,00138.7486,W,1,10,1.1,42.3,M,48.5,M,,*4A
$PFST,FOM,4*61
$GPGSA,A,3,05,06,07,10,16,21,23,24,30,31,,,1.7,1.1,1.3*31
$GPGSV,3,1,11,01,06,230,28,05,16,114,37,06,65,063,48,07,72,061,45*7D
$GPGSV,3,2,11,10,09,057,43,16,35,295,49,21,44,152,50,23,12,315,50*77
$GPGSV,3,3,11,24,51,097,53,30,32,110,47,31,60,229,44*4F
$GPRMC,143905.82,A,4806.3659,N,00138.7536,W,12.24,275.0,121007,2.6,W,A*3F
$GPGGA,143905.82,4806.3659,N,00138.7536,W,1,10,1.3,42.4,M,48.5,M,,*48
$PFST,FOM,4*61
$GPGSA,A,3,05,06,07,10,16,21,23,24,30,31,,,2.1,1.3,1.7*32
$GPGSV,3,1,11,01,06,230,28,05,16,114,42,06,65,063,47,07,72,061,44*71
$GPGSV,3,2,11,10,09,057,37,16,35,295,50,21,44,152,48,23,12,315,51*74
$GPGSV,3,3,11,24,51,097,53,30,32,110,46,31,60,229,46*4C
$GPRMC,143906.82,A,4806.3663,N,00138.7587,W,12.33,276.9,121007,2.6,W,A*33
$GPGGA,143906.82,4806.3663,N,00138.7587,W,1,09,1.7,42.6,M,48.5,M,,*46
$PFST,FOM,5*60
$GPGSA,A,3,05,06,07,16,21,23,24,30,31,,,,2.2,1.7,1.4*37
$GPGSV,3,1,11,01,06,230,28,05,16,114,43,06,65,063,47,07,72,061,44*70
$GPGSV,3,2,11,10,09,057,39,16,35,295,49,21,44,152,49,23,12,315,50*72
$GPGSV,3,3,11,24,51,097,53,30,32,110,47,31,59,228,48*48
$GPRMC,143907.82,A,4806.3668,N,00138.7637,W,12.31,278.7,121007,2.6,W,A*33
$GPGGA,143907.82,4806.3668,N,00138.7637,W,1,08,2.0,42.6,M,48.5,M,,*41
$PFST,FOM,3*66
$GPGSA,A,3,05,06,07,16,21,23,24,30,,,,,2.6,2.0,1.7*36
$GPGSV,3,1,11,01,06,230,00,05,16,114,42,06,65,063,46,07,72,061,44*7A
$GPGSV,3,2,11,10,09,057,42,16,35,295,49,21,44,152,49,23,12,315,51*7F
$GPGSV,3,3,11,24,51,097,53,30,32,110,43,31,59,228,48*4C
$GPRMC,143908.82,A,4806.3673,N,00138.7687,W,12.30,279.7,121007,2.6,W,A*3D
$GPGGA,143908.82,4806.3673,N,00138.7687,W,1,09,1.7,42.5,M,48.5,M,,*49
$PFST,FOM,6*63
$GPGSA,A,3,05,06,07,16,21,23,24,30,31,,,,2.2,1.7,1.4*37
$GPGSV,3,1,11,01,05,230,07,05,16,114,42,06,65,063,47,07,72,061,44*7F
$GPGSV,3,2,11,10,09,057,42,16,35,295,49,21,44,152,50,23,12,315,51*77
$GPGSV,3,3,11,24,51,097,53,30,32,110,44,31,59,228,49*4A
$GPRMC,143909.82,A,4806.3678,N,00138.7738,W,12.27,279.8,121007,2.6,W,A*3B
$GPGGA,143909.82,4806.3678,N,00138.7738,W,1,09,1.7,42.3,M,48.5,M,,*40
$PFST,FOM,5*60
$GPGSA,A,3,05,06,07,16,21,23,24,30,31,,,,2.2,1.7,1.4*37
$GPGSV,3,1,11,01,05,230,27,05,16,114,41,06,65,063,46,07,72,061,45*7E
$GPGSV,3,2,11,10,09,057,44,16,35,295,49,21,44,152,49,23,12,315,51*79
$GPGSV,3,3,11,24,51,097,53,30,32,110,45,31,59,228,47*45
$GPRMC,143910.82,A,4806.3683,N,00138.7787,W,12.27,279.7,121007,2.6,W,A*3C
$GPGGA,143910.82,4806.3683,N,00138.7787,W,1,09,1.7,42.0,M,48.5,M,,*4B
$PFST,FOM,5*60
$GPGSA,A,3,05,06,07,16,21,23,24,30,31,,,,2.2,1.7,1.4*37
$GPGSV,3,1,11,01,05,230,30,05,16,114,43,06,65,063,46,07,72,061,45*7A
$GPGSV,3,2,11,10,09,057,42,16,35,295,49,21,44,152,49,23,12,315,51*7F
$GPGSV,3,3,11,24,51,097,53,30,32,110,46,31,59,228,47*46
$GPRMC,143911.82,A,4806.3688,N,00138.7835,W,12.28,279.9,121007,2.6,W,A*31
$GPGGA,143911.82,4806.3688,N,00138.7835,W,1,09,1.7,41.8,M,48.5,M,,*4C
$PFST,FOM,5*60
$GPGSA,A,3,05,06,07,16,21,23,24,30,31,,,,2.2,1.7,1.4*37
$GPGSV,3,1,11,01,05,230,30,05,16,114,44,06,65,063,46,07,72,061,45*7D
$GPGSV,3,2,11,10,09,057,41,16,35,295,50,21,44,152,49,23,12,315,50*75
$GPGSV,3,3,11,24,51,097,54,30,32,110,44,31,59,228,47*43
$GPRMC,143912.82,A,4806.3698,N,00138.7878,W,12.30,279.9,121007,2.6,W,A*33
$GPGGA,143912.82,4806.3698,N,00138.7878,W,1,09,1.3,41.2,M,48.5,M,,*49
$PFST,FOM,5*60
$GPGSA,A,3,05,06,07,16,21,23,24,30,31,,,,1.9,1.3,1.3*3C
$GPGSV,3,1,11,01,05,230,00,05,16,114,45,06,65,063,45,07,72,061,45*7C
$GPGSV,3,2,11,10,09,057,42,16,35,295,50,21,44,152,49,23,12,315,51*77
$GPGSV,3,3,11,24,51,097,53,30,32,110,45,31,59,228,47*45
$GPRMC,143913.82,A,4806.3708,N,00138.7921,W,12.29,280.5,121007,2.6,W,A*35
$GPGGA,143913.82,4806.3708,N,00138.7921,W,1,09,1.3,40.7,M,48.5,M,,*49
$PFST,FOM,6*63
$GPGSA,A,3,05,06,07,16,21,23,24,30,31,,,,1.9,1.3,1.3*3C
$GPGSV,3,1,11,01,05,230,10,05,16,114,44,06,64,063,45,07,72,061,45*7D
$GPGSV,3,2,11,10,09,057,43,16,35,295,48,21,44,152,49,23,12,315,49*76
$GPGSV,3,3,11,24,51,097,53,30,32,110,48,31,59,228,47*48
$GPRMC,143914.82,A,4806.3717,N,00138.7966,W,12.28,280.4,121007,2.6,W,A*3F
$GPGGA,143914.82,4806.3717,N,00138.7966,W,1,09,1.3,40.7,M,48.5,M,,*43
$PFST,FOM,5*60
$GPGSA,A,3,05,06,07,16,21,23,24,30,31,,,,1.9,1.3,1.3*3C
$GPGSV,3,1,11,01,05,230,27,05,16,114,46,06,64,063,46,07,72,061,45*78
$GPGSV,3,2,11,10,09,057,45,16,35,295,49,21,44,152,49,23,12,315,51*78
$GPGSV,3,3,11,24,51,097,54,30,32,110,46,31,59,228,47*41
$GPRMC,143915.82,A,4806.3727,N,03,W,12.28,279.9,121007,2.6,W,A*32
$GPGGA,143915.82,4806.3727,N,00138.8013,W,1,09,1.3,40.5,M,48.5,M,,*47
$PFST,FOM,4*61
$GPGSA,A,3,05,06,07,16,21,23,24,30,31,,,,1.9,1.3,1.3*3C
$GPGSV,3,1,11,01,05,230,29,05,16,114,46,06,64,063,46,07,72,061,44*77
$GPGSV,3,2,11,10,09,057,43,16,35,295,49,21,44,152,50,23,12,315,50*77
$GPGSV,3,3,11,24,51,097,53,30,32,110,47,31,59,228,48*48
$GPRMC,143916.82,A,4806.3737,N,00138.8061,W,12.25,281.5,121007,2.6,W,A*33
$GPGGA,143916.82,4806.3737,N,00138.8061,W,1,10,1.3,40.2,M,48.5,M,,*4F
$PFST,FOM,4*61
$GPGSA,A,3,01,05,06,07,16,21,23,24,30,31,,,1.9,1.3,1.3*3D
$GPGSV,3,1,11,01,05,230,29,05,16,114,46,06,64,063,45,07,72,061,44*74
$GPGSV,3,2,11,10,09,057,43,16,35,295,49,21,44,152,49,23,12,315,50*7F
$GPGSV,3,3,11,24,51,097,53,30,32,110,49,31,59,228,48*46
$GPRMC,143917.82,A,4806.3744,N,00138.8112,W,12.21,281.0,121007,2.6,W,A*32
$GPGGA,143917.82,4806.3744,N,00138.8112,W,1,09,1.7,40.3,M,48.5,M,,*42
$PFST,FOM,5*60
$GPGSA,A,3,05,06,07,16,21,23,24,30,31,,,,2.2,1.7,1.4*37
$GPGSV,3,1,11,01,05,230,32,05,16,114,47,06,64,063,45,07,72,061,45*7E
$GPGSV,3,2,11,10,09,057,44,16,35,295,49,21,44,152,50,23,12,315,50*70
$GPGSV,3,3,11,24,51,097,54,30,32,110,49,31,59,228,50*48
$GPRMC,143918.82,A,4806.3756,N,00138.8159,W,12.15,281.8,121007,2.6,W,A*3E
$GPGGA,143918.82,4806.3756,N,00138.8159,W,1,10,1.3,40.2,M,48.5,M,,*4C
$PFST,FOM,8*6D
$GPGSA,A,3,05,06,07,10,16,21,23,24,30,31,,,1.9,1.3,1.3*3D
$GPGSV,3,1,11,01,05,230,00,05,16,114,47,06,64,063,44,07,72,061,45*7E
$GPGSV,3,2,11,10,09,057,44,16,35,295,48,21,44,152,50,23,12,315,48*78
$GPGSV,3,3,11,24,51,097,54,30,32,110,48,31,59,228,49*41
$GPRMC,143919.82,A,4806.3764,N,00138.8209,W,12.02,285.0,121007,2.6,W,A*32
$GPGGA,143919.82,4806.3764,N,00138.8209,W,1,10,1.4,40.1,M,48.5,M,,*4E
$PFST,FOM,7*62
$GPGSA,A,3,05,06,07,10,16,21,23,24,30,31,,,2.1,1.4,1.5*37
$GPGSV,3,1,11,01,05,230,08,05,16,114,45,06,64,063,44,07,72,061,44*75
$GPGSV,3,2,11,10,09,057,44,16,35,295,49,21,44,152,50,23,12,315,49*78
$GPGSV,3,3,11,24,51,097,53,30,32,110,50,31,59,228,49*4F
$GPRMC,143920.82,A,4806.3772,N,00138.8259,W,12.00,286.2,121007,2.6,W,A*39
$GPGGA,143920.82,4806.3772,N,00138.8259,W,1,10,1.4,39.7,M,48.5,M,,*4E
$PFST,FOM,5*60
$GPGSA,A,3,05,06,07,10,16,21,23,24,30,31,,,2.1,1.4,1.5*37
$GPGSV,3,1,11,01,05,230,33,05,16,114,43,06,64,063,44,07,72,061,46*79
$GPGSV,3,2,11,10,09,057,45,16,35,295,48,21,44,152,50,23,12,315,49*78
$GPGSV,3,3,11,24,51,097,54,30,32,110,50,31,59,228,49*48
$GPRMC,143921.83,A,4806.3781,N,00138.8308,W,11.89,287.2,121007,2.6,W,A*33
$GPGGA,143921.83,4806.3781,N,00138.8308,W,1,11,1.0,39.4,M,48.5,M,,*41
$PFST,FOM,7*62
$GPGSA,A,3,01,05,06,07,10,16,21,23,24,30,31,,1.5,1.0,1.2*32
$GPGSV,3,1,11,01,05,230,35,05,16,114,43,06,64,063,44,07,72,061,46*7F
$GPGSV,3,2,11,10,09,057,43,16,35,295,48,21,44,152,50,23,12,315,50*76
$GPGSV,3,3,11,24,51,097,54,30,32,110,50,31,59,228,50*40
$GPRMC,143922.83,A,4806.3791,N,00138.8355,W,11.80,286.8,121007,2.6,W,A*3B
$GPGGA,143922.83,4806.3791,N,00138.8355,W,1,10,1.3,39.3,M,48.5,M,,*4E
$PFST,FOM,7*62
$GPGSA,A,3,01,05,06,07,16,21,23,24,30,31,,,1.9,1.3,1.3*3D
$GPGSV,3,1,11,01,05,230,35,05,16,114,44,06,64,063,45,07,72,061,46*79
$GPGSV,3,2,11,10,09,057,44,16,35,295,48,21,44,152,50,23,12,315,49*79
$GPGSV,3,3,11,24,51,097,54,30,32,110,51,31,59,228,49*49
$GPRMC,143923.83,A,4806.3802,N,00138.8402,W,11.72,287.2,121007,2.6,W,A*3C
$GPGGA,143923.83,4806.3802,N,00138.8402,W,1,09,1.3,39.3,M,48.5,M,,*47
$PFST,FOM,4*61
$GPGSA,A,3,05,06,07,16,21,23,24,30,31,,,,1.9,1.3,1.3*3C
$GPGSV,3,1,11,01,05,230,33,05,16,114,44,06,64,063,45,07,72,061,45*7C
$GPGSV,3,2,11,10,09,057,43,16,36,295,48,21,44,152,51,23,12,315,48*7D
$GPGSV,3,3,11,24,51,097,54,30,32,110,51,31,59,228,50*41
$GPRMC,143924.83,A,4806.3812,N,00138.8447,W,11.61,286.6,121007,2.6,W,A*3C
$GPGGA,143924.83,4806.3812,N,00138.8447,W,1,09,1.3,39.3,M,48.5,M,,*40
$PFST,FOM,4*61
$GPGSA,A,3,05,06,07,16,21,23,24,30,31,,,,1.9,1.3,1.3*3C
$GPGSV,3,1,11,01,05,230,34,05,16,114,45,06,64,063,45,07,72,061,45*7A
$GPGSV,3,2,11,10,09,057,41,16,36,295,49,21,44,152,50,23,12,315,49*7E
$GPGSV,3,3,11,24,51,097,53,30,32,110,50,31,59,228,49*4F
$GPRMC,143925.83,A,4806.3821,N,00138.8490,W,11.58,283.9,121007,2.6,W,A*37
$GPGGA,143925.83,4806.3821,N,00138.8490,W,1,10,1.3,39.2,M,48.5,M,,*42
$PFST,FOM,7*62
$GPGSA,A,3,01,05,06,07,16,21,23,24,30,31,,,1.9,1.3,1.3*3D
$GPGSV,3,1,11,01,05,230,35,05,16,114,46,06,64,063,45,07,72,061,45*78
$GPGSV,3,2,11,10,09,057,44,16,36,295,49,21,44,152,49,23,12,315,49*73
$GPGSV,3,3,11,24,51,097,54,30,32,110,49,31,59,228,49*40
$GPRMC,143926.83,A,4806.3829,N,00138.8534,W,11.53,282.4,121007,2.6,W,A*34
$GPGGA,143926.83,4806.3829,N,00138.8534,W,1,09,1.3,39.0,M,48.5,M,,*4C
$PFST,FOM,4*61
$GPGSA,A,3,05,06,07,16,21,23,24,30,31,,,,1.9,1.3,1.3*3C
$GPGSV,3,1,11,01,05,230,35,05,16,114,46,06,64,063,45,07,72,061,44*79
$GPGSV,3,2,11,10,09,057,43,16,36,295,50,21,44,152,50,23,12,315,47*7A
$GPGSV,3,3,11,24,51,097,54,30,32,110,47,31,59,228,48*4F
$GPRMC,143927.83,A,4806.3836,N,00138.8578,W,11.49,280.0,121007,2.6,W,A*3E
$GPGGA,143927.83,4806.3836,N,00138.8578,W,1,09,1.3,39.1,M,48.5,M,,*4A
$PFST,FOM,4*61
$GPGSA,A,3,05,06,07,16,21,23,24,30,31,,,,1.9,1.3,1.3*3C
$GPGSV,3,1,11,01,05,230,33,05,16,114,46,06,64,063,46,07,72,061,44*7C
$GPGSV,3,2,11,10,09,057,41,16,36,295,50,21,44,152,50,23,12,315,49*76
$GPGSV,3,3,11,24,51,097,54,30,32,110,45,31,59,228,47*42
$GPRMC,143928.83,A,4806.3841,N,00138.8625,W,11.42,278.4,121007,2.6,W,A*32
$GPGGA,143928.83,4806.3841,N,00138.8625,W,1,09,1.3,39.3,M,48.5,M,,*4C
$PFST,FOM,4*61
$GPGSA,A,3,05,06,07,16,21,23,24,30,31,,,,1.9,1.3,1.3*3C
$GPGSV,3,1,11,01,05,230,33,05,16,114,43,06,64,063,46,07,72,061,44*79
$GPGSV,3,2,11,10,09,057,38,16,36,295,50,21,44,152,49,23,12,315,49*70
$GPGSV,3,3,11,24,51,097,53,30,32,110,44,31,59,228,46*45
$GPRMC,143929.83,A,4806.3846,N,00138.8674,W,11.39,277.4,121007,2.6,W,A*33
$GPGGA,143929.83,4806.3846,N,00138.8674,W,1,10,1.1,39.8,M,48.5,M,,*4F
$PFST,FOM,5*60
$GPGSA,A,3,05,06,07,10,16,21,23,24,30,31,,,1.7,1.1,1.2*30
$GPGSV,3,1,11,01,05,230,33,05,16,114,45,06,64,063,47,07,72,061,44*7E
$GPGSV,3,2,11,10,09,057,39,16,36,295,49,21,44,152,50,23,12,315,48*70
$GPGSV,3,3,11,24,51,097,53,30,32,110,43,31,59,228,44*40
$GPRMC,143930.83,A,4806.3851,N,00138.8724,W,11.33,276.1,121007,2.6,W,A*37
$GPGGA,143930.83,4806.3851,N,00138.8724,W,1,10,1.1,40.3,M,48.5,M,,*40
$PFST,FOM,5*60
$GPGSA,A,3,05,06,07,10,16,21,23,24,30,31,,,1.7,1.1,1.2*30
$GPGSV,3,1,11,01,05,230,32,05,16,114,46,06,64,063,47,07,72,061,44*7C
$GPGSV,3,2,11,10,09,057,43,16,36,295,48,21,44,152,50,23,12,315,50*75
$GPGSV,3,3,11,24,51,097,53,30,32,110,45,31,59,228,45*47
$GPRMC,143931.83,A,4806.3851,N,00138.8776,W,11.31,275.1,121007,2.6,W,A*30
$GPGGA,143931.83,4806.3851,N,00138.8776,W,1,10,1.1,41.0,M,48.5,M,,*44
$PFST,FOM,5*60
$GPGSA,A,3,05,06,07,10,16,21,23,24,30,31,,,1.7,1.1,1.2*30
$GPGSV,3,1,11,01,05,230,32,05,16,114,46,06,64,063,47,07,72,061,45*7D
$GPGSV,3,2,11,10,09,057,47,16,36,295,49,21,44,152,50,23,12,315,50*70
$GPGSV,3,3,11,24,51,096,53,30,32,110,45,31,59,228,45*46
$GPRMC,143932.83,A,4806.3853,N,00138.8823,W,11.33,275.0,121007,2.6,W,A*3D
$GPGGA,143932.83,4806.3853,N,00138.8823,W,1,09,1.3,40.9,M,48.5,M,,*48
$PFST,FOM,3*66
$GPGSA,A,3,05,06,07,16,21,23,24,30,31,,,,1.9,1.3,1.3*3C
$GPGSV,3,1,11,01,05,230,34,05,16,114,47,06,64,063,47,07,72,061,44*7B
$GPGSV,3,2,11,10,09,057,46,16,36,295,47,21,44,152,49,23,12,315,49*7F
$GPGSV,3,3,11,24,51,096,51,30,32,110,45,31,59,228,45*44
$GPRMC,143933.83,A,4806.3852,N,00138.8874,W,11.25,274.9,121007,2.6,W,A*30
$GPGGA,143933.83,4806.3852,N,00138.8874,W,1,11,0.8,41.5,M,48.5,M,,*44
$PFST,FOM,5*60
$GPGSA,A,3,01,05,06,07,10,16,21,23,24,30,31,,1.3,0.8,1.0*3F
$GPGSV,3,1,11,01,05,230,35,05,16,114,44,06,64,063,48,07,72,061,45*77
$GPGSV,3,2,11,10,09,057,46,16,36,295,48,21,44,152,51,23,12,315,48*78
$GPGSV,3,3,11,24,51,096,52,30,32,110,47,31,59,228,46*46
$GPRMC,143934.83,A,4806.3855,N,00138.8918,W,11.35,274.4,121007,2.6,W,A*37
$GPGGA,143934.83,4806.3855,N,00138.8918,W,1,11,1.0,41.6,M,48.5,M,,*45
$PFST,FOM,6*63
$GPGSA,A,3,01,05,06,07,10,16,21,23,24,30,31,,1.5,1.0,1.2*32
$GPGSV,3,1,11,01,05,230,39,05,16,114,44,06,64,063,48,07,72,061,46*78
$GPGSV,3,2,11,10,09,057,48,16,36,295,49,21,44,152,51,23,12,315,50*7E
$GPGSV,3,3,11,24,51,096,52,30,32,110,47,31,59,228,46*46
$GPRMC,143935.83,A,4806.3857,N,00138.8967,W,11.46,273.8,121007,2.6,W,A*33
$GPGGA,143935.83,4806.3857,N,00138.8967,W,1,11,1.0,41.5,M,48.5,M,,*4D
$PFST,FOM,5*60
$GPGSA,A,3,01,05,06,07,10,16,21,23,24,30,31,,1.5,1.0,1.2*32
$GPGSV,3,1,11,01,05,230,39,05,16,114,47,06,64,063,48,07,72,061,46*7B
$GPGSV,3,2,11,10,09,057,45,16,36,295,47,21,44,152,51,23,12,315,49*75
$GPGSV,3,3,11,24,51,096,52,30,32,110,48,31,59,228,45*4A
$GPRMC,143936.84,A,4806.3859,N,00138.9014,W,11.13,274.0,121007,2.6,W,A*3A
$GPGGA,143936.84,4806.3859,N,00138.9014,W,1,11,1.0,41.8,M,48.5,M,,*46
$PFST,FOM,5*60
$GPGSA,A,3,01,05,06,07,10,16,21,23,24,30,31,,1.5,1.0,1.2*32
$GPGSV,3,1,11,01,05,230,39,05,16,114,46,06,64,063,48,07,72,061,46*7A
$GPGSV,3,2,11,10,09,057,45,16,36,295,48,21,44,152,51,23,12,315,48*7B
$GPGSV,3,3,11,24,51,096,50,30,32,110,50,31,59,228,45*41
$GPRMC,143937.84,A,4806.3861,N,00138.9061,W,11.60,273.0,121007,2.6,W,A*31
$GPGGA,143937.84,4806.3861,N,00138.9061,W,1,09,1.3,41.8,M,48.5,M,,*44
$PFST,FOM,3*66
$GPGSA,A,3,05,06,07,16,21,23,24,30,31,,,,1.9,1.3,1.3*3C
$GPGSV,3,1,11,01,05,230,38,05,16,114,44,06,64,063,49,07,72,061,47*79
$GPGSV,3,2,11,10,09,057,43,16,36,295,48,21,44,152,51,23,12,315,50*74
$GPGSV,3,3,11,24,51,096,52,30,32,110,49,31,59,228,45*4B
$GPRMC,143938.84,A,4806.3862,N,00138.9107,W,11.71,272.7,121007,2.6,W,A*3A
$GPGGA,143938.84,4806.3862,N,00138.9107,W,1,10,1.1,41.7,M,48.5,M,,*4C
$PFST,FOM,3*66
$GPGSA,A,3,01,05,06,07,16,21,23,24,30,31,,,1.8,1.1,1.5*38
$GPGSV,3,1,11,01,05,230,38,05,16,114,46,06,64,063,49,07,72,061,47*7B
$GPGSV,3,2,11,10,09,057,45,16,36,295,49,21,44,152,51,23,12,315,50*73
$GPGSV,3,3,11,24,51,096,53,30,32,110,50,31,59,228,45*42
$GPRMC,143939.84,A,4806.3861,N,00138.9162,W,11.80,271.5,121007,2.6,W,A*34
$GPGGA,143939.84,4806.3861,N,00138.9162,W,1,11,0.8,42.1,M,48.5,M,,*41
$PFST,FOM,5*60
$GPGSA,A,3,01,05,06,07,10,16,21,23,24,30,31,,1.3,0.8,1.0*3F
$GPGSV,3,1,11,01,05,230,38,05,16,114,45,06,64,063,49,07,72,061,47*78
$GPGSV,3,2,11,10,09,057,43,16,36,295,49,21,44,152,51,23,12,315,48*7C
$GPGSV,3,3,11,24,51,096,52,30,32,110,51,31,59,228,45*42
$GPRMC,143940.84,A,4806.3862,N,00138.9213,W,12.01,272.2,121007,2.6,W,A*32
$GPGGA,143940.84,4806.3862,N,00138.9213,W,1,10,1.3,42.0,M,48.5,M,,*43
$PFST,FOM,3*66
$GPGSA,A,3,01,05,06,073,24,30,31,,,1.9,1.3,1.3*3D
$GPGSV,3,1,11,01,05,230,37,05,16,114,44,06,64,063,49,07,72,061,48*79
$GPGSV,3,2,11,10,09,057,42,16,36,295,48,21,44,152,52,23,12,315,50*76
$GPGSV,3,3,11,24,51,096,54,30,32,110,52,31,59,228,47*45
$GPRMC,143941.84,A,4806.3864,N,00138.9264,W,12.31,270.3,121007,2.6,W,A*35
$GPGGA,143941.84,4806.3864,N,00138.9264,W,1,11,1.3,42.1,M,48.5,M,,*44
$PFST,FOM,8*6D
$GPGSA,A,3,01,05,06,07,10,16,21,23,24,30,31,,1.9,1.3,1.3*3C
$GPGSV,3,1,11,01,05,230,38,05,16,114,45,06,64,063,49,07,72,061,47*78
$GPGSV,3,2,11,10,09,057,41,16,36,295,48,21,44,152,52,23,12,315,51*74
$GPGSV,3,3,11,24,51,096,54,30,32,110,52,31,59,228,46*44
$GPRMC,143942.84,A,4806.3859,N,00138.9324,W,12.37,268.8,121007,2.6,W,A*39
$GPGGA,143942.84,4806.3859,N,00138.9324,W,1,11,1.1,42.8,M,48.5,M,,*47
$PFST,FOM,8*6D
$GPGSA,A,3,01,05,06,07,10,16,21,23,24,30,31,,1.7,1.1,1.2*31
$GPGSV,3,1,11,01,05,230,38,05,16,114,42,06,64,063,49,07,72,061,48*70
$GPGSV,3,2,11,10,09,057,45,16,36,295,49,21,44,152,52,23,12,315,51*71
$GPGSV,3,3,11,24,51,096,53,30,32,110,51,31,59,228,46*40
$GPRMC,143943.84,A,4806.3856,N,00138.9376,W,12.66,266.8,121007,2.6,W,A*3A
$GPGGA,143943.84,4806.3856,N,00138.9376,W,1,11,0.8,43.3,M,48.5,M,,*4C
$PFST,FOM,7*62
$GPGSA,A,3,01,05,06,07,10,16,21,23,24,30,31,,1.3,0.8,1.0*3F
$GPGSV,3,1,11,01,05,230,38,05,16,114,44,06,64,063,49,07,72,061,47*79
$GPGSV,3,2,11,10,09,057,46,16,36,295,47,21,44,152,52,23,12,315,49*75
$GPGSV,3,3,11,24,51,096,53,30,32,110,52,31,59,228,47*42
$GPRMC,143944.84,A,4806.3848,N,00138.9430,W,12.84,265.3,121007,2.6,W,A*33
$GPGGA,143944.84,4806.3848,N,00138.9430,W,1,10,1.1,43.1,M,48.5,M,,*4A
$PFST,FOM,5*60
$GPGSA,A,3,05,06,07,10,16,21,23,24,30,31,,,1.7,1.1,1.2*30
$GPGSV,3,1,11,01,05,230,35,05,15,114,44,06,64,063,48,07,72,061,47*76
$GPGSV,3,2,11,10,09,057,45,16,36,295,47,21,44,152,53,23,12,315,49*77
$GPGSV,3,3,11,24,51,096,54,30,32,110,52,31,59,228,48*4A
$GPRMC,143945.84,A,4806.3844,N,00138.9481,W,13.11,264.4,121007,2.6,W,A*3F
$GPGGA,143945.84,4806.3844,N,00138.9481,W,1,10,1.3,42.7,M,48.5,M,,*48
$PFST,FOM,5*60
$GPGSA,A,3,05,06,07,10,16,21,23,24,30,31,,,1.8,1.3,1.3*3C
$GPGSV,3,1,11,01,05,230,35,05,15,114,45,06,64,063,48,07,72,061,47*77
$GPGSV,3,2,11,10,09,057,42,16,36,295,48,21,44,152,53,23,12,315,49*7F
$GPGSV,3,3,11,24,51,096,54,30,32,110,53,31,59,228,48*4B
$GPRMC,143946.84,A,4806.3841,N,00138.9532,W,12.93,264.3,121007,2.6,W,A*3C
$GPGGA,143946.84,4806.3841,N,00138.9532,W,1,10,1.1,42.8,M,48.5,M,,*4A
$PFST,FOM,4*61
$GPGSA,A,3,05,06,07,10,16,21,23,24,30,31,,,1.6,1.1,1.2*31
$GPGSV,3,1,11,01,05,230,36,05,15,114,46,06,64,063,48,07,71,061,46*75
$GPGSV,3,2,11,10,09,057,43,16,36,295,47,21,44,152,51,23,12,315,49*73
$GPGSV,3,3,11,24,51,096,54,30,32,110,52,31,59,228,47*45
$GPRMC,143947.84,A,4806.3838,N,00138.9582,W,12.46,264.5,121007,2.6,W,A*36
$GPGGA,143947.84,4806.3838,N,00138.9582,W,1,09,1.5,42.8,M,48.5,M,,*42
$PFST,FOM,3*66
$GPGSA,A,3,05,06,07,16,21,23,24,30,31,,,,2.2,1.5,1.6*37
$GPGSV,3,1,11,01,05,230,36,05,15,114,43,06,64,063,45,07,71,061,43*78
$GPGSV,3,2,11,10,09,057,40,16,36,295,49,21,44,152,49,23,12,315,48*76
$GPGSV,3,3,11,24,51,096,53,30,32,110,51,31,59,228,48*4E
$GPRMC,143948.84,A,4806.3833,N,00138.9637,W,12.27,264.4,121007,2.6,W,A*39
$GPGGA,143948.84,4806.3833,N,00138.9637,W,1,10,1.3,42.5,M,48.5,M,,*48
$PFST,FOM,6*63
$GPGSA,A,3,05,06,07,10,16,21,23,24,30,31,,,1.8,1.3,1.3*3C
$GPGSV,3,1,11,01,05,230,39,05,15,114,45,06,64,063,48,07,71,061,45*7A
$GPGSV,3,2,11,10,09,057,43,16,36,295,50,21,44,152,50,23,12,315,46*7B
$GPGSV,3,3,11,24,51,096,54,30,32,110,49,31,59,228,48*40
$GPRMC,143949.84,A,4806.3830,N,00138.9688,W,13.34,260.6,121007,2.6,W,A*3A
$GPGGA,143949.84,4806.3830,N,00138.9688,W,1,11,1.1,42.7,M,48.5,M,,*4F
$PFST,FOM,6*63
$GPGSA,A,3,01,05,06,07,10,16,21,23,24,30,31,,1.8,1.1,1.5*39
$GPGSV,3,1,11,01,05,230,38,05,15,114,47,06,64,063,49,07,71,061,45*78
$GPGSV,3,2,11,10,09,056,41,16,36,295,48,21,44,152,49,23,12,315,46*79
$GPGSV,3,3,11,24,51,096,54,30,32,110,52,31,59,228,49*4B
$GPRMC,143950.84,A,4806.3826,N,00138.9747,W,13.07,259.3,121007,2.6,W,A*38
$GPGGA,143950.84,4806.3826,N,00138.9747,W,1,10,1.3,42.7,M,48.5,M,,*41
$PFST,FOM,5*60
$GPGSA,A,3,05,06,07,10,16,21,23,24,30,31,,,1.8,1.3,1.3*3C
$GPGSV,3,1,11,01,05,230,37,05,15,1164,063,50,07,71,061,45*7F
$GPGSV,3,2,11,10,09,056,45,16,36,295,48,21,44,152,48,23,12,315,46*7C
$GPGSV,3,3,11,24,51,096,54,30,32,110,50,31,59,228,48*48
$GPRMC,143951.84,A,4806.3817,N,00138.9805,W,13.28,256.9,121007,2.6,W,A*3A
$GPGGA,143951.84,4806.3817,N,00138.9805,W,1,10,1.1,43.0,M,48.5,M,,*4F
$PFST,FOM,4*61
$GPGSA,A,3,05,06,07,10,16,21,23,24,30,31,,,1.6,1.1,1.2*31
$GPGSV,3,1,11,01,05,230,35,05,15,114,47,06,64,063,50,07,71,061,44*7C
$GPGSV,3,2,11,10,09,056,45,16,36,295,48,21,44,152,49,23,12,315,46*7D
$GPGSV,3,3,11,24,51,096,54,30,32,110,51,31,59,228,49*48
$GPRMC,143952.85,A,4806.3807,N,00138.9861,W,13.22,255.6,121007,2.6,W,A*3D
$GPGGA,143952.85,4806.3807,N,00138.9861,W,1,10,1.1,43.5,M,48.5,M,,*4B
$PFST,FOM,5*60
$GPGSA,A,3,05,06,07,10,16,21,23,24,30,31,,,1.6,1.1,1.2*31
$GPGSV,3,1,11,01,05,230,34,05,15,114,45,06,64,063,51,07,71,061,45*7F
$GPGSV,3,2,11,10,09,056,44,16,36,295,48,21,44,152,49,23,12,315,49*73
$GPGSV,3,3,11,24,51,096,54,30,32,110,50,31,59,228,48*48
$GPRMC,143953.85,A,4806.3798,N,00138.9911,W,13.18,254.0,121007,2.6,W,A*3D
$GPGGA,143953.85,4806.3798,N,00138.9911,W,1,09,1.3,43.4,M,48.5,M,,*4E
$PFST,FOM,4*61
$GPGSA,A,3,05,06,07,16,21,23,24,30,31,,,,1.8,1.3,1.3*3D
$GPGSV,3,1,11,01,05,230,36,05,15,114,46,06,64,063,50,07,71,061,44*7E
$GPGSV,3,2,11,10,09,056,44,16,36,295,48,21,44,152,48,23,12,315,50*7A
$GPGSV,3,3,11,24,51,096,54,30,32,110,51,31,59,228,49*48
$GPRMC,143954.85,A,4806.3788,N,00138.9962,W,13.15,252.8,121007,2.6,W,A*3C
$GPGGA,143954.85,4806.3788,N,00138.9962,W,1,09,1.3,43.1,M,48.5,M,,*49
$PFST,FOM,3*66
$GPGSA,A,3,05,06,07,16,21,23,24,30,31,,,,1.8,1.3,1.3*3D
$GPGSV,3,1,11,01,05,230,36,05,15,114,45,06,64,063,50,07,71,061,45*7C
$GPGSV,3,2,11,10,09,056,45,16,36,295,48,21,44,152,48,23,12,315,49*73
$GPGSV,3,3,11,24,51,096,54,30,32,110,50,31,59,228,49*49
$GPRMC,143955.85,A,4806.3780,N,00139.0011,W,13.09,251.4,121007,2.6,W,A*32
$GPGGA,143955.85,4806.3780,N,00139.0011,W,1,09,1.3,42.9,M,48.5,M,,*4C
$PFST,FOM,4*61
$GPGSA,A,3,05,06,07,16,21,23,24,30,31,,,,1.8,1.3,1.3*3D
$GPGSV,3,1,11,01,05,230,35,05,15,114,45,06,64,063,50,07,71,06
$GPGSV,3,2,11,10,09,056,43,16,36,295,49,21,44,152,49,23,12,315,46*7A
$GPGSV,3,3,11,24,51,096,53,30,32,110,50,31,59,228,49*4E
$GPRMC,143956.85,A,4806.3773,N,00139.0059,W,13.12,250.6,121007,2.6,W,A*38
$GPGGA,143956.85,4806.3773,N,00139.0059,W,1,11,1.0,42.7,M,48.5,M,,*4B
$PFST,FOM,8*6D
$GPGSA,A,3,01,05,06,07,10,16,21,23,24,30,31,,1.5,1.0,1.2*32
$GPGSV,3,1,11,01,05,230,35,05,15,114,43,06,64,063,50,07,71,061,46*7A
$GPGSV,3,2,11,10,09,056,42,16,36,295,49,21,44,152,48,23,12,315,46*7A
$GPGSV,3,3,11,24,51,096,53,30,32,110,51,31,59,228,48*4E
$GPRMC,143957.85,A,4806.3766,N,00139.0108,W,13.07,249.8,121007,2.6,W,A*3A
$GPGGA,143957.85,4806.3766,N,00139.0108,W,1,10,1.0,42.9,M,48.5,M,,*44
$PFST,FOM,5*60
$GPGSA,A,3,01,05,06,07,16,21,23,24,30,31,,,1.5,1.0,1.2*33
$GPGSV,3,1,11,01,05,230,36,05,15,114,44,06,64,063,49,07,71,061,45*75
$GPGSV,3,2,11,10,09,056,42,16,36,295,46,21,44,152,47,23,12,315,49*75
$GPGSV,3,3,11,24,51,096,54,30,32,110,47,31,59,228,48*4E
$GPRMC,143958.85,A,4806.3755,N,00139.0155,W,12.95,249.2,121007,2.6,W,A*3D
$GPGGA,143958.85,4806.3755,N,00139.0155,W,1,10,1.3,42.8,M,48.5,M,,*41
$PFST,FOM,7*62
$GPGSA,A,3,01,05,06,07,16,21,23,24,30,31,,,1.8,1.3,1.3*3C
$GPGSV,3,1,11,01,05,230,36,05,15,114,43,06,64,063,49,07,71,061,46*71
$GPGSV,3,2,11,10,09,056,42,16,36,295,49,21,44,152,50,23,12,315,48*7D
$GPGSV,3,3,11,24,51,096,54,30,32,110,46,31,59,228,48*4F
$GPRMC,143959.85,A,4806.3743,N,00139.0204,W,12.97,249.0,121007,2.6,W,A*3C
$GPGGA,143959.85,4806.3743,N,00139.0204,W,1,09,1.3,42.5,M,48.5,M,,*45
$PFST,FOM,4*61
$GPGSA,A,3,05,06,07,16,21,23,24,30,31,,,,1.8,1.3,1.3*3D
$GPGSV,3,1,11,01,05,230,37,05,15,114,44,06,64,063,50,07,71,061,46*7F
$GPGSV,3,2,11,10,09,056,40,16,36,295,48,21,44,152,50,23,12,315,46*70
$GPGSV,3,3,11,24,51,096,55,30,32,110,50,31,59,228,48*49
$GPRMC,144000.85,A,4806.3733,N,00139.0254,W,12.92,249.4,121007,2.6,W,A*3D
$GPGGA,144000.85,4806.3733,N,00139.0254,W,1,09,1.3,42.2,M,48.5,M,,*42
$PFST,FOM,3*66
$GPGSA,A,3,05,06,07,16,21,23,24,30,31,,,,1.8,1.3,1.3*3D
$GPGSV,3,1,11,01,05,230,35,05,15,114,45,06,64,063,50,07,71,061,46*7C
$GPGSV,3,2,11,10,09,0566,295,47,21,45,152,50,23,12,315,49*73
$GPGSV,3,3,11,24,51,096,54,30,32,110,51,31,59,228,49*48
$GPRMC,144001.85,A,4806.3721,N,00139.0306,W,12.97,249.0,121007,2.6,W,A*38
$GPGGA,144001.85,4806.3721,N,00139.0306,W,1,10,1.3,42.1,M,48.5,M,,*4D
$PFST,FOM,6*63
$GPGSA,A,3,05,06,07,10,16,21,23,24,30,31,,,1.8,1.3,1.3*3C
$GPGSV,3,1,11,01,05,230,35,05,15,114,46,06,64,063,49,07,71,061,47*76
$GPGSV,3,2,11,10,09,056,44,16,36,295,47,21,45,152,50,23,12,315,48*74
$GPGSV,3,3,11,24,51,096,54,30,32,110,51,31,59,228,48*49
$GPRMC,144002.85,A,4806.3710,N,00139.0357,W,13.02,249.2,121007,2.6,W,A*32
$GPGGA,144002.85,4806.3710,N,00139.0357,W,1,10,1.0,41.9,M,48.5,M,,*40
$PFST,FOM,3*66
$GPGSA,A,3,01,05,06,07,16,21,23,24,30,31,,,1.5,1.0,1.2*33
$GPGSV,3,1,11,01,05,230,36,05,15,114,45,06,64,063,50,07,71,061,46*7F
$GPGSV,3,2,11,10,09,056,42,16,36,295,46,21,45,152,50,23,12,315,48*73
$GPGSV,3,3,11,24,51,096,54,30,32,110,51,31,59,228,48*49
$GPRMC,144003.85,A,4806.3698,N,00139.0405,W,12.97,249.5,121007,2.6,W,A*38
$GPGGA,144003.85,4806.3698,N,00139.0405,W,1,09,1.3,41.7,M,48.5,M,,*45
$PFST,FOM,3*66
$GPGSA,A,3,05,06,07,16,21,23,24,30,31,,,,1.9,1.3,1.4*3B
$GPGSV,3,1,11,01,05,230,38,05,15,114,44,06,64,063,50,07,71,061,47*71
$GPGSV,3,2,11,10,09,056,39,16,36,295,49,21,45,152,50,23,12,315,45*7D
$GPGSV,3,3,11,24,51,096,54,30,32,110,51,31,59,228,48*49
$GPRMC,144004.85,A,4806.3683,N,00139.0451,W,12.99,249.3,121007,2.6,W,A*3C
$GPGGA,144004.85,4806.3683,N,00139.0451,W,1,10,1.3,41.7,M,48.5,M,,*41
$PFST,FOM,8*6D
$GPGSA,A,3,05,06,07,10,16,21,23,24,30,31,,,1.8,1.3,1.3*3C
$GPGSV,3,1,11,01,05,230,38,05,15,114,43,06,64,063,50,07,71,061,47*76
$GPGSV,3,2,11,10,09,056,41,16,36,295,48,21,45,152,50,23,12,315,39*78
$GPGSV,3,3,11,24,51,096,54,30,32,110,51,31,59,228,48*49
$GPRMC,144005.85,A,4806.3671,N,00139.0499,W,13.01,249.5,121007,2.6,W,A*32
$GPGGA,144005.85,4806.3671,N,00139.0499,W,1,08,1.5,41.5,M,48.5,M,,*44
$PFST,FOM,4*61
$GPGSA,A,3,05,06,07,16,21,24,30,31,,,,,2.3,1.5,1.8*39
$GPGSV,3,1,11,01,05,230,37,05,15,114,43,06,64,063,50,07,71,061,47*79
$GPGSV,3,2,11,10,09,056,40,16,36,295,48,21,45,152,50,23,1*78
$GPGSV,3,3,11,24,51,096,54,30,32,110,51,31,59,228,47*46
$GPRMC,144006.85,A,4806.3657,N,00139.0548,W,13.08,249.4,121007,2.6,W,A*30
$GPGGA,144006.85,4806.3657,N,00139.0548,W,1,10,1.5,41.5,M,48.5,M,,*47
$PFST,FOM,7*62
$GPGSA,A,3,01,05,06,07,16,21,23,24,30,31,,,2.3,1.5,1.8*39
$GPGSV,3,1,11,01,05,230,34,05,15,114,44,06,64,063,50,07,71,061,46*7C
$GPGSV,3,2,11,10,09,056,42,16,36,295,49,21,45,152,49,23,12,315,45*79
$GPGSV,3,3,11,24,51,096,54,30,32,110,50,31,59,228,48*48
$GPRMC,144007.86,A,4806.3648,N,00139.0601,W,13.03,249.6,121007,2.6,W,A*3B
$GPGGA,144007.86,4806.3648,N,00139.0601,W,1,11,1.0,41.4,M,48.5,M,,*40
$PFST,FOM,7*62
$GPGSA,A,3,01,05,06,07,10,16,21,23,24,30,31,,1.5,1.0,1.2*32
$GPGSV,3,1,11,01,05,230,36,05,15,114,44,06,64,063,50,07,71,061,46*7E
$GPGSV,3,2,11,10,09,056,43,16,36,295,49,21,45,152,49,23,12,315,47*7A
$GPGSV,3,3,11,24,51,096,54,30,32,110,50,31,59,228,49*49
$GPRMC,144008.86,A,4806.3632,N,00139.0655,W,13.06,249.7,121007,2.6,W,A*3C
$GPGGA,144008.86,4806.3632,N,00139.0655,W,1,10,1.1,42.0,M,48.5,M,,*44
$PFST,FOM,6*63
$GPGSA,A,3,05,06,07,10,16,21,23,24,30,31,,,1.6,1.1,1.2*31
$GPGSV,3,1,11,01,05,230,38,05,15,114,44,06,64,063,50,07,71,061,46*70
$GPGSV,3,2,11,10,09,056,42,16,36,295,48,21,45,152,49,23,12,315,47*7A
$GPGSV,3,3,11,24,51,096,54,30,32,110,50,31,59,228,49*49
$GPRMC,144009.86,A,4806.3620,N,00139.0702,W,13.14,249.7,121007,2.6,W,A*3E
$GPGGA,144009.86,4806.3620,N,00139.0702,W,1,09,1.5,41.8,M,48.5,M,,*42
$PFST,FOM,5*60
$GPGSA,A,3,05,06,07,16,21,23,24,30,31,,,,2.3,1.5,1.8*38
$GPGSV,3,1,11,01,05,230,37,05,15,114,44,06,64,063,50,07,71,061,47*7E
$GPGSV,3,2,11,10,09,056,42,16,36,295,47,21,45,152,49,23,12,315,47*75
$GPGSV,3,3,11,24,51,096,54,30,32,111,50,31,59,228,48*49
$GPRMC,144010.86,A,4806.3610,N,00139.0756,W,13.16,249.3,121007,2.6,W,A*32
$GPGGA,144010.86,4806.3610,N,00139.0756,W,1,10,1.3,41.2,M,48.5,M,,*4C
$PFST,FOM,7*62
$GPGSA,A,3,01,05,06,07,16,21,23,24,30,31,,,1.8,1.3,1.3*3C
$GPGSV,3,1,11,01,05,230,37,05,15,114,44,06,64,063,50,07,71,061,46*7F
$GPGSV,3,2,11,10,09,056,42,16,36,295,48,21,45,152,50,23,12,315,48*7D
$GPGSV,3,3,11,24,51,096,54,30,32,111,49,31,59,228,48*41
$GPRMC,144011.86,A,4806.3597,N,00139.0808,W,13.23,249.7,121007,2.6,W,A*39
$GPGGA,144011.86,4806.3597,N,00139.0808,W,1,09,1.3,41.1,M,48.5,M,,*4E
$PFST,FOM,4*61
$GPGSA,A,3,05,06,07,16,21,23,24,30,31,,,,1.8,1.3,1.3*3D
$GPGSV,3,1,11,01,05,230,37,05,15,114,45,06,64,063,50,07,71,061,46*7E
$GPGSV,3,2,11,10,09,056,45,16,36,295,47,21,45,152,49,23,12,315,47*72
$GPGSV,3,3,11,24,51,096,54,30,32,111,50,31,59,228,48*49
$GPRMC,144012.86,A,4806.3585,N,00139.0860,W,13.25,250.2,121007,2.6,W,A*3C
$GPGGA,144012.86,4806.3585,N,00139.0860,W,1,09,1.3,41.3,M,48.5,M,,*42
$PFST,FOM,4*61
$GPGSA,A,3,05,06,07,16,21,23,24,30,31,,,,1.8,1.3,1.3*3D
$GPGSV,3,1,11,01,05,230,38,05,15,114,44,06,64,063,50,07,71,061,46*70
$GPGSV,3,2,11,10,09,056,44,16,36,295,47,21,45,152,48,23,12,315,48*7D
$GPGSV,3,3,11,24,51,096,54,30,32,111,49,31,59,228,48*41
$GPRMC,144013.86,A,4806.3573,N,00139.0911,W,13.33,249.2,121007,2.6,W,A*3C
