$GPRMC,120316,V,4221.4394,N,01321.9948,E,000.0,000.0,150305,001.4,E*63
$GPGSV,2,1,08,01,10,158,45,03,72,164,41,11,24,279,,14,30,119,48*76
$GPGSV,2,2,08,15,33,070,40,16,05,184,,18,20,046,,19,73,304,*7B
GPSD,Y=GSV 0.000 8:1 10 158 45 0:3 72 164 41 0:11 24 279 0 0:14 30 119 48 0:15 33 70 40 0:16 5 184 0 0:18 20 46 0 0:19 73 304 0 0:
$GPRMC,120317,V,4221.4394,N,01321.9948,E,000.0,000.0,150305,001.4,E*62
$GPGGA,120317,4221.4394,N,01321.9948,E,0,00,,,M,,M,,*59
$GPGSA,A,1,,,,,,,,,,,,,,,*1E
GPSD,O=?
$GPGSV,2,1,08,01,10,158,45,03,72,164,41,11,24,279,,14,30,119,48*76
$GPGSV,2,2,08,15,33,070,40,16,05,184,,18,20,046,,19,73,304,*7B
GPSD,Y=GSV 0.000 8:1 10 158 45 0:3 72 164 41 0:11 24 279 0 0:14 30 119 48 0:15 33 70 40 0:16 5 184 0 0:18 20 46 0 0:19 73 304 0 0:
$GPRMC,120318,V,4221.4394,N,01321.9948,E,000.0,000.0,150305,001.4,E*6D
$GPGGA,120318,4221.4394,N,01321.9948,E,0,00,,,M,,M,,*56
$GPGSA,A,1,,,,,,,,,,,,,,,*1E
GPSD,O=?
$GPGSV,2,1,08,01,10,158,45,03,72,164,41,11,24,279,,14,30,119,48*76
$GPGSV,2,2,08,15,33,070,40,16,05,184,,18,20,046,,19,73,304,*7B
GPSD,Y=GSV 0.000 8:1 10 158 45 0:3 72 164 41 0:11 24 279 0 0:14 30 119 48 0:15 33 70 40 0:16 5 184 0 0:18 20 46 0 0:19 73 304 0 0:
$GPRMC,120319,V,4221.4394,N,01321.9948,E,000.0,000.0,150305,001.4,E*6C
$GPGGA,120319,4221.4394,N,01321.9948,E,0,00,,,M,,M,,*57
$GPGSA,A,1,,,,,,,,,,,,,,,*1E
GPSD,O=?
$GPGSV,2,1,08,01,10,158,45,03,72,164,41,11,24,279,,14,30,119,48*76
$GPGSV,2,2,08,15,33,070,40,16,05,184,,18,20,046,,19,73,304,*7B
GPSD,Y=GSV 0.000 8:1 10 158 45 0:3 72 164 41 0:11 24 279 0 0:14 30 119 48 0:15 33 70 40 0:16 5 184 0 0:18 20 46 0 0:19 73 304 0 0:
$GPRMC,120320,V,4221.4394,N,01321.9948,E,000.0,000.0,150305,001.4,E*66
$GPGGA,120320,4221.4394,N,01321.9948,E,0,00,,,M,,M,,*5D
$GPGSA,A,1,,,,,,,,,,,,,,,*1E
GPSD,O=?
$GPGSV,2,1,08,01,10,158,45,03,72,164,41,11,24,279,,14,30,119,48*76
$GPGSV,2,2,08,15,33,070,40,16,05,184,,18,20,046,,19,73,304,*7B
GPSD,Y=GSV 0.000 8:1 10 158 45 0:3 72 164 41 0:11 24 279 0 0:14 30 119 48 0:15 33 70 40 0:16 5 184 0 0:18 20 46 0 0:19 73 304 0 0:
$GPRMC,120321,V,4221.4394,N,01321.9948,E,000.0,000.0,150305,001.4,E*67
$GPGGA,120321,4221.4394,N,01321.9948,E,0,00,,,M,,M,,*5C
$GPGSA,A,1,,,,,,,,,,,,,,,*1E
GPSD,O=?
$GPGSV,2,1,08,01,10,158,45,03,72,164,41,11,24,279,,14,30,119,48*76
$GPGSV,2,2,08,15,33,070,39,16,05,184,,18,20,046,,19,73,304,*75
GPSD,Y=GSV 0.000 8:1 10 158 45 0:3 72 164 41 0:11 24 279 0 0:14 30 119 48 0:15 33 70 39 0:16 5 184 0 0:18 20 46 0 0:19 73 304 0 0:
$GPRMC,120322,V,4221.4394,N,01321.9948,E,000.0,000.0,150305,001.4,E*64
$GPGGA,120322,4221.4394,N,01321.9948,E,0,00,,,M,,M,,*5F
$GPGSA,A,1,,,,,,,,,,,,,,,*1E
GPSD,O=?
$GPGSV,2,1,08,01,10,158,45,03,72,164,42,11,24,279,,14,30,119,48*75
$GPGSV,2,2,08,15,33,070,39,16,05,184,,18,20,046,,19,73,304,*75
GPSD,Y=GSV 0.000 8:1 10 158 45 0:3 72 164 42 0:11 24 279 0 0:14 30 119 48 0:15 33 70 39 0:16 5 184 0 0:18 20 46 0 0:19 73 304 0 0:
$GPRMC,120323,V,4221.4394,N,01321.9948,E,000.0,000.0,150305,001.4,E*65
$GPGGA,120323,4221.4394,N,01321.9948,E,0,00,,,M,,M,,*5E
$GPGSA,A,1,,,,,,,,,,,,,,,*1E
GPSD,O=?
$GPGSV,2,1,08,01,10,158,45,03,72,164,42,11,24,279,,14,30,119,48*75
$GPGSV,2,2,08,15,33,070,39,16,05,184,,18,20,046,,19,73,304,*75
GPSD,Y=GSV 0.000 8:1 10 158 45 0:3 72 164 42 0:11 24 279 0 0:14 30 119 48 0:15 33 70 39 0:16 5 184 0 0:18 20 46 0 0:19 73 304 0 0:
$GPRMC,120324,V,4221.4394,N,01321.9948,E,000.0,000.0,150305,001.4,E*62
$GPGGA,120324,4221.4394,N,01321.9948,E,0,00,,,M,,M,,*59
$GPGSA,A,1,,,,,,,,,,,,,,,*1E
GPSD,O=?
$GPGSV,2,1,08,01,10,158,45,03,72,164,42,11,24,279,,14,30,119,48*75
$GPGSV,2,2,08,15,33,070,39,16,05,184,,18,20,046,,19,73,304,*75
GPSD,Y=GSV 0.000 8:1 10 158 45 0:3 72 164 42 0:11 24 279 0 0:14 30 119 48 0:15 33 70 39 0:16 5 184 0 0:18 20 46 0 0:19 73 304 0 0:
$GPRMC,120325,V,4221.4394,N,01321.9948,E,000.0,000.0,150305,001.4,E*63
$GPGGA,120325,4221.4394,N,01321.9948,E,0,00,,,M,,M,,*58
$GPGSA,A,1,,,,,,,,,,,,,,,*1E
GPSD,O=?
$GPGSV,2,1,08,01,10,158,44,03,72,164,42,11,24,279,,14,30,119,48*74
$GPGSV,2,2,08,15,33,070,39,16,05,184,,18,20,046,,19,73,304,*75
GPSD,Y=GSV 0.000 8:1 10 158 44 0:3 72 164 42 0:11 24 279 0 0:14 30 119 48 0:15 33 70 39 0:16 5 184 0 0:18 20 46 0 0:19 73 304 0 0:
$GPRMC,120326,A,4221.3871,N,01322.0800,E,000.0,000.0,150305,001.4,E*77
GPSD,O=RMC 1110888206.000 0.005 42.356451667 13.368000000 ? 0.000 ? 0.0000 0.000 ? ? ? ? 2
$GPGGA,120326,4221.3871,N,01322.0800,E,1,00,3.1,746.1,M,44.2,M,,*40
GPSD,O=GGA 1110888206.000 0.005 42.356451667 13.368000000 746.100 0.000 0.000 0.0000 0.000 0.000 ? ? ? 3
$GPGSA,A,2,01,03,,14,,,,,,,,,3.1,3.1,*1A
$GPGSV,2,1,08,01,10,158,45,03,72,164,42,11,24,279,,14,30,119,48*75
$GPGSV,2,2,08,15,33,070,39,16,05,184,,18,20,046,,19,73,304,*75
GPSD,Y=GSV 1110888206.000 8:1 10 158 45 1:3 72 164 42 1:11 24 279 0 0:14 30 119 48 1:15 33 70 39 0:16 5 184 0 0:18 20 46 0 0:19 73 304 0 0:
$GPRMC,120327,A,4221.3872,N,01322.0800,E,000.0,000.0,150305,001.4,E*75
GPSD,O=RMC 1110888207.000 0.005 42.356453333 13.368000000 ? 46.500 ? 0.0000 0.000 ? ? 46.50 ? 2
$GPGGA,120327,4221.3872,N,01322.0800,E,1,03,3.1,746.1,M,44.2,M,,*41
GPSD,O=GGA 1110888207.000 0.005 42.356453333 13.368000000 746.100 46.500 0.000 0.0000 0.000 0.000 ? 46.50 ? 3
$GPGSA,A,2,01,03,,14,,,,,,,,,3.1,3.1,*1A
$GPGSV,2,1,08,01,10,158,45,03,72,164,42,11,24,279,,14,30,119,48*75
$GPGSV,2,2,08,15,33,070,39,16,05,184,,18,20,046,,19,73,304,*75
GPSD,Y=GSV 1110888207.000 8:1 10 158 45 1:3 72 164 42 1:11 24 279 0 0:14 30 119 48 1:15 33 70 39 0:16 5 184 0 0:18 20 46 0 0:19 73 304 0 0:
$GPRMC,120328,A,4221.3873,N,01322.0800,E,000.0,000.0,150305,001.4,E*7B
GPSD,O=RMC 1110888208.000 0.005 42.356455000 13.368000000 ? 46.500 ? 0.0000 0.000 ? ? 93.00 ? 2
$GPGGA,120328,4221.3873,N,01322.0800,E,1,03,3.1,746.1,M,44.2,M,,*4F
GPSD,O=GGA 1110888208.000 0.005 42.356455000 13.368000000 746.100 46.500 0.000 0.0000 0.000 0.000 ? 93.00 ? 3
$GPGSA,A,2,01,03,,14,,,,,,,,,3.1,3.1,*1A
$GPGSV,3,1,09,01,10,158,45,03,72,164,42,11,24,279,,14,30,119,48*75
$GPGSV,3,2,09,15,33,070,39,16,05,184,,18,20,046,,19,73,304,*75
$GPGSV,3,3,09,22,50,054,,,,,,,,,,,,,*44
GPSD,Y=GSV 1110888208.000 9:1 10 158 45 1:3 72 164 42 1:11 24 279 0 0:14 30 119 48 1:15 33 70 39 0:16 5 184 0 0:18 20 46 0 0:19 73 304 0 0:22 50 54 0 0:
$GPRMC,120329,A,4221.3874,N,01322.0805,E,000.0,000.0,150305,001.4,E*78
GPSD,O=RMC 1110888209.000 0.005 42.356456667 13.368008333 ? 46.500 ? 0.0000 0.000 ? ? 93.00 ? 2
$GPGGA,120329,4221.3874,N,01322.0805,E,1,03,3.1,746.1,M,44.2,M,,*4C
GPSD,O=GGA 1110888209.000 0.005 42.356456667 13.368008333 746.100 46.500 0.000 0.0000 0.000 0.000 ? 93.00 ? 3
$GPGSA,A,2,01,03,,14,,,,,,,,,3.1,3.1,*1A
$GPGSV,3,1,09,01,10,158,45,03,72,164,42,11,24,279,,14,30,119,48*75
$GPGSV,3,2,09,15,33,070,39,16,05,184,,18,20,046,,19,73,304,*75
$GPGSV,3,3,09,22,50,054,,,,,,,,,,,,,*44
GPSD,Y=GSV 1110888209.000 9:1 10 158 45 1:3 72 164 42 1:11 24 279 0 0:14 30 119 48 1:15 33 70 39 0:16 5 184 0 0:18 20 46 0 0:19 73 304 0 0:22 50 54 0 0:
$GPRMC,120330,A,4221.3875,N,01322.0807,E,000.0,000.0,150305,001.4,E*73
GPSD,O=RMC 1110888210.000 0.005 42.356458333 13.368011667 ? 46.500 ? 0.0000 0.000 ? ? 93.00 ? 2
$GPGGA,120330,4221.3875,N,01322.0807,E,1,03,3.1,746.1,M,44.2,M,,*47
GPSD,O=GGA 1110888210.000 0.005 42.356458333 13.368011667 746.100 46.500 0.000 0.0000 0.000 0.000 ? 93.00 ? 3
$GPGSA,A,2,01,03,,14,,,,,,,,,3.1,3.1,*1A
$GPGSV,3,1,09,01,10,158,45,03,72,164,42,11,24,279,,14,30,119,47*7A
$GPGSV,3,2,09,15,33,070,39,16,05,184,,18,20,046,,19,73,304,*75
$GPGSV,3,3,09,22,50,054,,,,,,,,,,,,,*44
GPSD,Y=GSV 1110888210.000 9:1 10 158 45 1:3 72 164 42 1:11 24 279 0 0:14 30 119 47 1:15 33 70 39 0:16 5 184 0 0:18 20 46 0 0:19 73 304 0 0:22 50 54 0 0:
$GPRMC,120331,A,4221.3880,N,01322.0808,E,000.0,000.0,150305,001.4,E*77
GPSD,O=RMC 1110888211.000 0.005 42.356466667 13.368013333 ? 46.500 ? 0.0000 0.000 ? ? 93.00 ? 2
$GPGGA,120331,4221.3880,N,01322.0808,E,1,03,3.1,746.1,M,44.2,M,,*43
GPSD,O=GGA 1110888211.000 0.005 42.356466667 13.368013333 746.100 46.500 0.000 0.0000 0.000 0.000 ? 93.00 ? 3
$GPGSA,A,2,01,03,,14,,,,,,,,,3.1,3.1,*1A
$GPGSV,3,1,09,01,10,158,45,03,72,164,42,11,24,279,,14,30,119,47*7A
$GPGSV,3,2,09,15,33,070,39,16,05,184,,18,20,046,,19,73,304,*75
$GPGSV,3,3,09,22,50,054,,,,,,,,,,,,,*44
GPSD,Y=GSV 1110888211.000 9:1 10 158 45 1:3 72 164 42 1:11 24 279 0 0:14 30 119 47 1:15 33 70 39 0:16 5 184 0 0:18 20 46 0 0:19 73 304 0 0:22 50 54 0 0:
$GPRMC,120332,A,4221.3884,N,01322.0802,E,000.0,000.0,150305,001.4,E*7A
GPSD,O=RMC 1110888212.000 0.005 42.356473333 13.368003333 ? 46.500 ? 0.0000 0.000 ? ? 93.00 ? 2
$GPGGA,120332,4221.3884,N,01322.0802,E,1,03,3.1,746.1,M,44.2,M,,*4E
GPSD,O=GGA 1110888212.000 0.005 42.356473333 13.368003333 746.100 46.500 0.000 0.0000 0.000 0.000 ? 93.00 ? 3
$GPGSA,A,2,01,03,,14,,,,,,,,,3.1,3.1,*1A
$GPGSV,3,1,09,01,10,158,45,03,72,164,42,11,24,279,,14,30,119,47*7A
$GPGSV,3,2,09,15,33,070,39,16,05,184,,18,20,046,,19,73,304,*75
$GPGSV,3,3,09,22,50,054,,,,,,,,,,,,,*44
GPSD,Y=GSV 1110888212.000 9:1 10 158 45 1:3 72 164 42 1:11 24 279 0 0:14 30 119 47 1:15 33 70 39 0:16 5 184 0 0:18 20 46 0 0:19 73 304 0 0:22 50 54 0 0:
$GPRMC,120333,A,4221.3889,N,01322.0794,E,000.0,000.0,150305,001.4,E*76
GPSD,O=RMC 1110888213.000 0.005 42.356481667 13.367990000 ? 46.500 ? 0.0000 0.000 ? ? 93.00 ? 2
$GPGGA,120333,4221.3889,N,01322.0794,E,1,03,3.1,746.1,M,44.2,M,,*42
GPSD,O=GGA 1110888213.000 0.005 42.356481667 13.367990000 746.100 46.500 0.000 0.0000 0.000 0.000 ? 93.00 ? 3
$GPGSA,A,2,01,03,,14,,,,,,,,,3.1,3.1,*1A
$GPGSV,3,1,09,01,10,158,45,03,72,164,42,11,24,279,,14,30,119,47*7A
$GPGSV,3,2,09,15,33,070,39,16,05,184,,18,20,046,,19,73,304,*75
$GPGSV,3,3,09,22,50,054,,,,,,,,,,,,,*44
GPSD,Y=GSV 1110888213.000 9:1 10 158 45 1:3 72 164 42 1:11 24 279 0 0:14 30 119 47 1:15 33 70 39 0:16 5 184 0 0:18 20 46 0 0:19 73 304 0 0:22 50 54 0 0:
$GPRMC,120334,A,4221.3893,N,01322.0786,E,000.0,000.0,150305,001.4,E*79
GPSD,O=RMC 1110888214.000 0.005 42.356488333 13.367976667 ? 46.500 ? 0.0000 0.000 ? ? 93.00 ? 2
$GPGGA,120334,4221.3893,N,01322.0786,E,1,03,3.1,746.1,M,44.2,M,,*4D
GPSD,O=GGA 1110888214.000 0.005 42.356488333 13.367976667 746.100 46.500 0.000 0.0000 0.000 0.000 ? 93.00 ? 3
$GPGSA,A,2,01,03,,14,,,,,,,,,3.1,3.1,*1A
$GPGSV,3,1,09,01,10,158,45,03,72,164,42,11,24,279,,14,30,119,47*7A
$GPGSV,3,2,09,15,33,070,39,16,05,184,,18,20,046,,19,73,304,*75
$GPGSV,3,3,09,22,50,054,,,,,,,,,,,,,*44
GPSD,Y=GSV 1110888214.000 9:1 10 158 45 1:3 72 164 42 1:11 24 279 0 0:14 30 119 47 1:15 33 70 39 0:16 5 184 0 0:18 20 46 0 0:19 73 304 0 0:22 50 54 0 0:
$GPRMC,120335,A,4221.3898,N,01322.0780,E,000.0,000.0,150305,001.4,E*75
GPSD,O=RMC 1110888215.000 0.005 42.356496667 13.367966667 ? 46.500 ? 0.0000 0.000 ? ? 93.00 ? 2
$GPGGA,120335,4221.3898,N,01322.0780,E,1,03,3.1,746.1,M,44.2,M,,*41
GPSD,O=GGA 1110888215.000 0.005 42.356496667 13.367966667 746.100 46.500 0.000 0.0000 0.000 0.000 ? 93.00 ? 3
$GPGSA,A,2,01,03,,14,,,,,,,,,3.1,3.1,*1A
$GPGSV,3,1,09,01,10,158,45,03,72,164,42,11,24,279,,14,30,119,47*7A
$GPGSV,3,2,09,15,33,070,39,16,05,184,,18,20,046,,19,73,304,*75
$GPGSV,3,3,09,22,50,054,,,,,,,,,,,,,*44
GPSD,Y=GSV 1110888215.000 9:1 10 158 45 1:3 72 164 42 1:11 24 279 0 0:14 30 119 47 1:15 33 70 39 0:16 5 184 0 0:18 20 46 0 0:19 73 304 0 0:22 50 54 0 0:
