$GPRMC,151605.053,V,,,,,,,260705,,*29
$GPRMC,151606.055,V,,,,,,,260705,,*2C
$GPGSA,A,1,,,,*32
$GPGSA,A,3,09,05,14,26,,,,,,,,,2.9,2.2,1.9*3C
GPSD,O=?
$GPGSA,A,3,09,05,14,26,,,,,,,,,2.9,2.2,1.9*3C
GPSD,O=?
$GPGSA,A,3,09,05,14,26,,,,,,,,,2.9,2.2,1.9*3C
GPSD,O=?
$GPGSA,A,3,09,05,14,26,,,,,,,,,2.9,2.2,1.9*3C
GPSD,O=?
$GPGSA,A,3,09,05,14,26,,,,,,,,,2.9,2.2,1.9*3C
GPSD,O=?
$GPRMC,045849.000,A,3519.9048,N,13640.2631,E,0.10,92.17,270705,,*31
GPSD,O=RMC 1122440329.000 0.005 35.331746667 136.671051667 ? 33.000 ? 92.1700 0.051 ? ? ? ? 2
$GPGSA,A,3,09,05,14,26,,,,,,,,,2.9,2.2,1.9*3C
GPSD,O=GSA 1122440329.000 0.005 35.331746667 136.671051667 ? 33.000 43.700 92.1700 0.051 ? ? ? ? 3
$GPRMC,045850.000,A,3519.9047,N,13640.2631,E,0.11,99.12,270705,,*39
GPSD,O=RMC 1122440330.000 0.005 35.331745000 136.671051667 ? 33.000 ? 99.1200 0.057 ? ? 66.00 ? 2
$GPGGA,045851.000,3519.9046,N,13640.2631,E,1,04,2.2,80.4,M,,,,0000*39
GPSD,O=GGA 1122440331.000 0.005 35.331743333 136.671051667 80.400 33.000 43.700 ? ? 0.000 ? 66.00 ? 3
$GPRMC,045851.000,A,3519.9046,N,13640.2631,E,0.12,114.35,270705,,*0B
GPSD,O=RMC 1122440331.000 0.005 35.331743333 136.671051667 80.400 33.000 43.700 114.3500 0.062 0.000 ? 66.00 ? 3
$GPGSA,A,3,09,05,14,26,,,,,,,,,2.9,2.2,1.9*3C
GPSD,O=GSA 1122440331.000 0.005 35.331743333 136.671051667 80.400 33.000 43.700 114.3500 0.062 0.000 ? 66.00 ? 3
$GPGSV,2,2,08,22,62,272,24,18,55,192,16,30,50,179,18,15,09,229,*74
GPSD,Y=GSV 1122440331.000 4:22 62 272 24 0:18 55 192 16 0:30 50 179 18 0:15 9 229 0 0:
$GPRMC,045852.000,A,3519.9046,N,13640.2632,E,0.10,104.21,270705,,*0D
GPSD,O=RMC 1122440332.000 0.005 35.331743333 136.671053333 ? 33.000 ? 104.2100 0.051 ? ? 66.00 ? 2
$GPGGA,045853.000,3519.9045,N,13640.2632,E,1,04,2.2,80.4,M,,,,0000*3B
GPSD,O=GGA 1122440333.000 0.005 35.331741667 136.671053333 80.400 33.000 43.700 ? ? 0.000 ? 66.00 ? 3
$GPGSA,A,3,09,05,14,26,,,,,,,,,2.9,2.2,1.9*3C
GPSD,O=GSA 1122440333.000 0.005 35.331741667 136.671053333 80.400 33.000 43.700 ? ? 0.000 ? 66.00 ? 3
$GPRMC,045853.000,A,3519.9045,N,13640.2632,E,0.11,97.51,270705,,*32
GPSD,O=RMC 1122440333.000 0.005 35.331741667 136.671053333 80.400 33.000 43.700 97.5100 0.057 0.000 ? 66.00 ? 3
$GPGSA,A,3,09,05,14,26,,,,,,,,,2.9,2.2,1.9*3C
GPSD,O=GSA 1122440333.000 0.005 35.331741667 136.671053333 80.400 33.000 43.700 97.5100 0.057 0.000 ? 66.00 ? 3
$GPRMC,045854.000,A,3519.9044,N,13640.2632,E,0.12,108.39,270705,,*0E
GPSD,O=RMC 1122440334.000 0.005 35.331740000 136.671053333 ? 33.000 ? 108.3900 0.062 ? ? 66.00 ? 2
$GPGGA,045855.000,3519.9043,N,13640.2632,E,1,04,2.2,80.4,M,,,,0000*3B
GPSD,O=GGA 1122440335.000 0.005 35.331738333 136.671053333 80.400 33.000 43.700 ? ? 0.000 ? 66.00 ? 3
$GPGSA,A,3,09,05,14,26,,,,,,,,,2.9,2.2,1.9*3C
GPSD,O=GSA 1122440335.000 0.005 35.331738333 136.671053333 80.400 33.000 43.700 ? ? 0.000 ? 66.00 ? 3
$GPRMC,045855.000,A,3519.9043,N,13640.2632,E,0.11,99.16,270705,,*3F
GPSD,O=RMC 1122440335.000 0.005 35.331738333 136.671053333 80.400 33.000 43.700 99.1600 0.057 0.000 ? 66.00 ? 3
$GPGGA,045856.000,3519.9042,N,13640.2632,E,1,04,2.2,80.4,M,,,,0000*39
GPSD,O=GGA 1122440336.000 0.005 35.331736667 136.671053333 80.400 33.000 43.700 ? ? 0.000 ? 66.00 ? 3
$GPGSA,A,3,09,05,14,26,,,,,,,,,2.9,2.2,1.9*3C
GPSD,O=GSA 1122440336.000 0.005 35.331736667 136.671053333 80.400 33.000 43.700 ? ? 0.000 ? 66.00 ? 3
$GPRMC,045856.000,A,3519.9042,N,13640.2632,E,0.11,115.12,270705,,*0C
GPSD,O=RMC 1122440336.000 0.005 35.331736667 136.671053333 80.400 33.000 43.700 115.1200 0.057 0.000 ? 66.00 ? 3
$GPGGA,045857.000,3519.9040,N,13640.2632,E,1,04,2.2,80.5,M,,,,0000*3B
GPSD,O=GGA 1122440337.000 0.005 35.331733333 136.671053333 80.500 33.000 43.700 ? ? 0.000 ? 66.00 ? 3
$GPGSV,2,1,08,05,67,099,26,09,41,047,46,14,32,311,43,26,08,109,30*78
$GPGSV,2,2,08,22,62,272,25,18,55,192,24,30,50,179,19,15,09,229,*75
GPSD,Y=GSV 1122440337.000 8:5 67 99 26 1:9 41 47 46 1:14 32 311 43 1:26 8 109 30 1:22 62 272 25 0:18 55 192 24 0:30 50 179 19 0:15 9 229 0 0:
$GPRMC,045857.000,A,3519.9040,N,13640.2632,E,0.11,116.49,270705,,*02
GPSD,O=RMC 1122440337.000 0.005 35.331733333 136.671053333 80.500 33.000 43.700 116.4900 0.057 0.000 ? 66.00 ? 3
$GPGSA,A,3,09,05,14,26,,,,,,,,,2.9,2.2,1.9*3C
GPSD,O=GSA 1122440337.000 0.005 35.331733333 136.671053333 80.500 33.000 43.700 116.4900 0.057 0.000 ? 66.00 ? 3
$GPRMC,045858.000,A,3519.9039,N,13640.2632,E,0.11,115.53,270705,,*0B
GPSD,O=RMC 1122440338.000 0.005 35.331731667 136.671053333 ? 33.000 ? 115.5300 0.057 ? ? 66.00 ? 2
$GPGSA,A,3,09,05,14,26,,,,,,,,,2.9,2.2,1.9*3C
GPSD,O=GSA 1122440338.000 0.005 35.331731667 136.671053333 ? 33.000 43.700 115.5300 0.057 ? ? 66.00 ? 3
$GPRMC,045859.000,A,3519.9038,N,13640.2632,E,0.10,107.70,270705,,*08
GPSD,O=RMC 1122440339.000 0.005 35.331730000 136.671053333 ? 33.000 ? 107.7000 0.051 ? ? 66.00 ? 2
$GPGGA,045900.000,3519.9036,N,13640.2632,E,1,04,2.2,80.8,M,,,,0000*34
GPSD,O=GGA 1122440340.000 0.005 35.331726667 136.671053333 80.800 33.000 43.700 ? ? 0.000 ? 66.00 ? 3
$GPGSA,A,3,09,05,14,26,,,,,,,,,2.9,2.2,1.9*3C
GPSD,O=GSA 1122440340.000 0.005 35.331726667 136.671053333 80.800 33.000 43.700 ? ? 0.000 ? 66.00 ? 3
$GPRMC,045900.000,A,3519.9036,N,13640.2632,E,0.12,130.75,270705,,*08
GPSD,O=RMC 1122440340.000 0.005 35.331726667 136.671053333 80.800 33.000 43.700 130.7500 0.062 0.000 ? 66.00 ? 3
$GPGSA,A,3,09,05,14,26,,,,,,,,,2.9,2.2,1.9*3C
GPSD,O=GSA 1122440340.000 0.005 35.331726667 136.671053333 80.800 33.000 43.700 130.7500 0.062 0.000 ? 66.00 ? 3
$GPRMC,045901.000,A,3519.9035,N,13640.2632,E,0.11,121.44,270705,,*0B
GPSD,O=RMC 1122440341.000 0.005 35.331725000 136.671053333 ? 33.000 ? 121.4400 0.057 ? ? 66.00 ? 2
$GPGGA,045902.000,3519.9034,N,13640.2633,E,1,04,2.2,81.0,M,,,,0000*3C
GPSD,O=GGA 1122440342.000 0.005 35.331723333 136.671055000 81.000 33.000 43.700 ? ? 0.000 ? 66.00 ? 3
$GPGSA,A,3,09,05,14,26,,,,,,,,,2.9,2.2,1.9*3C
GPSD,O=GSA 1122440342.000 0.005 35.331723333 136.671055000 81.000 33.000 43.700 ? ? 0.000 ? 66.00 ? 3
$GPGSV,2,1,08,05,67,099,26,09,41,047,46,14,32,311,42,26,08,109,29*71
$GPGSV,2,2,08,22,62,272,24,18,55,192,24,30,50,179,25,15,09,229,23*7A
GPSD,Y=GSV 1122440342.000 8:5 67 99 26 1:9 41 47 46 1:14 32 311 42 1:26 8 109 29 1:22 62 272 24 0:18 55 192 24 0:30 50 179 25 0:15 9 229 23 0:
$GPRMC,045902.000,A,3519.9034,N,13640.2633,E,0.13,137.85,270705,,*00
GPSD,O=RMC 1122440342.000 0.005 35.331723333 136.671055000 81.000 33.000 43.700 137.8500 0.067 0.000 ? 66.00 ? 3
$GPGGA,045903.000,3519.9032,N,13640.2633,E,1,04,2.2,81.1,M,,,,0000*3A
GPSD,O=GGA 1122440343.000 0.005 35.331720000 136.671055000 81.100 33.000 43.700 ? ? 0.000 ? 66.00 ? 3
$GPGSA,A,3,09,05,14,26,,,,,,,,,2.9,2.2,1.9*3C
GPSD,O=GSA 1122440343.000 0.005 35.331720000 136.671055000 81.100 33.000 43.700 ? ? 0.000 ? 66.00 ? 3
$GPRMC,045903.000,A,3519.9032,N,13640.2633,E,0.15,142.32,270705,,*0F
GPSD,O=RMC 1122440343.000 0.005 35.331720000 136.671055000 81.100 33.000 43.700 142.3200 0.077 0.000 ? 66.00 ? 3
$GPGGA,045904.000,3519.9030,N,13640.2633,E,1,04,2.2,80.8,M,,,,0000*37
GPSD,O=GGA 1122440344.000 0.005 35.331716667 136.671055000 80.800 33.000 43.700 ? ? 0.000 ? 66.00 ? 3
$GPGSA,A,3,09,05,14,26,,,,,,,,,2.9,2.2,1.9*3C
GPSD,O=GSA 1122440344.000 0.005 35.331716667 136.671055000 80.800 33.000 43.700 ? ? 0.000 ? 66.00 ? 3
$GPRMC,045904.000,A,3519.9030,N,13640.2633,E,0.55,168.73,270705,,*03
GPSD,O=RMC 1122440344.000 0.005 35.331716667 136.671055000 80.800 33.000 43.700 168.7300 0.283 0.000 ? 66.00 ? 3
$GPGGA,045905.000,3519.9028,N,13640.2633,E,1,04,2.2,80.7,M,,,,0000*30
GPSD,O=GGA 1122440345.000 0.005 35.331713333 136.671055000 80.700 33.000 43.700 ? ? 0.000 ? 66.00 ? 3
$GPGSA,A,3,09,05,14,26,,,,,,,,,2.9,2.2,1.9*3C
GPSD,O=GSA 1122440345.000 0.005 35.331713333 136.671055000 80.700 33.000 43.700 ? ? 0.000 ? 66.00 ? 3
$GPRMC,045905.000,A,3519.9028,N,13640.2633,E,0.11,51.58,270705,,*39
GPSD,O=RMC 1122440345.000 0.005 35.331713333 136.671055000 80.700 33.000 43.700 51.5800 0.057 0.000 ? 66.00 ? 3
$GPGGA,045906.000,3519.9027,N,13640.2633,E,1,04,2.2,80.6,M,,,,0000*3D
GPSD,O=GGA 1122440346.000 0.005 35.331711667 136.671055000 80.600 33.000 43.700 ? ? 0.000 ? 66.00 ? 3
$GPGSA,A,3,09,05,14,26,,,,,,,,,2.9,2.2,1.9*3C
GPSD,O=GSA 1122440346.000 0.005 35.331711667 136.671055000 80.600 33.000 43.700 ? ? 0.000 ? 66.00 ? 3
$GPRMC,045906.000,A,3519.9027,N,13640.2633,E,0.17,42.56,270705,,*3F
GPSD,O=RMC 1122440346.000 0.005 35.331711667 136.671055000 80.600 33.000 43.700 42.5600 0.087 0.000 ? 66.00 ? 3
$GPGGA,045907.000,3519.9026,N,13640.2633,E,1,04,2.2,80.6,M,,,,0000*3D
GPSD,O=GGA 1122440347.000 0.005 35.331710000 136.671055000 80.600 33.000 43.700 ? ? 0.000 ? 66.00 ? 3
$GPGSA,A,3,09,05,14,26,,,,,,,,,2.9,2.2,1.9*3C
GPSD,O=GSA 1122440347.000 0.005 35.331710000 136.671055000 80.600 33.000 43.700 ? ? 0.000 ? 66.00 ? 3
$GPGSV,2,1,08,05,67,099,32,09,41,047,46,14,32,311,42,26,08,109,24*79
$GPGSV,2,2,08,22,62,272,25,18,55,192,25,30,50,179,26,15,09,229,*78
GPSD,Y=GSV 1122440347.000 8:5 67 99 32 1:9 41 47 46 1:14 32 311 42 1:26 8 109 24 1:22 62 272 25 0:18 55 192 25 0:30 50 179 26 0:15 9 229 0 0:
$GPRMC,045907.000,A,3519.9026,N,13640.2633,E,0.12,56.07,270705,,*3B
GPSD,O=RMC 1122440347.000 0.005 35.331710000 136.671055000 80.600 33.000 43.700 56.0700 0.062 0.000 ? 66.00 ? 3
$GPGGA,045908.000,3519.9026,N,13640.2633,E,1,04,2.2,80.8,M,,,,0000*3C
GPSD,O=GGA 1122440348.000 0.005 35.331710000 136.671055000 80.800 33.000 43.700 ? ? 0.000 ? 66.00 ? 3
$GPRMC,045908.000,A,3519.9026,N,13640.2633,E,0.38,14.44,270705,,*3D
GPSD,O=RMC 1122440348.000 0.005 35.331710000 136.671055000 80.800 33.000 43.700 14.4400 0.195 0.000 ? 66.00 ? 3
$GPGGA,045909.000,3519.9026,N,13640.2634,E,1,04,2.2,81.0,M,,,,0000*33
GPSD,O=GGA 1122440349.000 0.005 35.331710000 136.671056667 81.000 33.000 43.700 ? ? 0.000 ? 66.00 ? 3
$GPGSA,A,3,09,05,14,26,,,,,,,,,2.9,2.2,1.9*3C
GPSD,O=GSA 1122440349.000 0.005 35.331710000 136.671056667 81.000 33.000 43.700 ? ? 0.000 ? 66.00 ? 3
$GPRMC,045909.000,A,3519.9026,N,13640.2634,E,0.35,16.55,270705,,*34
GPSD,O=RMC 1122440349.000 0.005 35.331710000 136.671056667 81.000 33.000 43.700 16.5500 0.180 0.000 ? 66.00 ? 3
$GPGSA,A,3,09,05,14,26,,,,,,,,,2.9,2.2,1.9*3C
GPSD,O=GSA 1122440349.000 0.005 35.331710000 136.671056667 81.000 33.000 43.700 16.5500 0.180 0.000 ? 66.00 ? 3
$GPRMC,045910.000,A,3519.9026,N,13640.2634,E,0.18,28.96,270705,,*31
GPSD,O=RMC 1122440350.000 0.005 35.331710000 136.671056667 ? 33.000 ? 28.9600 0.093 ? ? 66.00 ? 2
$GPGGA,045911.000,3519.9026,N,13640.2634,E,1,04,2.2,81.3,M,,,,0000*39
GPSD,O=GGA 1122440351.000 0.005 35.331710000 136.671056667 81.300 33.000 43.700 ? ? 0.000 ? 66.00 ? 3
$GPRMC,045911.000,A,3519.9026,N,13640.2634,E,0.42,13.19,270705,,*30
GPSD,O=RMC 1122440351.000 0.005 35.331710000 136.671056667 81.300 33.000 43.700 13.1900 0.216 0.000 ? 66.00 ? 3
$GPGGA,045912.000,3519.9026,N,13640.2634,E,1,04,2.2,81.3,M,,,,0000*3A
GPSD,O=GGA 1122440352.000 0.005 35.331710000 136.671056667 81.300 33.000 43.700 ? ? 0.000 ? 66.00 ? 3
$GPGSV,2,1,08,05,67,099,33,09,41,047,46,14,32,311,42,26,08,109,23*7F
$GPGSV,2,2,08,22,62,272,25,18,55,192,18,30,50,179,21,15,09,229,*71
GPSD,Y=GSV 1122440352.000 8:5 67 99 33 1:9 41 47 46 1:14 32 311 42 1:26 8 109 23 1:22 62 272 25 0:18 55 192 18 0:30 50 179 21 0:15 9 229 0 0:
$GPRMC,045912.000,A,3519.9026,N,13640.2634,E,0.36,13.64,270705,,*3A
GPSD,O=RMC 1122440352.000 0.005 35.331710000 136.671056667 81.300 33.000 43.700 13.6400 0.185 0.000 ? 66.00 ? 3
$GPGGA,045913.000,3519.9025,N,13640.2634,E,1,04,2.2,81.2,M,,,,0000*39
GPSD,O=GGA 1122440353.000 0.005 35.331708333 136.671056667 81.200 33.000 43.700 ? ? 0.000 ? 66.00 ? 3
$GPGSA,A,3,09,05,14,26,,,,,,,,,2.9,2.2,1.9*3C
GPSD,O=GSA 1122440353.000 0.005 35.331708333 136.671056667 81.200 33.000 43.700 ? ? 0.000 ? 66.00 ? 3
$GPRMC,045913.000,A,3519.9025,N,13640.2634,E,0.30,15.65,270705,,*39
GPSD,O=RMC 1122440353.000 0.005 35.331708333 136.671056667 81.200 33.000 43.700 15.6500 0.154 0.000 ? 66.00 ? 3
$GPGGA,045914.000,3519.9024,N,13640.2635,E,1,04,2.2,80.8,M,,,,0000*35
GPSD,O=GGA 1122440354.000 0.005 35.331706667 136.671058333 80.800 33.000 43.700 ? ? 0.000 ? 66.00 ? 3
$GPRMC,045914.000,A,3519.9024,N,13640.2635,E,0.30,160.36,270705,,*0B
GPSD,O=RMC 1122440354.000 0.005 35.331706667 136.671058333 80.800 33.000 43.700 160.3600 0.154 0.000 ? 66.00 ? 3
$GPGSA,A,3,09,05,14,26,,,,,,,,,2.9,2.2,1.9*3C
GPSD,O=GSA 1122440354.000 0.005 35.331706667 136.671058333 80.800 33.000 43.700 160.3600 0.154 0.000 ? 66.00 ? 3
$GPRMC,045915.000,A,3519.9021,N,13640.2635,E,0.34,165.82,270705,,*01
GPSD,O=RMC 1122440355.000 0.005 35.331701667 136.671058333 ? 33.000 ? 165.8200 0.175 ? ? 66.00 ? 2
$GPGSA,A,3,09,05,14,26,,,,,,,,,2.9,2.2,1.9*3C
GPSD,O=GSA 1122440355.000 0.005 35.331701667 136.671058333 ? 33.000 43.700 165.8200 0.175 ? ? 66.00 ? 3
$GPRMC,045916.000,A,3519.9019,N,13640.2636,E,0.31,160.03,270705,,*03
GPSD,O=RMC 1122440356.000 0.005 35.331698333 136.671060000 ? 33.000 ? 160.0300 0.159 ? ? 66.00 ? 2
$GPGGA,045917.000,3519.9017,N,13640.2636,E,1,04,2.2,79.0,M,,,,0000*3B
GPSD,O=GGA 1122440357.000 0.005 35.331695000 136.671060000 79.000 33.000 43.700 ? ? 0.000 ? 66.00 ? 3
$GPGSV,2,1,08,05,67,099,34,09,41,047,46,14,32,311,42,26,08,109,19*71
$GPGSV,2,2,08,22,62,272,20,18,55,192,19,30,50,179,13,15,09,229,24*72
GPSD,Y=GSV 1122440357.000 8:5 67 99 34 1:9 41 47 46 1:14 32 311 42 1:26 8 109 19 1:22 62 272 20 0:18 55 192 19 0:30 50 179 13 0:15 9 229 24 0:
$GPRMC,045917.000,A,3519.9017,N,13640.2636,E,0.32,160.37,270705,,*08
GPSD,O=RMC 1122440357.000 0.005 35.331695000 136.671060000 79.000 33.000 43.700 160.3700 0.165 0.000 ? 66.00 ? 3
$GPGSA,A,3,09,05,14,26,,,,,,,,,2.9,2.2,1.9*3C
GPSD,O=GSA 1122440357.000 0.005 35.331695000 136.671060000 79.000 33.000 43.700 160.3700 0.165 0.000 ? 66.00 ? 3
$GPRMC,045918.000,A,3519.9017,N,13640.2636,E,0.21,29.38,270705,,*36
GPSD,O=RMC 1122440358.000 0.005 35.331695000 136.671060000 ? 33.000 ? 29.3800 0.108 ? ? 66.00 ? 2
$GPGGA,045919.000,3519.9017,N,13640.2637,E,1,04,2.2,78.9,M,,,,0000*3C
GPSD,O=GGA 1122440359.000 0.005 35.331695000 136.671061667 78.900 33.000 43.700 ? ? 0.000 ? 66.00 ? 3
$GPGSA,A,3,09,05,14,26,,,,,,,,,2.9,2.2,1.9*3C
GPSD,O=GSA 1122440359.000 0.005 35.331695000 136.671061667 78.900 33.000 43.700 ? ? 0.000 ? 66.00 ? 3
$GPRMC,045919.000,A,3519.9017,N,13640.2637,E,0.37,18.86,270705,,*36
GPSD,O=RMC 1122440359.000 0.005 35.331695000 136.671061667 78.900 33.000 43.700 18.8600 0.190 0.000 ? 66.00 ? 3
$GPGGA,045920.000,3519.9017,N,13640.2637,E,1,04,2.2,78.8,M,,,,0000*37
GPSD,O=GGA 1122440360.000 0.005 35.331695000 136.671061667 78.800 33.000 43.700 ? ? 0.000 ? 66.00 ? 3
$GPRMC,045920.000,A,3519.9017,N,13640.2637,E,0.29,165.15,270705,,*02
GPSD,O=RMC 1122440360.000 0.005 35.331695000 136.671061667 78.800 33.000 43.700 165.1500 0.149 0.000 ? 66.00 ? 3
$GPGGA,045921.000,3519.9015,N,13640.2637,E,1,04,2.2,78.5,M,,,,0000*39
GPSD,O=GGA 1122440361.000 0.005 35.331691667 136.671061667 78.500 33.000 43.700 ? ? 0.000 ? 66.00 ? 3
$GPGSA,A,3,09,05,14,26,,,,,,,,,2.9,2.2,1.9*3C
GPSD,O=GSA 1122440361.000 0.005 35.331691667 136.671061667 78.500 33.000 43.700 ? ? 0.000 ? 66.00 ? 3
$GPRMC,045921.000,A,3519.9015,N,13640.2637,E,1.17,164.92,270705,,*03
GPSD,O=RMC 1122440361.000 0.005 35.331691667 136.671061667 78.500 33.000 43.700 164.9200 0.602 0.000 ? 66.00 ? 3
$GPGGA,045922.000,3519.9007,N,13640.2636,E,1,04,2.2,78.6,M,,,,0000*3B
GPSD,O=GGA 1122440362.000 0.005 35.331678333 136.671060000 78.600 33.000 43.700 ? ? 0.000 ? 66.00 ? 3
$GPGSA,A,3,09,05,14,26,,,,,,,,,2.9,2.2,1.9*3C
GPSD,O=GSA 1122440362.000 0.005 35.331678333 136.671060000 78.600 33.000 43.700 ? ? 0.000 ? 66.00 ? 3
$GPGSV,2,1,08,05,67,099,21,09,41,047,36,14,32,311,26,26,08,109,21*7B
$GPGSV,2,2,08,22,62,272,20,18,55,192,18,30,50,179,,15,09,229,*77
GPSD,Y=GSV 1122440362.000 8:5 67 99 21 1:9 41 47 36 1:14 32 311 26 1:26 8 109 21 1:22 62 272 20 0:18 55 192 18 0:30 50 179 0 0:15 9 229 0 0:
$GPRMC,045922.000,A,3519.9007,N,13640.2636,E,3.35,194.25,270705,,*03
GPSD,O=RMC 1122440362.000 0.005 35.331678333 136.671060000 78.600 33.000 43.700 194.2500 1.723 0.000 ? 66.00 ? 3
$GPGSA,A,2,,,,,,,,,,,,,50.0,50.0,50.0*06
$GPRMC,045923.000,A,3519.8998,N,13640.2633,E,3.35,194.25,270705,,*09
GPSD,O=RMC 1122440363.000 0.005 35.331663333 136.671055000 ? 750.000 ? 194.2500 1.723 ? ? 783.00 ? 2
