$GPTXT,01,01,02,u-blox ag - www.u-blox.com*50
$GPTXT,01,01,02,HW  UBX-G5xxx  00040005 *1B
$GPTXT,01,01,02,EXT CORE 5.00 (28483) Jun  6 2008 14:42:32*5F
$GPTXT,01,01,02,ROM BASE 4.00*12
$GPTXT,01,01,02,MOD LEA-5H-0*2E
$GPTXT,01,01,02,ANTSUPERV=AC SD PDoS SR*20
$GPTXT,01,01,02,ANTSTATUS=OK*3B
$GPRMC,104706.000,A,5405.6081,N,01049.4791,E,0.24,18.02,240709,,,A*53
GPSD,O=RMC 1248432426.000 0.005 54.093468333 10.824651667 ? ? ? 18.0200 0.123 ? ? ? ? 2$GPVTG,18.02,T,,M,0.24,N,0.4,K,A*34
$GPGGA,104706.000,5405.6081,N,01049.4791,E,1,08,1.1,40.8,M,43.6,M,,0000*61
GPSD,O=GGA 1248432426.000 0.005 54.093468333 10.824651667 40.800 ? ? 18.0200 0.123 0.000 ? ? ? 3$GPGSA,A,3,28,18,27,19,08,09,10,15,,,,,1.7,1.1,1.3*3C
GPSD,O=GSA 1248432426.000 0.005 54.093468333 10.824651667 40.800 16.500 29.900 18.0200 0.123 0.000 ? ? ? 3$GPGSV,3,1,12,08,30,075,25,09,20,262,32,10,16,194,27,15,74,263,46*77
$GPGSV,3,2,12,17,14,127,19,18,22,315,27,19,05,014,27,21,00,284,*7F
$GPGSV,3,3,12,22,00,337,19,26,03,304,,27,41,264,26,28,58,081,30*7C
GPSD,Y=GSV 1248432426.000 12:8 30 75 25 1:9 20 262 32 1:10 16 194 27 1:15 74 263 46 1:17 14 127 19 0:18 22 315 27 1:19 5 14 27 1:21 0 284 0 0:22 0 337 19 0:26 3 304 0 0:27 41 264 26 1:28 58 81 30 1:$GPGLL,5405.6081,N,01049.4791,E,104706.000,A,A*51
GPSD,O=GLL 1248432426.000 0.005 54.093468333 10.824651667 40.800 16.500 29.900 18.0200 0.123 0.000 ? ? ? 3$GPRMC,104707.000,A,5405.6083,N,01049.4822,E,0.50,19.27,240709,,,A*52
GPSD,O=RMC 1248432427.000 0.005 54.093471667 10.824703333 ? 16.500 ? 19.2700 0.257 ? ? 33.00 ? 2$GPVTG,19.27,T,,M,0.50,N,0.9,K,A*3C
$GPGGA,104707.000,5405.6083,N,01049.4822,E,1,08,1.0,40.6,M,43.6,M,,0000*6A
GPSD,O=GGA 1248432427.000 0.005 54.093471667 10.824703333 40.600 16.500 29.900 19.2700 0.257 0.000 ? 33.00 ? 3$GPGSA,A,3,28,18,27,19,08,09,10,15,,,,,1.6,1.0,1.3*3C
GPSD,O=GSA 1248432427.000 0.005 54.093471667 10.824703333 40.600 16.500 29.900 19.2700 0.257 0.000 ? 33.00 ? 3$GPGSV,3,1,12,08,30,075,22,09,20,262,31,10,16,194,27,15,74,263,46*73
$GPGSV,3,2,12,17,14,127,17,18,22,315,27,19,05,014,26,21,00,284,*70
$GPGSV,3,3,12,22,00,337,17,26,03,304,,27,41,264,27,28,58,081,30*73
GPSD,Y=GSV 1248432427.000 12:8 30 75 22 1:9 20 262 31 1:10 16 194 27 1:15 74 263 46 1:17 14 127 17 0:18 22 315 27 1:19 5 14 26 1:21 0 284 0 0:22 0 337 17 0:26 3 304 0 0:27 41 264 27 1:28 58 81 30 1:$GPGLL,5405.6083,N,01049.4822,E,104707.000,A,A*55
GPSD,O=GLL 1248432427.000 0.005 54.093471667 10.824703333 40.600 16.500 29.900 19.2700 0.257 0.000 ? 33.00 ? 3$GPRMC,104708.000,A,5405.6082,N,01049.4856,E,0.32,19.19,240709,,,A*56
GPSD,O=RMC 1248432428.000 0.005 54.093470000 10.824760000 ? 15.000 ? 19.1900 0.165 ? ? 31.50 ? 2$GPVTG,19.19,T,,M,0.32,N,0.6,K,A*3A
$GPGGA,104708.000,5405.6082,N,01049.4856,E,1,08,0.9,40.0,M,43.6,M,,0000*69
GPSD,O=GGA 1248432428.000 0.005 54.093470000 10.824760000 40.000 15.000 29.900 19.1900 0.165 0.000 ? 31.50 ? 3$GPGSA,A,3,28,18,27,19,08,09,10,15,,,,,1.6,0.9,1.3*34
GPSD,O=GSA 1248432428.000 0.005 54.093470000 10.824760000 40.000 15.000 29.900 19.1900 0.165 0.000 ? 31.50 ? 3$GPGSV,3,1,12,08,30,075,23,09,20,262,32,10,16,194,26,15,74,263,45*73
$GPGSV,3,2,12,17,14,127,15,18,22,315,26,19,05,014,26,21,00,284,*73
$GPGSV,3,3,12,22,00,337,15,26,03,304,,27,41,264,28,28,58,081,30*7E
GPSD,Y=GSV 1248432428.000 12:8 30 75 23 1:9 20 262 32 1:10 16 194 26 1:15 74 263 45 1:17 14 127 15 0:18 22 315 26 1:19 5 14 26 1:21 0 284 0 0:22 0 337 15 0:26 3 304 0 0:27 41 264 28 1:28 58 81 30 1:$GPGLL,5405.6082,N,01049.4856,E,104708.000,A,A*58
GPSD,O=GLL 1248432428.000 0.005 54.093470000 10.824760000 40.000 15.000 29.900 19.1900 0.165 0.000 ? 31.50 ? 3$GPRMC,104709.000,A,5405.6083,N,01049.4868,E,0.37,21.29,240709,,,A*56
GPSD,O=RMC 1248432429.000 0.005 54.093471667 10.824780000 ? 13.500 ? 21.2900 0.190 ? ? 28.50 ? 2$GPVTG,21.29,T,,M,0.37,N,0.7,K,A*36
$GPGGA,104709.000,5405.6083,N,01049.4868,E,1,08,0.9,40.6,M,43.6,M,,0000*62
GPSD,O=GGA 1248432429.000 0.005 54.093471667 10.824780000 40.600 13.500 29.900 21.2900 0.190 0.000 ? 28.50 ? 3$GPGSA,A,3,28,18,27,19,08,09,10,15,,,,,1.6,0.9,1.3*34
GPSD,O=GSA 1248432429.000 0.005 54.093471667 10.824780000 40.600 13.500 29.900 21.2900 0.190 0.000 ? 28.50 ? 3$GPGSV,3,1,12,08,30,075,24,09,20,262,31,10,16,194,25,15,74,263,44*75
$GPGSV,3,2,12,17,14,127,14,18,22,315,25,19,05,014,26,21,00,284,*71
$GPGSV,3,3,12,22,00,337,16,26,03,304,,27,41,264,26,28,58,081,29*7B
GPSD,Y=GSV 1248432429.000 12:8 30 75 24 1:9 20 262 31 1:10 16 194 25 1:15 74 263 44 1:17 14 127 14 0:18 22 315 25 1:19 5 14 26 1:21 0 284 0 0:22 0 337 16 0:26 3 304 0 0:27 41 264 26 1:28 58 81 29 1:$GPGLL,5405.6083,N,01049.4868,E,104709.000,A,A*55
GPSD,O=GLL 1248432429.000 0.005 54.093471667 10.824780000 40.600 13.500 29.900 21.2900 0.190 0.000 ? 28.50 ? 3$GPRMC,104710.000,A,5405.6081,N,01049.4876,E,0.94,27.15,240709,,,A*53
GPSD,O=RMC 1248432430.000 0.005 54.093468333 10.824793333 ? 13.500 ? 27.1500 0.484 ? ? 27.00 ? 2$GPVTG,27.15,T,,M,0.94,N,1.8,K,A*38
$GPGGA,104710.000,5405.6081,N,01049.4876,E,1,08,0.9,40.4,M,43.6,M,,0000*65
GPSD,O=GGA 1248432430.000 0.005 54.093468333 10.824793333 40.400 13.500 29.900 27.1500 0.484 0.000 ? 27.00 ? 3$GPGSA,A,3,28,18,27,19,08,09,10,15,,,,,1.6,0.9,1.3*34
GPSD,O=GSA 1248432430.000 0.005 54.093468333 10.824793333 40.400 13.500 29.900 27.1500 0.484 0.000 ? 27.00 ? 3$GPGSV,3,1,12,08,30,075,24,09,20,262,30,10,16,194,25,15,74,263,44*74
$GPGSV,3,2,12,17,14,127,14,18,22,315,24,19,05,014,26,21,00,284,*70
$GPGSV,3,3,12,22,00,337,16,26,03,304,,27,41,264,25,28,58,081,30*70
GPSD,Y=GSV 1248432430.000 12:8 30 75 24 1:9 20 262 30 1:10 16 194 25 1:15 74 263 44 1:17 14 127 14 0:18 22 315 24 1:19 5 14 26 1:21 0 284 0 0:22 0 337 16 0:26 3 304 0 0:27 41 264 25 1:28 58 81 30 1:$GPGLL,5405.6081,N,01049.4876,E,104710.000,A,A*50
GPSD,O=GLL 1248432430.000 0.005 54.093468333 10.824793333 40.400 13.500 29.900 27.1500 0.484 0.000 ? 27.00 ? 3$GPRMC,104711.000,A,5405.6083,N,01049.4879,E,0.63,28.37,240709,,,A*58
GPSD,O=RMC 1248432431.000 0.005 54.093471667 10.824798333 ? 13.500 ? 28.3700 0.324 ? ? 27.00 ? 2$GPVTG,28.37,T,,M,0.63,N,1.2,K,A*35
$GPGGA,104711.000,5405.6083,N,01049.4879,E,1,08,1.0,39.8,M,43.6,M,,0000*63
GPSD,O=GGA 1248432431.000 0.005 54.093471667 10.824798333 39.800 13.500 29.900 28.3700 0.324 0.000 ? 27.00 ? 3$GPGSA,A,3,28,18,27,19,08,09,10,15,,,,,1.6,1.0,1.3*3C
GPSD,O=GSA 1248432431.000 0.005 54.093471667 10.824798333 39.800 13.500 29.900 28.3700 0.324 0.000 ? 27.00 ? 3$GPGSV,3,1,12,08,30,075,24,09,20,262,30,10,16,194,24,15,74,263,44*75
$GPGSV,3,2,12,17,14,127,,18,22,315,22,19,05,014,26,21,00,284,*73
$GPGSV,3,3,12,22,00,337,,26,03,304,,27,41,264,28,28,58,081,30*7A
GPSD,Y=GSV 1248432431.000 12:8 30 75 24 1:9 20 262 30 1:10 16 194 24 1:15 74 263 44 1:17 14 127 0 0:18 22 315 22 1:19 5 14 26 1:21 0 284 0 0:22 0 337 0 0:26 3 304 0 0:27 41 264 28 1:28 58 81 30 1:$GPGLL,5405.6083,N,01049.4879,E,104711.000,A,A*5C
GPSD,O=GLL 1248432431.000 0.005 54.093471667 10.824798333 39.800 13.500 29.900 28.3700 0.324 0.000 ? 27.00 ? 3$GPRMC,104712.000,A,5405.6086,N,01049.4879,E,1.23,24.74,240709,,,A*50
GPSD,O=RMC 1248432432.000 0.005 54.093476667 10.824798333 ? 15.000 ? 24.7400 0.633 ? ? 28.50 ? 2$GPVTG,24.74,T,,M,1.23,N,2.3,K,A*39
$GPGGA,104712.000,5405.6086,N,01049.4879,E,1,08,1.0,39.2,M,43.6,M,,0000*6F
GPSD,O=GGA 1248432432.000 0.005 54.093476667 10.824798333 39.200 15.000 29.900 24.7400 0.633 0.000 ? 28.50 ? 3$GPGSA,A,3,28,18,27,19,08,09,10,15,,,,,1.6,1.0,1.3*3C
GPSD,O=GSA 1248432432.000 0.005 54.093476667 10.824798333 39.200 15.000 29.900 24.7400 0.633 0.000 ? 28.50 ? 3$GPGSV,3,1,12,08,30,075,23,09,20,262,29,10,16,194,22,15,74,263,42*7A
$GPGSV,3,2,12,17,14,127,,18,22,315,18,19,05,014,26,21,00,284,*7A
$GPGSV,3,3,12,22,00,337,,26,03,304,,27,41,264,29,28,58,081,29*73
GPSD,Y=GSV 1248432432.000 12:8 30 75 23 1:9 20 262 29 1:10 16 194 22 1:15 74 263 42 1:17 14 127 0 0:18 22 315 18 1:19 5 14 26 1:21 0 284 0 0:22 0 337 0 0:26 3 304 0 0:27 41 264 29 1:28 58 81 29 1:$GPGLL,5405.6086,N,01049.4879,E,104712.000,A,A*5A
GPSD,O=GLL 1248432432.000 0.005 54.093476667 10.824798333 39.200 15.000 29.900 24.7400 0.633 0.000 ? 28.50 ? 3$GPRMC,104713.000,A,5405.6087,N,01049.4885,E,0.19,24.74,240709,,,A*5B
GPSD,O=RMC 1248432433.000 0.005 54.093478333 10.824808333 ? 15.000 ? 24.7400 0.098 ? ? 30.00 ? 2$GPVTG,24.74,T,,M,0.19,N,0.4,K,A*34
$GPGGA,104713.000,5405.6087,N,01049.4885,E,1,08,1.0,39.0,M,43.6,M,,0000*6E
GPSD,O=GGA 1248432433.000 0.005 54.093478333 10.824808333 39.000 15.000 29.900 24.7400 0.098 0.000 ? 30.00 ? 3$GPGSA,A,3,28,18,27,19,08,09,10,15,,,,,1.6,1.0,1.3*3C
GPSD,O=GSA 1248432433.000 0.005 54.093478333 10.824808333 39.000 15.000 29.900 24.7400 0.098 0.000 ? 30.00 ? 3$GPGSV,3,1,12,08,30,075,25,09,20,262,29,10,16,194,23,15,74,263,43*7C
$GPGSV,3,2,12,17,14,127,,18,22,315,19,19,05,014,27,21,00,284,*7A
$GPGSV,3,3,12,22,00,337,,26,03,304,,27,41,264,31,28,58,081,29*7A
GPSD,Y=GSV 1248432433.000 12:8 30 75 25 1:9 20 262 29 1:10 16 194 23 1:15 74 263 43 1:17 14 127 0 0:18 22 315 19 1:19 5 14 27 1:21 0 284 0 0:22 0 337 0 0:26 3 304 0 0:27 41 264 31 1:28 58 81 29 1:$GPGLL,5405.6087,N,01049.4885,E,104713.000,A,A*59
GPSD,O=GLL 1248432433.000 0.005 54.093478333 10.824808333 39.000 15.000 29.900 24.7400 0.098 0.000 ? 30.00 ? 3$GPRMC,104714.000,A,5405.6087,N,01049.4885,E,0.25,14.12,240709,,,A*50
GPSD,O=RMC 1248432434.000 0.005 54.093478333 10.824808333 ? 15.000 ? 14.1200 0.129 ? ? 30.00 ? 2$GPVTG,14.12,T,,M,0.25,N,0.5,K,A*39
$GPGGA,104714.000,5405.6087,N,01049.4885,E,1,08,1.0,38.8,M,43.6,M,,0000*60
GPSD,O=GGA 1248432434.000 0.005 54.093478333 10.824808333 38.800 15.000 29.900 14.1200 0.129 0.000 ? 30.00 ? 3$GPGSA,A,3,28,18,27,19,08,09,10,15,,,,,1.6,1.0,1.3*3C
GPSD,O=GSA 1248432434.000 0.005 54.093478333 10.824808333 38.800 15.000 29.900 14.1200 0.129 0.000 ? 30.00 ? 3$GPGSV,3,1,12,08,30,075,25,09,20,262,31,10,16,194,23,15,74,263,44*72
$GPGSV,3,2,12,17,14,127,,18,22,315,20,19,05,014,27,21,00,284,*70
$GPGSV,3,3,12,22,00,337,,26,03,304,19,27,41,264,31,28,58,081,29*72
GPSD,Y=GSV 1248432434.000 12:8 30 75 25 1:9 20 262 31 1:10 16 194 23 1:15 74 263 44 1:17 14 127 0 0:18 22 315 20 1:19 5 14 27 1:21 0 284 0 0:22 0 337 0 0:26 3 304 19 0:27 41 264 31 1:28 58 81 29 1:$GPGLL,5405.6087,N,01049.4885,E,104714.000,A,A*5E
GPSD,O=GLL 1248432434.000 0.005 54.093478333 10.824808333 38.800 15.000 29.900 14.1200 0.129 0.000 ? 30.00 ? 3$GPRMC,104715.000,A,5405.6087,N,01049.4890,E,1.07,20.69,240709,,,A*5F
GPSD,O=RMC 1248432435.000 0.005 54.093478333 10.824816667 ? 15.000 ? 20.6900 0.550 ? ? 30.00 ? 2$GPVTG,20.69,T,,M,1.07,N,2.0,K,A*34
$GPGGA,104715.000,5405.6087,N,01049.4890,E,1,08,1.0,38.3,M,43.6,M,,0000*6E
GPSD,O=GGA 1248432435.000 0.005 54.093478333 10.824816667 38.300 15.000 29.900 20.6900 0.550 0.000 ? 30.00 ? 3$GPGSA,A,3,28,18,27,19,08,09,10,15,,,,,1.6,1.0,1.3*3C
GPSD,O=GSA 1248432435.000 0.005 54.093478333 10.824816667 38.300 15.000 29.900 20.6900 0.550 0.000 ? 30.00 ? 3$GPGSV,3,1,12,08,30,075,23,09,20,262,31,10,16,194,24,15,74,263,44*73
$GPGSV,3,2,12,17,14,127,,18,22,315,21,19,05,014,28,21,00,284,*7E
$GPGSV,3,3,12,22,00,337,,26,03,304,19,27,41,264,30,28,58,081,29*73
GPSD,Y=GSV 1248432435.000 12:8 30 75 23 1:9 20 262 31 1:10 16 194 24 1:15 74 263 44 1:17 14 127 0 0:18 22 315 21 1:19 5 14 28 1:21 0 284 0 0:22 0 337 0 0:26 3 304 19 0:27 41 264 30 1:28 58 81 29 1:$GPGLL,5405.6087,N,01049.4890,E,104715.000,A,A*5B
GPSD,O=GLL 1248432435.000 0.005 54.093478333 10.824816667 38.300 15.000 29.900 20.6900 0.550 0.000 ? 30.00 ? 3$GPRMC,104716.000,A,5405.6088,N,01049.4891,E,0.41,23.09,240709,,,A*54
GPSD,O=RMC 1248432436.000 0.005 54.093480000 10.824818333 ? 15.000 ? 23.0900 0.211 ? ? 30.00 ? 2$GPVTG,23.09,T,,M,0.41,N,0.8,K,A*38
$GPGGA,104716.000,5405.6088,N,01049.4891,E,1,08,1.0,38.0,M,43.6,M,,0000*60
GPSD,O=GGA 1248432436.000 0.005 54.093480000 10.824818333 38.000 15.000 29.900 23.0900 0.211 0.000 ? 30.00 ? 3$GPGSA,A,3,28,18,27,19,08,09,10,15,,,,,1.6,1.0,1.3*3C
GPSD,O=GSA 1248432436.000 0.005 54.093480000 10.824818333 38.000 15.000 29.900 23.0900 0.211 0.000 ? 30.00 ? 3$GPGSV,3,1,12,08,30,075,22,09,20,262,30,10,16,194,23,15,74,263,44*74
$GPGSV,3,2,12,17,14,127,,18,22,315,21,19,05,014,27,21,00,284,*71
$GPGSV,3,3,12,22,00,337,,26,03,304,18,27,41,264,30,28,58,081,29*72
GPSD,Y=GSV 1248432436.000 12:8 30 75 22 1:9 20 262 30 1:10 16 194 23 1:15 74 263 44 1:17 14 127 0 0:18 22 315 21 1:19 5 14 27 1:21 0 284 0 0:22 0 337 0 0:26 3 304 18 0:27 41 264 30 1:28 58 81 29 1:$GPGLL,5405.6088,N,01049.4891,E,104716.000,A,A*56
GPSD,O=GLL 1248432436.000 0.005 54.093480000 10.824818333 38.000 15.000 29.900 23.0900 0.211 0.000 ? 30.00 ? 3$GPRMC,104717.000,A,5405.6087,N,01049.4896,E,0.53,27.07,240709,,,A*54
GPSD,O=RMC 1248432437.000 0.005 54.093478333 10.824826667 ? 15.000 ? 27.0700 0.273 ? ? 30.00 ? 2$GPVTG,27.07,T,,M,0.53,N,1.0,K,A*38
$GPGGA,104717.000,5405.6087,N,01049.4896,E,1,08,1.0,37.6,M,43.6,M,,0000*60
GPSD,O=GGA 1248432437.000 0.005 54.093478333 10.824826667 37.600 15.000 29.900 27.0700 0.273 0.000 ? 30.00 ? 3$GPGSA,A,3,28,18,27,19,08,09,10,15,,,,,1.6,1.0,1.3*3C
GPSD,O=GSA 1248432437.000 0.005 54.093478333 10.824826667 37.600 15.000 29.900 27.0700 0.273 0.000 ? 30.00 ? 3$GPGSV,3,1,12,08,30,075,22,09,20,262,31,10,16,194,24,15,74,263,44*72
$GPGSV,3,2,12,17,14,127,,18,22,315,20,19,05,014,27,21,00,284,*70
$GPGSV,3,3,12,22,00,337,,26,03,304,18,27,41,264,30,28,58,081,28*73
GPSD,Y=GSV 1248432437.000 12:8 30 75 22 1:9 20 262 31 1:10 16 194 24 1:15 74 263 44 1:17 14 127 0 0:18 22 315 20 1:19 5 14 27 1:21 0 284 0 0:22 0 337 0 0:26 3 304 18 0:27 41 264 30 1:28 58 81 28 1:$GPGLL,5405.6087,N,01049.4896,E,104717.000,A,A*5F
GPSD,O=GLL 1248432437.000 0.005 54.093478333 10.824826667 37.600 15.000 29.900 27.0700 0.273 0.000 ? 30.00 ? 3$GPRMC,104718.000,A,5405.6084,N,01049.4902,E,0.55,32.66,240709,,,A*51
GPSD,O=RMC 1248432438.000 0.005 54.093473333 10.824836667 ? 15.000 ? 32.6600 0.283 ? ? 30.00 ? 2$GPVTG,32.66,T,,M,0.55,N,1.0,K,A*3D
$GPGGA,104718.000,5405.6084,N,01049.4902,E,1,08,0.9,37.1,M,43.6,M,,0000*6F
GPSD,O=GGA 1248432438.000 0.005 54.093473333 10.824836667 37.100 15.000 29.900 32.6600 0.283 0.000 ? 30.00 ? 3$GPGSA,A,3,28,18,27,19,08,09,10,15,,,,,1.6,0.9,1.3*34
GPSD,O=GSA 1248432438.000 0.005 54.093473333 10.824836667 37.100 15.000 29.900 32.6600 0.283 0.000 ? 30.00 ? 3$GPGSV,3,1,12,08,30,075,21,09,20,262,31,10,16,194,25,15,74,263,44*70
$GPGSV,3,2,12,17,14,127,,18,22,315,20,19,05,014,27,21,00,284,*70
$GPGSV,3,3,12,22,00,337,,26,03,304,16,27,41,264,29,28,58,081,27*7A
GPSD,Y=GSV 1248432438.000 12:8 30 75 21 1:9 20 262 31 1:10 16 194 25 1:15 74 263 44 1:17 14 127 0 0:18 22 315 20 1:19 5 14 27 1:21 0 284 0 0:22 0 337 0 0:26 3 304 16 0:27 41 264 29 1:28 58 81 27 1:$GPGLL,5405.6084,N,01049.4902,E,104718.000,A,A*5F
GPSD,O=GLL 1248432438.000 0.005 54.093473333 10.824836667 37.100 15.000 29.900 32.6600 0.283 0.000 ? 30.00 ? 3$GPRMC,104719.000,A,5405.6085,N,01049.4903,E,1.08,28.79,240709,,,A*5C
GPSD,O=RMC 1248432439.000 0.005 54.093475000 10.824838333 ? 13.500 ? 28.7900 0.556 ? ? 28.50 ? 2$GPVTG,28.79,T,,M,1.08,N,2.0,K,A*32
$GPGGA,104719.000,5405.6085,N,01049.4903,E,1,08,0.9,36.8,M,43.6,M,,0000*66
GPSD,O=GGA 1248432439.000 0.005 54.093475000 10.824838333 36.800 13.500 29.900 28.7900 0.556 0.000 ? 28.50 ? 3$GPGSA,A,3,28,18,27,19,08,09,10,15,,,,,1.6,0.9,1.3*34
GPSD,O=GSA 1248432439.000 0.005 54.093475000 10.824838333 36.800 13.500 29.900 28.7900 0.556 0.000 ? 28.50 ? 3$GPGSV,3,1,12,08,30,075,22,09,20,262,31,10,16,194,25,15,74,263,44*73
$GPGSV,3,2,12,17,14,127,,18,22,315,19,19,05,014,26,21,00,284,*7B
$GPGSV,3,3,12,22,00,337,,26,03,304,14,27,41,264,29,28,58,081,26*79
GPSD,Y=GSV 1248432439.000 12:8 30 75 22 1:9 20 262 31 1:10 16 194 25 1:15 74 263 44 1:17 14 127 0 0:18 22 315 19 1:19 5 14 26 1:21 0 284 0 0:22 0 337 0 0:26 3 304 14 0:27 41 264 29 1:28 58 81 26 1:$GPGLL,5405.6085,N,01049.4903,E,104719.000,A,A*5E
GPSD,O=GLL 1248432439.000 0.005 54.093475000 10.824838333 36.800 13.500 29.900 28.7900 0.556 0.000 ? 28.50 ? 3$GPRMC,104720.000,A,5405.6083,N,01049.4905,E,0.31,19.40,240709,,,A*55
GPSD,O=RMC 1248432440.000 0.005 54.093471667 10.824841667 ? 13.500 ? 19.4000 0.159 ? ? 27.00 ? 2$GPVTG,19.40,T,,M,0.31,N,0.6,K,A*35
$GPGGA,104720.000,5405.6083,N,01049.4905,E,1,08,0.9,36.5,M,43.6,M,,0000*61
GPSD,O=GGA 1248432440.000 0.005 54.093471667 10.824841667 36.500 13.500 29.900 19.4000 0.159 0.000 ? 27.00 ? 3$GPGSA,A,3,28,18,27,19,08,09,10,15,,,,,1.6,0.9,1.3*34
GPSD,O=GSA 1248432440.000 0.005 54.093471667 10.824841667 36.500 13.500 29.900 19.4000 0.159 0.000 ? 27.00 ? 3$GPGSV,3,1,12,08,30,075,22,09,20,262,31,10,16,194,25,15,74,263,44*73
$GPGSV,3,2,12,17,14,127,,18,22,315,21,19,05,014,26,21,00,284,*70
$GPGSV,3,3,12,22,00,337,,26,03,304,12,27,41,264,28,28,58,081,27*7F
GPSD,Y=GSV 1248432440.000 12:8 30 75 22 1:9 20 262 31 1:10 16 194 25 1:15 74 263 44 1:17 14 127 0 0:18 22 315 21 1:19 5 14 26 1:21 0 284 0 0:22 0 337 0 0:26 3 304 12 0:27 41 264 28 1:28 58 81 27 1:$GPGLL,5405.6083,N,01049.4905,E,104720.000,A,A*54
GPSD,O=GLL 1248432440.000 0.005 54.093471667 10.824841667 36.500 13.500 29.900 19.4000 0.159 0.000 ? 27.00 ? 3$GPRMC,104721.000,A,5405.6081,N,01049.4905,E,0.82,9.27,240709,,,A*6E
GPSD,O=RMC 1248432441.000 0.005 54.093468333 10.824841667 ? 13.500 ? 9.2700 0.422 ? ? 27.00 ? 2$GPVTG,9.27,T,,M,0.82,N,1.5,K,A*0F
$GPGGA,104721.000,5405.6081,N,01049.4905,E,1,08,0.9,36.4,M,43.6,M,,0000*63
GPSD,O=GGA 1248432441.000 0.005 54.093468333 10.824841667 36.400 13.500 29.900 9.2700 0.422 0.000 ? 27.00 ? 3$GPGSA,A,3,28,18,27,19,08,09,10,15,,,,,1.6,0.9,1.3*34
GPSD,O=GSA 1248432441.000 0.005 54.093468333 10.824841667 36.400 13.500 29.900 9.2700 0.422 0.000 ? 27.00 ? 3$GPGSV,3,1,12,08,30,075,23,09,20,262,33,10,16,194,25,15,74,263,46*72
$GPGSV,3,2,12,17,14,127,,18,22,315,21,19,05,014,26,21,00,284,*70
$GPGSV,3,3,12,22,00,337,,26,03,304,12,27,41,264,28,28,58,081,27*7F
GPSD,Y=GSV 1248432441.000 12:8 30 75 23 1:9 20 262 33 1:10 16 194 25 1:15 74 263 46 1:17 14 127 0 0:18 22 315 21 1:19 5 14 26 1:21 0 284 0 0:22 0 337 0 0:26 3 304 12 0:27 41 264 28 1:28 58 81 27 1:$GPGLL,5405.6081,N,01049.4905,E,104721.000,A,A*57
GPSD,O=GLL 1248432441.000 0.005 54.093468333 10.824841667 36.400 13.500 29.900 9.2700 0.422 0.000 ? 27.00 ? 3$GPRMC,104722.000,A,5405.6080,N,01049.4910,E,1.06,14.12,240709,,,A*5F
GPSD,O=RMC 1248432442.000 0.005 54.093466667 10.824850000 ? 13.500 ? 14.1200 0.545 ? ? 27.00 ? 2$GPVTG,14.12,T,,M,1.06,N,2.0,K,A*3E
$GPGGA,104722.000,5405.6080,N,01049.4910,E,1,08,0.9,36.4,M,43.6,M,,0000*65
GPSD,O=GGA 1248432442.000 0.005 54.093466667 10.824850000 36.400 13.500 29.900 14.1200 0.545 0.000 ? 27.00 ? 3$GPGSA,A,3,28,18,27,19,08,09,10,15,,,,,1.6,0.9,1.3*34
GPSD,O=GSA 1248432442.000 0.005 54.093466667 10.824850000 36.400 13.500 29.900 14.1200 0.545 0.000 ? 27.00 ? 3$GPGSV,3,1,12,08,30,075,21,09,20,262,33,10,16,194,24,15,74,263,45*72
$GPGSV,3,2,12,17,14,127,,18,22,315,22,19,05,014,26,21,00,284,*73
$GPGSV,3,3,12,22,00,337,,26,03,304,11,27,41,264,28,28,58,081,26*7D
GPSD,Y=GSV 1248432442.000 12:8 30 75 21 1:9 20 262 33 1:10 16 194 24 1:15 74 263 45 1:17 14 127 0 0:18 22 315 22 1:19 5 14 26 1:21 0 284 0 0:22 0 337 0 0:26 3 304 11 0:27 41 264 28 1:28 58 81 26 1:$GPGLL,5405.6080,N,01049.4910,E,104722.000,A,A*51
GPSD,O=GLL 1248432442.000 0.005 54.093466667 10.824850000 36.400 13.500 29.900 14.1200 0.545 0.000 ? 27.00 ? 3$GPRMC,104723.000,A,5405.6079,N,01049.4913,E,0.23,18.77,240709,,,A*52
GPSD,O=RMC 1248432443.000 0.005 54.093465000 10.824855000 ? 13.500 ? 18.7700 0.118 ? ? 27.00 ? 2$GPVTG,18.77,T,,M,0.23,N,0.4,K,A*31
$GPGGA,104723.000,5405.6079,N,01049.4913,E,1,08,0.9,36.2,M,43.6,M,,0000*67
GPSD,O=GGA 1248432443.000 0.005 54.093465000 10.824855000 36.200 13.500 29.900 18.7700 0.118 0.000 ? 27.00 ? 3$GPGSA,A,3,28,18,27,19,08,09,10,15,,,,,1.6,0.9,1.3*34
GPSD,O=GSA 1248432443.000 0.005 54.093465000 10.824855000 36.200 13.500 29.900 18.7700 0.118 0.000 ? 27.00 ? 3$GPGSV,3,1,12,08,30,075,22,09,20,262,32,10,16,194,25,15,74,263,43*77
$GPGSV,3,2,12,17,14,127,,18,22,315,23,19,05,014,26,21,00,284,*72
$GPGSV,3,3,12,22,00,337,,26,03,304,09,27,41,264,28,28,58,081,26*74
GPSD,Y=GSV 1248432443.000 12:8 30 75 22 1:9 20 262 32 1:10 16 194 25 1:15 74 263 43 1:17 14 127 0 0:18 22 315 23 1:19 5 14 26 1:21 0 284 0 0:22 0 337 0 0:26 3 304 9 0:27 41 264 28 1:28 58 81 26 1:$GPGLL,5405.6079,N,01049.4913,E,104723.000,A,A*55
GPSD,O=GLL 1248432443.000 0.005 54.093465000 10.824855000 36.200 13.500 29.900 18.7700 0.118 0.000 ? 27.00 ? 3$GPRMC,104724.000,A,5405.6076,N,01049.4916,E,0.43,25.48,240709,,,A*5B
GPSD,O=RMC 1248432444.000 0.005 54.093460000 10.824860000 ? 13.500 ? 25.4800 0.221 ? ? 27.00 ? 2$GPVTG,25.48,T,,M,0.43,N,0.8,K,A*39
$GPGGA,104724.000,5405.6076,N,01049.4916,E,1,08,0.9,35.9,M,43.6,M,,0000*62
GPSD,O=GGA 1248432444.000 0.005 54.093460000 10.824860000 35.900 13.500 29.900 25.4800 0.221 0.000 ? 27.00 ? 3$GPGSA,A,3,28,18,27,19,08,09,10,15,,,,,1.6,0.9,1.3*34
GPSD,O=GSA 1248432444.000 0.005 54.093460000 10.824860000 35.900 13.500 29.900 25.4800 0.221 0.000 ? 27.00 ? 3$GPGSV,3,1,12,08,30,075,23,09,20,262,32,10,16,194,26,15,74,263,44*72
$GPGSV,3,2,12,17,14,127,,18,22,315,24,19,05,014,26,21,00,284,*75
$GPGSV,3,3,12,22,00,337,,26,03,304,11,27,41,264,27,28,58,081,26*72
GPSD,Y=GSV 1248432444.000 12:8 30 75 23 1:9 20 262 32 1:10 16 194 26 1:15 74 263 44 1:17 14 127 0 0:18 22 315 24 1:19 5 14 26 1:21 0 284 0 0:22 0 337 0 0:26 3 304 11 0:27 41 264 27 1:28 58 81 26 1:$GPGLL,5405.6076,N,01049.4916,E,104724.000,A,A*58
GPSD,O=GLL 1248432444.000 0.005 54.093460000 10.824860000 35.900 13.500 29.900 25.4800 0.221 0.000 ? 27.00 ? 3$GPRMC,104725.000,A,5405.6076,N,01049.4917,E,0.31,24.01,240709,,,A*52
GPSD,O=RMC 1248432445.000 0.005 54.093460000 10.824861667 ? 13.500 ? 24.0100 0.159 ? ? 27.00 ? 2$GPVTG,24.01,T,,M,0.31,N,0.6,K,A*3E
$GPGGA,104725.000,5405.6076,N,01049.4917,E,1,08,0.9,35.6,M,43.6,M,,0000*6D
GPSD,O=GGA 1248432445.000 0.005 54.093460000 10.824861667 35.600 13.500 29.900 24.0100 0.159 0.000 ? 27.00 ? 3$GPGSA,A,3,28,18,27,19,08,09,10,15,,,,,1.6,0.9,1.3*34
GPSD,O=GSA 1248432445.000 0.005 54.093460000 10.824861667 35.600 13.500 29.900 24.0100 0.159 0.000 ? 27.00 ? 3$GPGSV,3,1,12,08,30,075,24,09,20,262,31,10,16,194,25,15,74,263,44*75
$GPGSV,3,2,12,17,14,127,,18,22,315,22,19,05,014,27,21,00,284,*72
$GPGSV,3,3,12,22,00,337,,26,03,304,09,27,41,264,25,28,58,081,25*7A
GPSD,Y=GSV 1248432445.000 12:8 30 75 24 1:9 20 262 31 1:10 16 194 25 1:15 74 263 44 1:17 14 127 0 0:18 22 315 22 1:19 5 14 27 1:21 0 284 0 0:22 0 337 0 0:26 3 304 9 0:27 41 264 25 1:28 58 81 25 1:$GPGLL,5405.6076,N,01049.4917,E,104725.000,A,A*58
GPSD,O=GLL 1248432445.000 0.005 54.093460000 10.824861667 35.600 13.500 29.900 24.0100 0.159 0.000 ? 27.00 ? 3$GPRMC,104726.000,A,5405.6076,N,01049.4918,E,0.42,31.83,240709,,,A*54
GPSD,O=RMC 1248432446.000 0.005 54.093460000 10.824863333 ? 13.500 ? 31.8300 0.216 ? ? 27.00 ? 2$GPVTG,31.83,T,,M,0.42,N,0.8,K,A*3A
$GPGGA,104726.000,5405.6076,N,01049.4918,E,1,08,0.9,35.3,M,43.6,M,,0000*64
GPSD,O=GGA 1248432446.000 0.005 54.093460000 10.824863333 35.300 13.500 29.900 31.8300 0.216 0.000 ? 27.00 ? 3$GPGSA,A,3,28,18,27,19,08,09,10,15,,,,,1.6,0.9,1.3*34
GPSD,O=GSA 1248432446.000 0.005 54.093460000 10.824863333 35.300 13.500 29.900 31.8300 0.216 0.000 ? 27.00 ? 3$GPGSV,3,1,12,08,30,075,22,09,20,262,32,10,16,194,24,15,74,263,44*71
$GPGSV,3,2,12,17,14,127,,18,22,315,21,19,05,014,27,21,00,284,*71
$GPGSV,3,3,12,22,00,337,,26,03,304,08,27,41,264,23,28,58,081,24*7C
GPSD,Y=GSV 1248432446.000 12:8 30 75 22 1:9 20 262 32 1:10 16 194 24 1:15 74 263 44 1:17 14 127 0 0:18 22 315 21 1:19 5 14 27 1:21 0 284 0 0:22 0 337 0 0:26 3 304 8 0:27 41 264 23 1:28 58 81 24 1:$GPGLL,5405.6076,N,01049.4918,E,104726.000,A,A*54
GPSD,O=GLL 1248432446.000 0.005 54.093460000 10.824863333 35.300 13.500 29.900 31.8300 0.216 0.000 ? 27.00 ? 3$GPRMC,104727.000,A,5405.6077,N,01049.4916,E,0.80,28.30,240709,,,A*54
GPSD,O=RMC 1248432447.000 0.005 54.093461667 10.824860000 ? 13.500 ? 28.3000 0.412 ? ? 27.00 ? 2$GPVTG,28.30,T,,M,0.80,N,1.5,K,A*38
$GPGGA,104727.000,5405.6077,N,01049.4916,E,1,08,0.9,35.1,M,43.6,M,,0000*68
GPSD,O=GGA 1248432447.000 0.005 54.093461667 10.824860000 35.100 13.500 29.900 28.3000 0.412 0.000 ? 27.00 ? 3$GPGSA,A,3,28,18,27,19,08,09,10,15,,,,,1.6,0.9,1.3*34
GPSD,O=GSA 1248432447.000 0.005 54.093461667 10.824860000 35.100 13.500 29.900 28.3000 0.412 0.000 ? 27.00 ? 3$GPGSV,3,1,12,08,30,075,21,09,20,262,32,10,16,194,24,15,74,263,44*72
$GPGSV,3,2,12,17,14,127,,18,22,315,21,19,05,014,26,21,00,284,*70
$GPGSV,3,3,12,22,00,337,,26,03,304,08,27,41,264,24,28,58,081,24*7B
GPSD,Y=GSV 1248432447.000 12:8 30 75 21 1:9 20 262 32 1:10 16 194 24 1:15 74 263 44 1:17 14 127 0 0:18 22 315 21 1:19 5 14 26 1:21 0 284 0 0:22 0 337 0 0:26 3 304 8 0:27 41 264 24 1:28 58 81 24 1:$GPGLL,5405.6077,N,01049.4916,E,104727.000,A,A*5A
GPSD,O=GLL 1248432447.000 0.005 54.093461667 10.824860000 35.100 13.500 29.900 28.3000 0.412 0.000 ? 27.00 ? 3$GPRMC,104728.000,A,5405.6078,N,01049.4918,E,0.56,28.66,240709,,,A*52
GPSD,O=RMC 1248432448.000 0.005 54.093463333 10.824863333 ? 13.500 ? 28.6600 0.288 ? ? 27.00 ? 2$GPVTG,28.66,T,,M,0.56,N,1.0,K,A*35
$GPGGA,104728.000,5405.6078,N,01049.4918,E,1,08,0.9,34.9,M,43.6,M,,0000*6F
GPSD,O=GGA 1248432448.000 0.005 54.093463333 10.824863333 34.900 13.500 29.900 28.6600 0.288 0.000 ? 27.00 ? 3$GPGSA,A,3,28,18,27,19,08,09,10,15,,,,,1.6,0.9,1.3*34
GPSD,O=GSA 1248432448.000 0.005 54.093463333 10.824863333 34.900 13.500 29.900 28.6600 0.288 0.000 ? 27.00 ? 3$GPGSV,3,1,12,08,30,075,22,09,20,262,32,10,16,194,25,15,74,263,44*70
$GPGSV,3,2,12,17,14,127,,18,22,315,21,19,05,014,27,21,00,284,*71
$GPGSV,3,3,12,22,00,337,,26,03,304,09,27,41,265,24,28,58,081,22*7D
GPSD,Y=GSV 1248432448.000 12:8 30 75 22 1:9 20 262 32 1:10 16 194 25 1:15 74 263 44 1:17 14 127 0 0:18 22 315 21 1:19 5 14 27 1:21 0 284 0 0:22 0 337 0 0:26 3 304 9 0:27 41 265 24 1:28 58 81 22 1:$GPGLL,5405.6078,N,01049.4918,E,104728.000,A,A*54
GPSD,O=GLL 1248432448.000 0.005 54.093463333 10.824863333 34.900 13.500 29.900 28.6600 0.288 0.000 ? 27.00 ? 3$GPRMC,104729.000,A,5405.6076,N,01049.4921,E,0.51,34.94,240709,,,A*50
GPSD,O=RMC 1248432449.000 0.005 54.093460000 10.824868333 ? 13.500 ? 34.9400 0.262 ? ? 27.00 ? 2$GPVTG,34.94,T,,M,0.51,N,0.9,K,A*3A
$GPGGA,104729.000,5405.6076,N,01049.4921,E,1,08,0.9,34.7,M,43.6,M,,0000*64
GPSD,O=GGA 1248432449.000 0.005 54.093460000 10.824868333 34.700 13.500 29.900 34.9400 0.262 0.000 ? 27.00 ? 3$GPGSA,A,3,28,18,27,19,08,09,10,15,,,,,1.6,0.9,1.3*34
GPSD,O=GSA 1248432449.000 0.005 54.093460000 10.824868333 34.700 13.500 29.900 34.9400 0.262 0.000 ? 27.00 ? 3$GPGSV,3,1,12,08,30,075,22,09,20,262,32,10,16,194,24,15,74,263,44*71
$GPGSV,3,2,12,17,14,127,,18,22,315,22,19,05,014,27,21,00,284,*72
$GPGSV,3,3,12,22,00,337,,26,03,304,08,27,41,265,25,28,58,081,22*7D
GPSD,Y=GSV 1248432449.000 12:8 30 75 22 1:9 20 262 32 1:10 16 194 24 1:15 74 263 44 1:17 14 127 0 0:18 22 315 22 1:19 5 14 27 1:21 0 284 0 0:22 0 337 0 0:26 3 304 8 0:27 41 265 25 1:28 58 81 22 1:$GPGLL,5405.6076,N,01049.4921,E,104729.000,A,A*51
GPSD,O=GLL 1248432449.000 0.005 54.093460000 10.824868333 34.700 13.500 29.900 34.9400 0.262 0.000 ? 27.00 ? 3$GPRMC,104730.000,A,5405.6073,N,01049.4922,E,1.07,44.97,240709,,,A*58
GPSD,O=RMC 1248432450.000 0.005 54.093455000 10.824870000 ? 13.500 ? 44.9700 0.550 ? ? 27.00 ? 2$GPVTG,44.97,T,,M,1.07,N,2.0,K,A*37
$GPGGA,104730.000,5405.6073,N,01049.4922,E,1,08,0.9,34.5,M,43.6,M,,0000*68
GPSD,O=GGA 1248432450.000 0.005 54.093455000 10.824870000 34.500 13.500 29.900 44.9700 0.550 0.000 ? 27.00 ? 3$GPGSA,A,3,28,18,27,19,08,09,10,15,,,,,1.6,0.9,1.3*34
GPSD,O=GSA 1248432450.000 0.005 54.093455000 10.824870000 34.500 13.500 29.900 44.9700 0.550 0.000 ? 27.00 ? 3$GPGSV,3,1,12,08,30,075,23,09,20,262,33,10,16,194,23,15,74,263,44*76
$GPGSV,3,2,12,17,14,127,18,18,22,315,22,19,05,014,27,21,00,284,*7B
$GPGSV,3,3,12,22,00,337,,26,03,304,08,27,41,265,25,28,58,081,21*7E
GPSD,Y=GSV 1248432450.000 12:8 30 75 23 1:9 20 262 33 1:10 16 194 23 1:15 74 263 44 1:17 14 127 18 0:18 22 315 22 1:19 5 14 27 1:21 0 284 0 0:22 0 337 0 0:26 3 304 8 0:27 41 265 25 1:28 58 81 21 1:$GPGLL,5405.6073,N,01049.4922,E,104730.000,A,A*5F
GPSD,O=GLL 1248432450.000 0.005 54.093455000 10.824870000 34.500 13.500 29.900 44.9700 0.550 0.000 ? 27.00 ? 3$GPRMC,104731.000,A,5405.6070,N,01049.4926,E,0.67,50.17,240709,,,A*54
GPSD,O=RMC 1248432451.000 0.005 54.093450000 10.824876667 ? 13.500 ? 50.1700 0.345 ? ? 27.00 ? 2$GPVTG,50.17,T,,M,0.67,N,1.3,K,A*3D
$GPGGA,104731.000,5405.6070,N,01049.4926,E,1,08,0.9,34.4,M,43.6,M,,0000*6F
GPSD,O=GGA 1248432451.000 0.005 54.093450000 10.824876667 34.400 13.500 29.900 50.1700 0.345 0.000 ? 27.00 ? 3$GPGSA,A,3,28,18,27,19,08,09,10,15,,,,,1.6,0.9,1.3*34
GPSD,O=GSA 1248432451.000 0.005 54.093450000 10.824876667 34.400 13.500 29.900 50.1700 0.345 0.000 ? 27.00 ? 3$GPGSV,3,1,12,08,30,075,21,09,20,262,33,10,16,194,23,15,74,263,44*74
$GPGSV,3,2,12,17,14,127,17,18,22,315,22,19,05,014,27,21,00,284,*74
$GPGSV,3,3,12,22,00,337,,26,03,304,08,27,41,265,26,28,58,081,22*7E
GPSD,Y=GSV 1248432451.000 12:8 30 75 21 1:9 20 262 33 1:10 16 194 23 1:15 74 263 44 1:17 14 127 17 0:18 22 315 22 1:19 5 14 27 1:21 0 284 0 0:22 0 337 0 0:26 3 304 8 0:27 41 265 26 1:28 58 81 22 1:$GPGLL,5405.6070,N,01049.4926,E,104731.000,A,A*59
GPSD,O=GLL 1248432451.000 0.005 54.093450000 10.824876667 34.400 13.500 29.900 50.1700 0.345 0.000 ? 27.00 ? 3$GPRMC,104732.000,A,5405.6071,N,01049.4925,E,0.71,43.34,240709,,,A*51
GPSD,O=RMC 1248432452.000 0.005 54.093451667 10.824875000 ? 13.500 ? 43.3400 0.365 ? ? 27.00 ? 2$GPVTG,43.34,T,,M,0.71,N,1.3,K,A*39
$GPGGA,104732.000,5405.6071,N,01049.4925,E,1,08,0.9,34.3,M,43.6,M,,0000*69
GPSD,O=GGA 1248432452.000 0.005 54.093451667 10.824875000 34.300 13.500 29.900 43.3400 0.365 0.000 ? 27.00 ? 3$GPGSA,A,3,28,18,27,19,08,09,10,15,,,,,1.6,0.9,1.3*34
GPSD,O=GSA 1248432452.000 0.005 54.093451667 10.824875000 34.300 13.500 29.900 43.3400 0.365 0.000 ? 27.00 ? 3$GPGSV,3,1,12,08,30,075,21,09,20,262,34,10,16,194,23,15,74,263,44*73
$GPGSV,3,2,12,17,14,127,15,18,22,315,21,19,05,014,27,21,00,284,*75
$GPGSV,3,3,12,22,00,337,,26,03,304,,27,41,265,25,28,58,081,23*74
GPSD,Y=GSV 1248432452.000 12:8 30 75 21 1:9 20 262 34 1:10 16 194 23 1:15 74 263 44 1:17 14 127 15 0:18 22 315 21 1:19 5 14 27 1:21 0 284 0 0:22 0 337 0 0:26 3 304 0 0:27 41 265 25 1:28 58 81 23 1:$GPGLL,5405.6071,N,01049.4925,E,104732.000,A,A*58
GPSD,O=GLL 1248432452.000 0.005 54.093451667 10.824875000 34.300 13.500 29.900 43.3400 0.365 0.000 ? 27.00 ? 3$GPRMC,104733.000,A,5405.6069,N,01049.4928,E,1.13,49.89,240709,,,A*5D
GPSD,O=RMC 1248432453.000 0.005 54.093448333 10.824880000 ? 13.500 ? 49.8900 0.581 ? ? 27.00 ? 2$GPVTG,49.89,T,,M,1.13,N,2.1,K,A*31
$GPGGA,104733.000,5405.6069,N,01049.4928,E,1,08,0.9,34.1,M,43.6,M,,0000*6E
GPSD,O=GGA 1248432453.000 0.005 54.093448333 10.824880000 34.100 13.500 29.900 49.8900 0.581 0.000 ? 27.00 ? 3$GPGSA,A,3,28,18,27,19,08,09,10,15,,,,,1.6,0.9,1.3*34
GPSD,O=GSA 1248432453.000 0.005 54.093448333 10.824880000 34.100 13.500 29.900 49.8900 0.581 0.000 ? 27.00 ? 3$GPGSV,3,1,12,08,30,075,22,09,20,262,33,10,16,194,22,15,74,263,44*76
$GPGSV,3,2,12,17,14,127,16,18,22,315,22,19,05,014,27,21,00,284,*75
$GPGSV,3,3,12,22,00,337,,26,03,304,,27,41,265,24,28,58,081,24*72
GPSD,Y=GSV 1248432453.000 12:8 30 75 22 1:9 20 262 33 1:10 16 194 22 1:15 74 263 44 1:17 14 127 16 0:18 22 315 22 1:19 5 14 27 1:21 0 284 0 0:22 0 337 0 0:26 3 304 0 0:27 41 265 24 1:28 58 81 24 1:$GPGLL,5405.6069,N,01049.4928,E,104733.000,A,A*5D
GPSD,O=GLL 1248432453.000 0.005 54.093448333 10.824880000 34.100 13.500 29.900 49.8900 0.581 0.000 ? 27.00 ? 3$GPRMC,104734.000,A,5405.6070,N,01049.4930,E,1.06,48.90,240709,,,A*56
GPSD,O=RMC 1248432454.000 0.005 54.093450000 10.824883333 ? 13.500 ? 48.9000 0.545 ? ? 27.00 ? 2$GPVTG,48.90,T,,M,1.06,N,2.0,K,A*3D
$GPGGA,104734.000,5405.6070,N,01049.4930,E,1,08,0.9,34.0,M,43.6,M,,0000*69
GPSD,O=GGA 1248432454.000 0.005 54.093450000 10.824883333 34.000 13.500 29.900 48.9000 0.545 0.000 ? 27.00 ? 3$GPGSA,A,3,28,18,27,19,08,09,10,15,,,,,1.6,0.9,1.3*34
GPSD,O=GSA 1248432454.000 0.005 54.093450000 10.824883333 34.000 13.500 29.900 48.9000 0.545 0.000 ? 27.00 ? 3$GPGSV,3,1,12,08,30,075,23,09,20,262,34,10,16,194,23,15,74,263,44*71
$GPGSV,3,2,12,17,14,127,17,18,22,315,22,19,05,014,27,21,00,284,*74
$GPGSV,3,3,12,22,00,337,,26,03,304,,27,41,265,24,28,58,081,24*72
GPSD,Y=GSV 1248432454.000 12:8 30 75 23 1:9 20 262 34 1:10 16 194 23 1:15 74 263 44 1:17 14 127 17 0:18 22 315 22 1:19 5 14 27 1:21 0 284 0 0:22 0 337 0 0:26 3 304 0 0:27 41 265 24 1:28 58 81 24 1:$GPGLL,5405.6070,N,01049.4930,E,104734.000,A,A*5B
GPSD,O=GLL 1248432454.000 0.005 54.093450000 10.824883333 34.000 13.500 29.900 48.9000 0.545 0.000 ? 27.00 ? 3$GPRMC,104735.000,A,5405.6071,N,01049.4935,E,0.96,50.63,240709,,,A*5E
GPSD,O=RMC 1248432455.000 0.005 54.093451667 10.824891667 ? 13.500 ? 50.6300 0.494 ? ? 27.00 ? 2$GPVTG,50.63,T,,M,0.96,N,1.8,K,A*3B
$GPGGA,104735.000,5405.6071,N,01049.4935,E,1,08,0.9,33.8,M,43.6,M,,0000*63
GPSD,O=GGA 1248432455.000 0.005 54.093451667 10.824891667 33.800 13.500 29.900 50.6300 0.494 0.000 ? 27.00 ? 3$GPGSA,A,3,28,18,27,19,08,09,10,15,,,,,1.6,0.9,1.3*34
GPSD,O=GSA 1248432455.000 0.005 54.093451667 10.824891667 33.800 13.500 29.900 50.6300 0.494 0.000 ? 27.00 ? 3$GPGSV,3,1,12,08,30,075,23,09,20,262,33,10,16,194,23,15,74,263,44*76
$GPGSV,3,2,12,17,14,127,16,18,22,315,22,19,05,014,27,21,00,284,*75
$GPGSV,3,3,12,22,00,337,,26,03,304,,27,41,265,24,28,58,081,24*72
GPSD,Y=GSV 1248432455.000 12:8 30 75 23 1:9 20 262 33 1:10 16 194 23 1:15 74 263 44 1:17 14 127 16 0:18 22 315 22 1:19 5 14 27 1:21 0 284 0 0:22 0 337 0 0:26 3 304 0 0:27 41 265 24 1:28 58 81 24 1:$GPGLL,5405.6071,N,01049.4935,E,104735.000,A,A*5E
GPSD,O=GLL 1248432455.000 0.005 54.093451667 10.824891667 33.800 13.500 29.900 50.6300 0.494 0.000 ? 27.00 ? 3$GPRMC,104736.000,A,5405.6072,N,01049.4936,E,0.52,50.27,240709,,,A*55
GPSD,O=RMC 1248432456.000 0.005 54.093453333 10.824893333 ? 13.500 ? 50.2700 0.268 ? ? 27.00 ? 2$GPVTG,50.27,T,,M,0.52,N,1.0,K,A*3B
$GPGGA,104736.000,5405.6072,N,01049.4936,E,1,08,0.9,33.7,M,43.6,M,,0000*6F
GPSD,O=GGA 1248432456.000 0.005 54.093453333 10.824893333 33.700 13.500 29.900 50.2700 0.268 0.000 ? 27.00 ? 3$GPGSA,A,3,28,18,27,19,08,09,10,15,,,,,1.6,0.9,1.3*34
GPSD,O=GSA 1248432456.000 0.005 54.093453333 10.824893333 33.700 13.500 29.900 50.2700 0.268 0.000 ? 27.00 ? 3$GPGSV,3,1,12,08,30,075,23,09,20,262,33,10,16,194,24,15,74,263,44*71
$GPGSV,3,2,12,17,14,127,16,18,22,315,21,19,05,014,27,21,00,284,*76
$GPGSV,3,3,12,22,00,337,,26,03,304,,27,41,265,24,28,58,081,24*72
GPSD,Y=GSV 1248432456.000 12:8 30 75 23 1:9 20 262 33 1:10 16 194 24 1:15 74 263 44 1:17 14 127 16 0:18 22 315 21 1:19 5 14 27 1:21 0 284 0 0:22 0 337 0 0:26 3 304 0 0:27 41 265 24 1:28 58 81 24 1:$GPGLL,5405.6072,N,01049.4936,E,104736.000,A,A*5D
GPSD,O=GLL 1248432456.000 0.005 54.093453333 10.824893333 33.700 13.500 29.900 50.2700 0.268 0.000 ? 27.00 ? 3
