$GPGSV,3,1,09,02,33,299,27,04,43,242,26,08,12,202,,13,85,356,*70
$GPGSV,3,2,09,16,22,059,,20,21,131,,23,54,074,,24,23,195,*71
$GPGSV,3,3,09,27,39,195,15,,,,,,,,,,,,*46
GPSD,Y=GSV 0.000 9:2 33 299 27 0:4 43 242 26 0:8 12 202 0 0:13 85 356 0 0:16 22 59 0 0:20 21 131 0 0:23 54 74 0 0:24 23 195 0 0:27 39 195 15 0:
$GPRMC,171244.00,A,5209.7838,N,02048.4818,E,0.6,71.0,080405,3.5,E*63
GPSD,O=RMC 1112980364.000 0.005 52.163063333 20.808030000 ? ? ? 71.0000 0.309 ? ? ? ? 2
$GPGGA,171245.00,5209.7838,N,02048.4819,E,1,03,5.3,76.6,M,36.5,M,,*5A
GPSD,O=GGA 1112980365.000 0.005 52.163063333 20.808031667 76.600 ? ? ? ? 0.000 ? ? ? 3
$GPGLL,5209.7838,N,02048.4819,E,171245.00,A*00
GPSD,O=GLL 1112980365.000 0.005 52.163063333 20.808031667 76.600 ? ? ? ? 0.000 ? ? ? 3
$GPGSA,A,2,02,04,27,,,,,,,,,,,5.3,*36
$GPGSV,3,1,09,02,33,299,27,04,43,242,26,08,12,202,,13,85,356,*70
$GPGSV,3,2,09,16,22,059,,20,21,131,,23,54,074,,24,23,195,*71
$GPGSV,3,3,09,27,39,195,13,,,,,,,,,,,,*40
GPSD,Y=GSV 1112980365.000 9:2 33 299 27 1:4 43 242 26 1:8 12 202 0 0:13 85 356 0 0:16 22 59 0 0:20 21 131 0 0:23 54 74 0 0:24 23 195 0 0:27 39 195 13 1:
$GPRMC,171245.00,A,5209.7838,N,02048.4819,E,0.3,41.9,080405,3.5,E*6C
GPSD,O=RMC 1112980365.000 0.005 52.163063333 20.808031667 76.600 79.500 0.000 41.9000 0.154 0.000 ? ? ? 3
$GPGGA,171246.00,5209.7839,N,02048.4824,E,1,03,5.3,76.6,M,36.5,M,,*56
GPSD,O=GGA 1112980366.000 0.005 52.163065000 20.808040000 76.600 79.500 0.000 ? ? 0.000 ? 159.00 ? 3
$GPGLL,5209.7839,N,02048.4824,E,171246.00,A*0C
GPSD,O=GLL 1112980366.000 0.005 52.163065000 20.808040000 76.600 79.500 0.000 ? ? 0.000 ? 159.00 ? 3
$GPGSA,A,2,02,04,27,,,,,,,,,,,5.3,*36
$GPGSV,3,1,09,02,33,299,27,04,43,242,26,08,12,202,,13,85,356,*70
$GPGSV,3,2,09,16,22,059,,20,21,131,,23,54,074,,24,23,195,*71
$GPGSV,3,3,09,27,39,195,16,,,,,,,,,,,,*45
GPSD,Y=GSV 1112980366.000 9:2 33 299 27 1:4 43 242 26 1:8 12 202 0 0:13 85 356 0 0:16 22 59 0 0:20 21 131 0 0:23 54 74 0 0:24 23 195 0 0:27 39 195 16 1:
$GPRMC,171246.00,A,5209.7839,N,02048.4824,E,0.5,75.4,080405,3.5,E*6C
GPSD,O=RMC 1112980366.000 0.005 52.163065000 20.808040000 76.600 79.500 0.000 75.4000 0.257 0.000 ? 159.00 ? 3
$GPGGA,171247.00,5209.7838,N,02048.4821,E,1,03,5.3,76.6,M,36.5,M,,*53
GPSD,O=GGA 1112980367.000 0.005 52.163063333 20.808035000 76.600 79.500 0.000 ? ? 0.000 ? 159.00 ? 3
$GPGLL,5209.7838,N,02048.4821,E,171247.00,A*09
GPSD,O=GLL 1112980367.000 0.005 52.163063333 20.808035000 76.600 79.500 0.000 ? ? 0.000 ? 159.00 ? 3
$GPGSA,A,2,02,04,27,,,,,,,,,,,5.3,*36
$GPGSV,3,1,09,02,33,299,28,04,43,242,26,08,12,202,,13,85,357,*7E
$GPGSV,3,2,09,16,22,059,,20,21,131,,23,54,074,,24,23,195,*71
$GPGSV,3,3,09,27,40,195,15,,,,,,,,,,,,*48
GPSD,Y=GSV 1112980367.000 9:2 33 299 28 1:4 43 242 26 1:8 12 202 0 0:13 85 357 0 0:16 22 59 0 0:20 21 131 0 0:23 54 74 0 0:24 23 195 0 0:27 40 195 15 1:
$GPRMC,171247.00,A,5209.7838,N,02048.4821,E,0.5,269.3,080405,3.5,E*51
GPSD,O=RMC 1112980367.000 0.005 52.163063333 20.808035000 76.600 79.500 0.000 269.3000 0.257 0.000 ? 159.00 ? 3
$GPGGA,171248.00,5209.7839,N,02048.4824,E,1,03,5.3,76.6,M,36.5,M,,*58
GPSD,O=GGA 1112980368.000 0.005 52.163065000 20.808040000 76.600 79.500 0.000 ? ? 0.000 ? 159.00 ? 3
$GPGLL,5209.7839,N,02048.4824,E,171248.00,A*02
GPSD,O=GLL 1112980368.000 0.005 52.163065000 20.808040000 76.600 79.500 0.000 ? ? 0.000 ? 159.00 ? 3
$GPGSA,A,2,02,04,27,,,,,,,,,,,5.3,*36
$GPGSV,3,1,09,02,33,299,28,04,43,242,25,08,12,202,,13,85,357,*7D
$GPGSV,3,2,09,16,22,059,,20,21,131,,23,54,074,,24,23,195,*71
$GPGSV,3,3,09,27,40,195,15,,,,,,,,,,,,*48
GPSD,Y=GSV 1112980368.000 9:2 33 299 28 1:4 43 242 25 1:8 12 202 0 0:13 85 357 0 0:16 22 59 0 0:20 21 131 0 0:23 54 74 0 0:24 23 195 0 0:27 40 195 15 1:
$GPRMC,171248.00,A,5209.7839,N,02048.4824,E,0.2,0.0,080405,3.5,E*53
GPSD,O=RMC 1112980368.000 0.005 52.163065000 20.808040000 76.600 79.500 0.000 0.0000 0.103 0.000 ? 159.00 ? 3
$GPGGA,171249.00,5209.7839,N,02048.4827,E,1,03,5.3,76.6,M,36.5,M,,*5A
GPSD,O=GGA 1112980369.000 0.005 52.163065000 20.808045000 76.600 79.500 0.000 ? ? 0.000 ? 159.00 ? 3
$GPGLL,5209.7839,N,02048.4827,E,171249.00,A*00
GPSD,O=GLL 1112980369.000 0.005 52.163065000 20.808045000 76.600 79.500 0.000 ? ? 0.000 ? 159.00 ? 3
$GPGSA,A,2,02,04,27,,,,,,,,,,,5.3,*36
$GPGSV,3,1,09,02,33,299,27,04,43,242,26,08,12,202,,13,85,357,*71
$GPGSV,3,2,09,16,22,059,,20,21,131,,23,54,074,,24,23,195,*71
$GPGSV,3,3,09,27,40,195,15,,,,,,,,,,,,*48
GPSD,Y=GSV 1112980369.000 9:2 33 299 27 1:4 43 242 26 1:8 12 202 0 0:13 85 357 0 0:16 22 59 0 0:20 21 131 0 0:23 54 74 0 0:24 23 195 0 0:27 40 195 15 1:
$GPRMC,171249.00,A,5209.7839,N,02048.4827,E,0.3,80.9,080405,3.5,E*61
GPSD,O=RMC 1112980369.000 0.005 52.163065000 20.808045000 76.600 79.500 0.000 80.9000 0.154 0.000 ? 159.00 ? 3
$GPGGA,171250.00,5209.7839,N,02048.4829,E,1,03,5.3,76.6,M,36.5,M,,*5C
GPSD,O=GGA 1112980370.000 0.005 52.163065000 20.808048333 76.600 79.500 0.000 ? ? 0.000 ? 159.00 ? 3
$GPGLL,5209.7839,N,02048.4829,E,171250.00,A*06
GPSD,O=GLL 1112980370.000 0.005 52.163065000 20.808048333 76.600 79.500 0.000 ? ? 0.000 ? 159.00 ? 3
$GPGSA,A,2,02,04,27,,,,,,,,,,,5.3,*36
$GPGSV,3,1,09,02,33,299,28,04,43,242,26,08,12,202,,13,85,357,*7E
$GPGSV,3,2,09,16,22,059,,20,21,131,,23,54,074,,24,23,195,*71
$GPGSV,3,3,09,27,40,195,15,,,,,,,,,,,,*48
GPSD,Y=GSV 1112980370.000 9:2 33 299 28 1:4 43 242 26 1:8 12 202 0 0:13 85 357 0 0:16 22 59 0 0:20 21 131 0 0:23 54 74 0 0:24 23 195 0 0:27 40 195 15 1:
$GPRMC,171250.00,A,5209.7839,N,02048.4829,E,0.3,77.8,080405,3.5,E*6E
GPSD,O=RMC 1112980370.000 0.005 52.163065000 20.808048333 76.600 79.500 0.000 77.8000 0.154 0.000 ? 159.00 ? 3
