$GPGSA,A,3,22,09,18,11,,,,,,,,,3.8,2.4,3.0*3C
GPSD,O=?
$GPGSA,A,3,18,22,09,11,,,,,,,,,3.8,2.4,3.0*3C
$PGRME,0.00,M,0.00,M,34.80,M*21
GPSD,O=?
$GPGSA,A,3,18,22,09,19,11,,,,,,,,2.9,1.4,2.6*30
GPSD,O=?
$GPGSA,A,3,18,22,09,19,11,,,,,,,,2.9,1.4,2.6*30
GPSD,O=?
$GPGSA,A,3,18,22,09,19,11,,,,,,,,2.9,1.4,2.6*30
GPSD,O=ID6d ? 0.005 ? ? ? 35.486 68.490 ? ? ? ? ? ? 3
$GPGSA,A,3,18,22,09,19,11,,,,,,,,2.9,1.4,2.6*30
$PGRME,0.00,M,0.00,M,26.81,M*23
GPSD,O=ID6d ? 0.005 ? ? ? 35.486 68.490 ? ? ? ? ? ? 3
$GPGSA,A,3,18,22,09,19,11,,,,,,,,2.9,1.4,2.6*30
GPSD,O=ID6d ? 0.005 ? ? ? 35.486 68.490 ? ? ? ? ? ? 3
$GPGSV,3,1,10,00,00,000,00,19,26,250,29,00,00,000,00,18,26,096,37*7C
$GPGSV,3,2,10,01,29,221,26,11,24,307,29,03,08,225,28,00,00,000,00*7B
$GPGSV,3,3,10,22,65,094,37,09,24,045,37*78
GPSD,Y=ID5c 1164524249.477 7:19 26 250 29 1:18 26 96 37 1:1 29 221 26 0:11 24 307 29 1:3 8 225 28 0:22 65 94 37 1:9 24 45 37 1:
$GPGSA,A,3,18,22,09,19,01,,,,,,,,3.1,1.8,2.5*37
$PGRME,0.00,M,0.00,M,26.80,M*22
GPSD,O=ID6d ? 0.005 ? ? ? 35.486 68.490 ? ? ? ? ? ? 3
$GPGSA,A,3,18,22,09,19,01,,,,,,,,3.1,1.8,2.5*37
$PGRME,0.00,M,0.00,M,28.00,M*24
GPSD,O=ID6d ? 0.005 ? ? ? 35.486 68.490 ? ? ? ? ? ? 3
$GPGSV,3,1,10,00,00,000,00,19,26,250,29,00,00,000,00,18,26,096,38*73
$GPGSV,3,2,10,01,29,221,29,11,25,307,26,03,08,225,28,00,00,000,00*7A
$GPGSV,3,3,10,22,65,094,38,09,24,045,38*78
GPSD,Y=ID5c 1164524259.455 7:19 26 250 29 1:18 26 96 38 1:1 29 221 29 1:11 25 307 26 0:3 8 225 28 0:22 65 94 38 1:9 24 45 38 1:
$GPGSA,A,3,18,22,09,01,,,,,,,,,3.3,2.1,2.5*37
GPSD,O=ID6d ? 0.005 ? ? ? 35.486 68.490 ? ? ? ? ? ? 3
$GPGSA,A,3,18,22,09,01,,,,,,,,,3.3,2.1,2.5*37
GPSD,O=ID6d ? 0.005 ? ? ? 35.486 68.490 ? ? ? ? ? ? 3
$GPGSA,A,3,18,22,09,01,,,,,,,,,3.3,2.1,2.5*37
$PGRME,0.00,M,0.00,M,29.95,M*29
GPSD,O=ID6d ? 0.005 ? ? ? 35.486 68.490 ? ? ? ? ? ? 3
$GPGSA,A,3,18,22,09,01,,,,,,,,,3.3,2.1,2.5*37
GPSD,O=ID6d ? 0.005 ? ? ? 35.486 68.490 ? ? ? ? ? ? 3
$GPGSA,A,3,18,09,22,01,,,,,,,,,3.3,2.1,2.5*37
GPSD,O=ID6d ? 0.005 ? ? ? 35.486 68.490 ? ? ? ? ? ? 3
$GPGSV,3,1,10,00,00,000,00,19,26,250,29,00,00,000,00,18,26,096,39*72
$GPGSV,3,2,10,01,29,221,30,11,25,307,26,03,08,225,28,00,00,000,00*72
$GPGSV,3,3,10,22,65,094,38,09,24,045,41*76
GPSD,Y=ID5c 1164524264.463 7:19 26 250 29 0:18 26 96 39 1:1 29 221 30 1:11 25 307 26 0:3 8 225 28 0:22 65 94 38 1:9 24 45 41 1:
$GPGSA,A,3,18,09,22,01,,,,,,,,,3.3,2.1,2.5*37
GPSD,O=ID6d ? 0.005 ? ? ? 35.486 68.490 ? ? ? ? ? ? 3
$GPGSA,A,3,18,09,22,01,,,,,,,,,3.3,2.1,2.5*37
$PGRME,0.00,M,0.00,M,29.94,M*28
GPSD,O=ID6d ? 0.005 ? ? ? 35.486 68.490 ? ? ? ? ? ? 3
$GPGSA,A,3,18,22,09,01,,,,,,,,,3.3,2.1,2.5*37
GPSD,O=ID6d ? 0.005 ? ? ? 35.486 68.490 ? ? ? ? ? ? 3
$GPGSA,A,3,18,22,09,01,,,,,,,,,3.3,2.1,2.5*37
GPSD,O=ID6d ? 0.005 ? ? ? 35.486 68.490 ? ? ? ? ? ? 3
$GPGSV,3,1,10,00,00,000,00,19,26,250,29,00,00,000,00,18,26,096,39*72
$GPGSV,3,2,10,01,29,221,30,11,25,307,26,03,08,225,28,00,00,000,00*72
$GPGSV,3,3,10,22,64,094,39,09,24,045,40*77
GPSD,Y=ID5c 1164524264.463 7:19 26 250 29 0:18 26 96 39 1:1 29 221 30 1:11 25 307 26 0:3 8 225 28 0:22 64 94 39 1:9 24 45 40 1:
$GPGSA,A,3,18,22,09,01,,,,,,,,,3.3,2.1,2.5*37
GPSD,O=ID6d ? 0.005 ? ? ? 35.486 68.490 ? ? ? ? ? ? 3
$GPGSA,A,3,18,22,09,01,,,,,,,,,3.3,2.1,2.5*37
$PGRME,0.00,M,0.00,M,29.93,M*2F
GPSD,O=ID6d ? 0.005 ? ? ? 35.486 68.490 ? ? ? ? ? ? 3
$GPGSA,A,3,18,22,09,01,,,,,,,,,3.3,2.1,2.5*37
GPSD,O=ID6d ? 0.005 ? ? ? 35.486 68.490 ? ? ? ? ? ? 3
$GPGSA,A,3,18,22,09,01,,,,,,,,,3.3,2.1,2.5*37
GPSD,O=ID6d ? 0.005 ? ? ? 35.486 68.490 ? ? ? ? ? ? 3
$GPGSV,3,1,10,00,00,000,00,19,26,250,29,00,00,000,00,18,26,096,39*72
$GPGSV,3,2,10,01,29,221,30,11,25,307,26,03,08,225,28,00,00,000,00*72
$GPGSV,3,3,10,22,64,094,40,09,24,045,39*77
GPSD,Y=ID5c 1164524276.566 7:19 26 250 29 0:18 26 96 39 1:1 29 221 30 1:11 25 307 26 0:3 8 225 28 0:22 64 94 40 1:9 24 45 39 1:
$GPGSV,3,1,10,00,00,000,00,19,26,250,29,00,00,000,00,18,26,096,39*72
$GPGSV,3,2,10,01,29,221,29,11,25,307,26,03,08,225,28,00,00,000,00*7A
$GPGSV,3,3,10,22,64,094,41,09,24,045,38*77
GPSD,Y=ID5c 1164524284.449 7:19 26 250 29 0:18 26 96 39 1:1 29 221 29 1:11 25 307 26 0:3 8 225 28 0:22 64 94 41 1:9 24 45 38 1:
$GPGSA,A,3,18,22,09,01,,,,,,,,,3.3,2.1,2.5*37
GPSD,O=ID6d ? 0.005 ? ? ? 35.486 68.490 ? ? ? ? ? ? 3
$GPGSA,A,3,18,22,09,01,,,,,,,,,3.3,2.1,2.5*37
$PGRME,0.00,M,0.00,M,29.92,M*2E
GPSD,O=ID6d ? 0.005 ? ? ? 35.486 68.490 ? ? ? ? ? ? 3
$GPGSA,A,3,18,22,09,01,,,,,,,,,3.3,2.1,2.5*37
GPSD,O=ID6d ? 0.005 ? ? ? 35.486 68.490 ? ? ? ? ? ? 3
$GPGSV,3,1,10,00,00,000,00,19,26,250,29,00,00,000,00,18,26,096,39*72
$GPGSV,3,2,10,01,29,221,28,11,25,307,26,03,08,225,28,00,00,000,00*7B
$GPGSV,3,3,10,22,64,094,41,09,24,045,40*78
GPSD,Y=ID5c 1164524289.434 7:19 26 250 29 0:18 26 96 39 1:1 29 221 28 1:11 25 307 26 0:3 8 225 28 0:22 64 94 41 1:9 24 45 40 1:
$GPGSA,A,3,18,22,09,01,,,,,,,,,3.3,2.1,2.5*37
GPSD,O=ID6d ? 0.005 ? ? ? 35.486 68.490 ? ? ? ? ? ? 3
$GPGGA,065813,5332.3091,N,11329.9353,W,1,03,2.06,698.96,M,-19.813,M,,*71
$GPRMC,065813,A,5332.3091,N,11329.9353,W,0.0000,0.000,261106,,*3C
GPSD,O=ID8f20 1164524293.000 0.005 53.538484440 -113.498921410 698.962 30.877 ? 0.0000 0.000 0.000 ? ? ? 2
$GPGGA,065814,5332.3090,N,11329.9353,W,1,03,2.06,698.97,M,-19.813,M,,*76
$GPRMC,065814,A,5332.3090,N,11329.9353,W,0.0000,0.000,261106,,*3A
GPSD,O=ID8f20 1164524294.000 0.005 53.538484105 -113.498921158 698.966 30.877 ? 0.0000 0.000 0.000 ? 61.75 ? 2
$GPGSA,A,2,18,22,09,,,,,,,,,,3.8,3.7,1.0*3D
GPSD,O=ID6d ? 0.005 53.538484105 -113.498921158 698.966 30.877 ? 0.0000 0.000 0.000 ? 61.75 ? 2
$GPGSV,3,1,10,00,00,000,00,19,26,249,27,00,00,000,00,18,26,096,38*75
$GPGSV,3,2,10,01,29,221,26,11,25,307,26,03,08,225,28,00,00,000,00*75
$GPGSV,3,3,10,22,64,094,41,09,24,045,41*79
GPSD,Y=ID5c 1164524294.451 7:19 26 249 27 0:18 26 96 38 1:1 29 221 26 0:11 25 307 26 0:3 8 225 28 0:22 64 94 41 1:9 24 45 41 1:
$GPGGA,065815,5332.3090,N,11329.9353,W,1,03,3.72,698.97,M,-19.813,M,,*75
$GPRMC,065815,A,5332.3090,N,11329.9353,W,0.0000,0.000,261106,,*3B
GPSD,O=ID8f20 1164524295.000 0.005 53.538483769 -113.498920907 698.970 55.739 ? 0.0000 0.000 0.000 ? ? ? 2
$GPGGA,065816,5332.3090,N,11329.9352,W,1,03,3.72,698.97,M,-19.813,M,,*77
$GPRMC,065816,A,5332.3090,N,11329.9352,W,0.0000,0.000,261106,,*39
GPSD,O=ID8f20 1164524296.000 0.005 53.538483434 -113.498920739 698.974 55.739 ? 0.0000 0.000 0.000 ? 111.48 ? 2
$GPGGA,065817,5332.3090,N,11329.9352,W,1,03,3.72,698.98,M,-19.813,M,,*79
$GPRMC,065817,A,5332.3090,N,11329.9352,W,0.0000,0.000,261106,,*38
GPSD,O=ID8f20 1164524297.000 0.005 53.538483099 -113.498920488 698.978 55.739 ? 0.0000 0.000 0.000 ? 111.48 ? 2
$GPGGA,065818,5332.3090,N,11329.9352,W,1,03,3.72,698.98,M,-19.813,M,,*76
$GPRMC,065818,A,5332.3090,N,11329.9352,W,0.0000,0.000,261106,,*37
GPSD,O=ID8f20 1164524298.000 0.005 53.538482764 -113.498920320 698.982 55.739 ? 0.0000 0.000 0.000 ? 111.48 ? 2
$GPGSA,A,2,18,22,09,,,,,,,,,,3.9,3.7,1.0*3C
GPSD,O=ID6d 1164524298.000 0.005 53.538482764 -113.498920320 698.982 55.739 ? 0.0000 0.000 0.000 ? 111.48 ? 2
$GPGGA,065819,5332.3090,N,11329.9352,W,1,03,3.72,698.99,M,-19.813,M,,*76
$GPRMC,065819,A,5332.3090,N,11329.9352,W,0.0000,0.000,261106,,*36
GPSD,O=ID8f20 1164524299.000 0.005 53.538482512 -113.498920153 698.985 55.766 ? 0.0000 0.000 0.000 ? 111.50 ? 2
$GPGSA,A,2,18,22,09,,,,,,,,,,3.9,3.7,1.0*3C
GPSD,O=ID6d ? 0.005 53.538482512 -113.498920153 698.985 55.766 ? 0.0000 0.000 0.000 ? 111.50 ? 2
$GPGSV,3,1,10,00,00,000,00,19,26,249,27,00,00,000,00,18,26,096,38*75
$GPGSV,3,2,10,01,29,221,26,11,25,307,26,03,08,225,28,00,00,000,00*75
$GPGSV,3,3,10,22,64,094,42,09,24,045,41*7A
GPSD,Y=ID5c 1164524299.432 7:19 26 249 27 0:18 26 96 38 1:1 29 221 26 0:11 25 307 26 0:3 8 225 28 0:22 64 94 42 1:9 24 45 41 1:
$GPGGA,065820,5332.3089,N,11329.9352,W,1,03,3.72,698.99,M,-19.813,M,,*74
$GPRMC,065820,A,5332.3089,N,11329.9352,W,0.0000,0.000,261106,,*34
GPSD,O=ID8f20 1164524300.000 0.005 53.538482177 -113.498919901 698.989 55.766 ? 0.0000 0.000 0.000 ? ? ? 2
$GPGSA,A,2,18,22,09,,,,,,,,,,3.9,3.7,1.0*3C
$PGRME,0.00,M,0.00,M,35.23,M*29
GPSD,O=ID6d 1164524300.000 0.005 53.538482177 -113.498919901 698.989 55.766 ? 0.0000 0.000 0.000 ? ? ? 2
$GPGGA,065821,5332.3089,N,11329.9352,W,1,03,3.72,698.99,M,-19.813,M,,*75
$GPRMC,065821,A,5332.3089,N,11329.9352,W,0.0000,0.000,261106,,*35
GPSD,O=ID8f20 1164524301.000 0.005 53.538481842 -113.498919734 698.993 55.779 ? 0.0000 0.000 0.000 ? 111.54 ? 2
$GPGSA,A,2,18,22,09,,,,,,,,,,3.9,3.7,1.0*3C
$PGRME,0.00,M,0.00,M,35.24,M*2E
GPSD,O=ID6d 1164524301.000 0.005 53.538481842 -113.498919734 698.993 55.779 ? 0.0000 0.000 0.000 ? 111.54 ? 2
$GPGGA,065823,5332.3089,N,11329.9352,W,1,03,3.72,699.00,M,-19.813,M,,*76
$GPRMC,065823,A,5332.3089,N,11329.9352,W,0.0000,0.000,261106,,*37
GPSD,O=ID8f20 1164524303.000 0.005 53.538481339 -113.498919482 699.000 55.779 ? 0.0000 0.000 0.000 ? 55.78 ? 2
$GPGSA,A,2,18,22,09,,,,,,,,,,3.9,3.7,1.0*3C
$PGRME,0.00,M,0.00,M,35.24,M*2E
GPSD,O=ID6d 1164524303.000 0.005 53.538481339 -113.498919482 699.000 55.779 ? 0.0000 0.000 0.000 ? 55.78 ? 2
$GPGGA,065824,5332.3089,N,11329.9352,W,1,03,3.72,699.00,M,-19.813,M,,*71
$GPRMC,065824,A,5332.3089,N,11329.9352,W,0.0000,0.000,261106,,*30
GPSD,O=ID8f20 1164524304.000 0.005 53.538481003 -113.498919314 699.004 55.792 ? 0.0000 0.000 0.000 ? 111.57 ? 2
$GPGSV,3,1,10,00,00,000,00,19,26,249,27,00,00,000,00,18,26,096,35*78
$GPGSV,3,2,10,01,30,221,26,11,25,307,26,03,08,225,28,00,00,000,00*7D
$GPGSV,3,3,10,22,64,094,42,09,24,045,40*7B
GPSD,Y=ID5c 1164524304.000 7:19 26 249 27 0:18 26 96 35 1:1 30 221 26 0:11 25 307 26 0:3 8 225 28 0:22 64 94 42 1:9 24 45 40 1:
$GPGGA,065825,5332.3088,N,11329.9351,W,1,03,3.72,699.01,M,-19.813,M,,*73
$GPRMC,065825,A,5332.3088,N,11329.9351,W,0.0000,0.000,261106,,*33
GPSD,O=ID8f20 1164524305.000 0.005 53.538480752 -113.498919147 699.007 55.792 ? 0.0000 0.000 0.000 ? 111.58 ? 2
$GPGSA,A,2,18,22,09,,,,,,,,,,3.9,3.7,1.0*3C
$PGRME,0.00,M,0.00,M,35.25,M*2F
GPSD,O=ID6d 1164524305.000 0.005 53.538480752 -113.498919147 699.007 55.792 ? 0.0000 0.000 0.000 ? 111.58 ? 2
$GPGGA,065826,5332.3088,N,11329.9351,W,1,03,3.72,699.01,M,-19.813,M,,*70
$GPRMC,065826,A,5332.3088,N,11329.9351,W,0.0000,0.000,261106,,*30
GPSD,O=ID8f20 1164524306.000 0.005 53.538480500 -113.498919063 699.011 55.805 ? 0.0000 0.000 0.000 ? 111.60 ? 2
$GPGGA,065827,5332.3088,N,11329.9351,W,1,03,3.72,699.01,M,-19.813,M,,*71
$GPRMC,065827,A,5332.3088,N,11329.9351,W,0.0000,0.000,261106,,*31
GPSD,O=ID8f20 1164524307.000 0.005 53.538480249 -113.498918895 699.014 55.805 ? 0.0000 0.000 0.000 ? 111.61 ? 2
$GPGSA,A,2,22,09,18,,,,,,,,,,3.9,3.7,1.0*3C
GPSD,O=ID6d 1164524307.000 0.005 53.538480249 -113.498918895 699.014 55.805 ? 0.0000 0.000 0.000 ? 111.61 ? 2
$GPGGA,065828,5332.3088,N,11329.9351,W,1,03,3.72,699.02,M,-19.813,M,,*7D
$GPRMC,065828,A,5332.3088,N,11329.9351,W,0.0000,0.000,261106,,*3E
GPSD,O=ID8f20 1164524308.000 0.005 53.538480081 -113.498918728 699.018 55.818 ? 0.0000 0.000 0.000 ? 111.62 ? 2
$GPGSA,A,2,22,09,18,,,,,,,,,,3.9,3.7,1.0*3C
GPSD,O=ID6d 1164524308.000 0.005 53.538480081 -113.498918728 699.018 55.818 ? 0.0000 0.000 0.000 ? 111.62 ? 2
$GPGGA,065829,5332.3088,N,11329.9351,W,1,03,3.72,699.02,M,-19.813,M,,*7C
$GPRMC,065829,A,5332.3088,N,11329.9351,W,0.0000,0.000,261106,,*3F
GPSD,O=ID8f20 1164524309.000 0.005 53.538479830 -113.498918644 699.021 55.831 ? 0.0000 0.000 0.000 ? 111.65 ? 2
$GPGSV,3,1,10,00,00,000,00,19,26,249,27,00,00,000,00,18,26,096,32*7F
$GPGSV,3,2,10,01,30,221,26,11,25,307,26,03,08,225,28,00,00,000,00*7D
$GPGSV,3,3,10,22,64,094,41,09,24,045,39*76
GPSD,Y=ID5c 1164524309.000 7:19 26 249 27 0:18 26 96 32 1:1 30 221 26 0:11 25 307 26 0:3 8 225 28 0:22 64 94 41 1:9 24 45 39 1:
$GPGGA,065830,5332.3088,N,11329.9351,W,1,03,3.72,699.03,M,-19.813,M,,*75
$GPRMC,065830,A,5332.3088,N,11329.9351,W,0.0000,0.000,261106,,*37
GPSD,O=ID8f20 1164524310.000 0.005 53.538479578 -113.498918476 699.025 55.831 ? 0.0000 0.000 0.000 ? 111.66 ? 2
$GPGGA,065831,5332.3088,N,11329.9351,W,1,03,3.72,699.03,M,-19.813,M,,*74
$GPRMC,065831,A,5332.3088,N,11329.9351,W,0.0000,0.000,261106,,*36
GPSD,O=ID8f20 1164524311.000 0.005 53.538479327 -113.498918309 699.028 55.831 ? 0.0000 0.000 0.000 ? 111.66 ? 2
$GPGSA,A,2,22,09,18,,,,,,,,,,3.9,3.7,1.0*3C
GPSD,O=ID6d 1164524311.000 0.005 53.538479327 -113.498918309 699.028 55.831 ? 0.0000 0.000 0.000 ? 111.66 ? 2
$GPGGA,065832,5332.3087,N,11329.9351,W,1,03,3.72,699.03,M,-19.813,M,,*78
$GPRMC,065832,A,5332.3087,N,11329.9351,W,0.0000,0.000,261106,,*3A
GPSD,O=ID8f20 1164524312.000 0.005 53.538479159 -113.498918141 699.031 55.844 ? 0.0000 0.000 0.000 ? 111.67 ? 2
$GPGSA,A,2,22,09,18,,,,,,,,,,3.9,3.7,1.0*3C
GPSD,O=ID6d 1164524312.000 0.005 53.538479159 -113.498918141 699.031 55.844 ? 0.0000 0.000 0.000 ? 111.67 ? 2
$GPGGA,065833,5332.3087,N,11329.9351,W,1,03,3.72,699.04,M,-19.813,M,,*7E
$GPRMC,065833,A,5332.3087,N,11329.9351,W,0.0000,0.000,261106,,*3B
GPSD,O=ID8f20 1164524313.000 0.005 53.538478908 -113.498918057 699.035 55.844 ? 0.0000 0.000 0.000 ? 111.69 ? 2
$GPGSA,A,2,22,09,18,,,,,,,,,,3.9,3.7,1.0*3C
GPSD,O=ID6d 1164524313.000 0.005 53.538478908 -113.498918057 699.035 55.844 ? 0.0000 0.000 0.000 ? 111.69 ? 2
$GPGGA,065834,5332.3087,N,11329.9351,W,1,03,3.72,699.04,M,-19.813,M,,*79
$GPRMC,065834,A,5332.3087,N,11329.9351,W,0.0000,0.000,261106,,*3C
GPSD,O=ID8f20 1164524314.000 0.005 53.538478740 -113.498917890 699.038 55.858 ? 0.0000 0.000 0.000 ? 111.70 ? 2
$GPGSV,3,1,10,00,00,000,00,19,26,249,27,00,00,000,00,18,26,096,32*7F
$GPGSV,3,2,10,01,30,221,26,11,25,307,26,03,08,225,28,00,00,000,00*7D
$GPGSV,3,3,10,22,64,094,40,09,24,045,38*76
GPSD,Y=ID5c 1164524314.000 7:19 26 249 27 0:18 26 96 32 1:1 30 221 26 0:11 25 307 26 0:3 8 225 28 0:22 64 94 40 1:9 24 45 38 1:
$GPGGA,065835,5332.3087,N,11329.9351,W,1,03,3.72,699.04,M,-19.813,M,,*78
$GPRMC,065835,A,5332.3087,N,11329.9351,W,0.0000,0.000,261106,,*3D
GPSD,O=ID8f20 1164524315.000 0.005 53.538478489 -113.498917806 699.041 55.858 ? 0.0000 0.000 0.000 ? 111.72 ? 2
$GPGSA,A,2,22,09,18,,,,,,,,,,3.9,3.7,1.0*3C
$PGRME,0.00,M,0.00,M,35.29,M*23
GPSD,O=ID6d 1164524315.000 0.005 53.538478489 -113.498917806 699.041 55.858 ? 0.0000 0.000 0.000 ? 111.72 ? 2
$GPGGA,065837,5332.3087,N,11329.9351,W,1,03,3.72,699.05,M,-19.813,M,,*7B
$GPRMC,065837,A,5332.3087,N,11329.9351,W,0.0000,0.000,261106,,*3F
GPSD,O=ID8f20 1164524317.000 0.005 53.538478154 -113.498917722 699.048 55.871 ? 0.0000 0.000 0.000 ? 55.86 ? 2
$GPGSA,A,2,22,09,18,,,,,,,,,,3.9,3.7,1.0*3C
$PGRME,0.00,M,0.00,M,35.30,M*2B
GPSD,O=ID6d 1164524317.000 0.005 53.538478154 -113.498917722 699.048 55.871 ? 0.0000 0.000 0.000 ? 55.86 ? 2
$GPGGA,065838,5332.3087,N,11329.9351,W,1,03,3.73,699.05,M,-19.813,M,,*75
$GPRMC,065838,A,5332.3087,N,11329.9351,W,0.0000,0.000,261106,,*30
GPSD,O=ID8f20 1164524318.000 0.005 53.538477986 -113.498917722 699.051 55.884 ? 0.0000 0.000 0.000 ? 111.76 ? 2
$GPGGA,065839,5332.3087,N,11329.9351,W,1,03,3.73,699.05,M,-19.813,M,,*74
$GPRMC,065839,A,5332.3087,N,11329.9351,W,0.0000,0.000,261106,,*31
GPSD,O=ID8f20 1164524319.000 0.005 53.538477818 -113.498917638 699.054 55.884 ? 0.0000 0.000 0.000 ? 111.77 ? 2
$GPGSV,3,1,10,00,00,000,00,19,26,249,27,00,00,000,00,18,26,096,30*7D
$GPGSV,3,2,10,01,30,221,26,11,25,307,26,03,07,225,28,00,00,000,00*72
$GPGSV,3,3,10,22,64,094,40,09,24,045,39*77
GPSD,Y=ID5c 1164524319.000 7:19 26 249 27 0:18 26 96 30 1:1 30 221 26 0:11 25 307 26 0:3 7 225 28 0:22 64 94 40 1:9 24 45 39 1:
$GPGSA,A,2,22,09,18,,,,,,,,,,3.9,3.7,1.0*3C
GPSD,O=ID6d 1164524319.000 0.005 53.538477818 -113.498917638 699.054 55.884 ? 0.0000 0.000 0.000 ? 111.77 ? 2
$GPGGA,065841,5332.3086,N,11329.9350,W,1,03,3.73,699.06,M,-19.813,M,,*78
$GPRMC,065841,A,5332.3086,N,11329.9350,W,0.0000,0.000,261106,,*3E
GPSD,O=ID8f20 1164524321.000 0.005 53.538477399 -113.498917470 699.060 55.897 ? 0.0000 0.000 0.000 ? 55.89 ? 2
$GPGSA,A,2,22,09,18,,,,,,,,,,3.9,3.7,1.0*3C
GPSD,O=ID6d 1164524321.000 0.005 53.538477399 -113.498917470 699.060 55.897 ? 0.0000 0.000 0.000 ? 55.89 ? 2
$GPGGA,065842,5332.3086,N,11329.9350,W,1,03,3.73,699.06,M,-19.813,M,,*7B
$GPRMC,065842,A,5332.3086,N,11329.9350,W,0.0000,0.000,261106,,*3D
GPSD,O=ID8f20 1164524322.000 0.005 53.538477148 -113.498917387 699.063 55.911 ? 0.0000 0.000 0.000 ? 111.81 ? 2
$GPGGA,065843,5332.3086,N,11329.9350,W,1,03,3.73,699.07,M,-19.813,M,,*7B
$GPRMC,065843,A,5332.3086,N,11329.9350,W,0.0000,0.000,261106,,*3C
GPSD,O=ID8f20 1164524323.000 0.005 53.538476980 -113.498917303 699.066 55.911 ? 0.0000 0.000 0.000 ? 111.82 ? 2
$GPGGA,065844,5332.3086,N,11329.9350,W,1,03,3.73,699.07,M,-19.813,M,,*7C
$GPRMC,065844,A,5332.3086,N,11329.9350,W,0.0000,0.000,261106,,*3B
GPSD,O=ID8f20 1164524324.000 0.005 53.538476812 -113.498917219 699.069 55.911 ? 0.0000 0.000 0.000 ? 111.82 ? 2
$GPGGA,065845,5332.3086,N,11329.9350,W,1,03,3.73,699.07,M,-19.813,M,,*7D
$GPRMC,065845,A,5332.3086,N,11329.9350,W,0.0000,0.000,261106,,*3A
GPSD,O=ID8f20 1164524325.000 0.005 53.538476561 -113.498917135 699.072 55.911 ? 0.0000 0.000 0.000 ? ? ? 2
$GPGSA,A,2,22,09,18,,,,,,,,,,3.9,3.7,1.0*3C
GPSD,O=ID6d 1164524325.000 0.005 53.538476561 -113.498917135 699.072 55.911 ? 0.0000 0.000 0.000 ? ? ? 2
$GPGGA,065846,5332.3086,N,11329.9350,W,1,03,3.73,699.08,M,-19.813,M,,*71
$GPRMC,065846,A,5332.3086,N,11329.9350,W,0.0000,0.000,261106,,*39
GPSD,O=ID8f20 1164524326.000 0.005 53.538476393 -113.498917135 699.075 55.937 ? 0.0000 0.000 0.000 ? 111.85 ? 2
$GPGSA,A,2,22,09,18,,,,,,,,,,3.9,3.7,1.0*3C
GPSD,O=ID6d 1164524326.000 0.005 53.538476393 -113.498917135 699.075 55.937 ? 0.0000 0.000 0.000 ? 111.85 ? 2
$GPGGA,065847,5332.3086,N,11329.9350,W,1,03,3.73,699.08,M,-19.813,M,,*70
$GPRMC,065847,A,5332.3086,N,11329.9350,W,0.0000,0.000,261106,,*38
GPSD,O=ID8f20 1164524327.000 0.005 53.538476142 -113.498917051 699.078 55.937 ? 0.0000 0.000 0.000 ? 111.87 ? 2
$GPGGA,065848,5332.3086,N,11329.9350,W,1,03,3.73,699.08,M,-19.813,M,,*7F
$GPRMC,065848,A,5332.3086,N,11329.9350,W,0.0000,0.000,261106,,*37
GPSD,O=ID8f20 1164524328.000 0.005 53.538475974 -113.498916968 699.080 55.937 ? 0.0000 0.000 0.000 ? 111.87 ? 2
$GPGGA,065849,5332.3085,N,11329.9350,W,1,03,3.73,699.08,M,-19.813,M,,*7D
$GPRMC,065849,A,5332.3085,N,11329.9350,W,0.0000,0.000,261106,,*35
GPSD,O=ID8f20 1164524329.000 0.005 53.538475723 -113.498916884 699.083 55.937 ? 0.0000 0.000 0.000 ? 111.87 ? 2
$GPGSA,A,2,22,09,18,,,,,,,,,,3.9,3.7,1.0*3C
GPSD,O=ID6d ? 0.005 53.538475723 -113.498916884 699.083 55.937 ? 0.0000 0.000 0.000 ? 111.87 ? 2
$GPGSV,3,1,10,00,00,000,00,19,26,249,27,00,00,000,00,18,26,096,28*74
$GPGSV,3,2,10,01,30,221,26,11,25,307,26,03,07,225,28,00,00,000,00*72
$GPGSV,3,3,10,22,64,094,39,09,24,045,37*77
GPSD,Y=ID5c 1164524329.430 7:19 26 249 27 0:18 26 96 28 1:1 30 221 26 0:11 25 307 26 0:3 7 225 28 0:22 64 94 39 1:9 24 45 37 1:
$GPGGA,065850,5332.3085,N,11329.9350,W,1,03,3.73,699.09,M,-19.813,M,,*74
$GPRMC,065850,A,5332.3085,N,11329.9350,W,0.0000,0.000,261106,,*3D
GPSD,O=ID8f20 1164524330.000 0.005 53.538475555 -113.498916800 699.086 55.950 ? 0.0000 0.000 0.000 ? ? ? 2
$GPGSA,A,2,22,09,18,,,,,,,,,,3.9,3.7,1.0*3C
$PGRME,0.00,M,0.00,M,35.34,M*2F
GPSD,O=ID6d 1164524330.000 0.005 53.538475555 -113.498916800 699.086 55.950 ? 0.0000 0.000 0.000 ? ? ? 2
$GPGGA,065851,5332.3085,N,11329.9350,W,1,03,3.73,699.09,M,-19.813,M,,*75
$GPRMC,065851,A,5332.3085,N,11329.9350,W,0.0000,0.000,261106,,*3C
GPSD,O=ID8f20 1164524331.000 0.005 53.538475388 -113.498916800 699.089 55.965 ? 0.0000 0.000 0.000 ? 111.91 ? 2
$GPGSA,A,2,22,09,18,,,,,,,,,,3.9,3.7,1.0*3C
$PGRME,0.00,M,0.00,M,35.35,M*2E
GPSD,O=ID6d 1164524331.000 0.005 53.538475388 -113.498916800 699.089 55.965 ? 0.0000 0.000 0.000 ? 111.91 ? 2
$GPGGA,065852,5332.3085,N,11329.9350,W,1,03,3.73,699.09,M,-19.813,M,,*76
$GPRMC,065852,A,5332.3085,N,11329.9350,W,0.0000,0.000,261106,,*3F
GPSD,O=ID8f20 1164524332.000 0.005 53.538475136 -113.498916716 699.091 55.965 ? 0.0000 0.000 0.000 ? 111.93 ? 2
$GPGSA,A,2,22,09,18,,,,,,,,,,3.9,3.7,1.0*3C
$PGRME,0.00,M,0.00,M,35.35,M*2E
GPSD,O=ID6d 1164524332.000 0.005 53.538475136 -113.498916716 699.091 55.965 ? 0.0000 0.000 0.000 ? 111.93 ? 2
$GPGGA,065853,5332.3085,N,11329.9350,W,1,03,3.73,699.09,M,-19.813,M,,*77
$GPRMC,065853,A,5332.3085,N,11329.9350,W,0.0000,0.000,261106,,*3E
GPSD,O=ID8f20 1164524333.000 0.005 53.538474968 -113.498916632 699.094 55.978 ? 0.0000 0.000 0.000 ? 111.94 ? 2
$GPGSA,A,2,22,09,18,,,,,,,,,,3.9,3.7,1.0*3C
$PGRME,0.00,M,0.00,M,35.36,M*2D
GPSD,O=ID6d 1164524333.000 0.005 53.538474968 -113.498916632 699.094 55.978 ? 0.0000 0.000 0.000 ? 111.94 ? 2
$GPGGA,065854,5332.3085,N,11329.9350,W,1,03,3.73,699.10,M,-19.813,M,,*78
$GPRMC,065854,A,5332.3085,N,11329.9350,W,0.0000,0.000,261106,,*39
GPSD,O=ID8f20 1164524334.000 0.005 53.538474717 -113.498916548 699.097 55.978 ? 0.0000 0.000 0.000 ? 111.96 ? 2
$GPGSA,A,2,22,09,,,,,,,,,,,0.0,0.0,0.0*3A
