$GPGSV,3,1,12,04,51,189,00,11,63,142,46,23,22,187,45,20,69,250,45*7D
$GPGSV,3,2,12,13,34,231,00,07,35,297,43,02,13,316,00,01,49,069,46*71
$GPGSV,3,3,12,27,46,082,00,14,18,040,47,25,18,090,45,24,43,294,47*77
{"class":"SKY","tag":"MID4","time":1118480771.990,"reported":12,"satellites":[{"PRN":4,"el":51,"az":189,"ss":0,"used":false},{"PRN":11,"el":63,"az":142,"ss":46,"used":false},{"PRN":23,"el":22,"az":187,"ss":45,"used":false},{"PRN":20,"el":69,"az":250,"ss":45,"used":false},{"PRN":13,"el":34,"az":231,"ss":0,"used":false},{"PRN":7,"el":35,"az":297,"ss":43,"used":false},{"PRN":2,"el":13,"az":316,"ss":0,"used":false},{"PRN":1,"el":49,"az":69,"ss":46,"used":false},{"PRN":27,"el":46,"az":82,"ss":0,"used":false},{"PRN":14,"el":18,"az":40,"ss":47,"used":false},{"PRN":25,"el":18,"az":90,"ss":45,"used":false},{"PRN":24,"el":43,"az":294,"ss":47,"used":false}]}
$GPGGA,090611,5203.7606,N,00508.3161,E,1,08,1.80,33.30,M,46.772,M,,*74
$GPRMC,090611,A,5203.7606,N,00508.3161,E,0.0000,0.000,110605,,*2A
$GPGSA,A,3,11,23,20,07,01,14,25,24,,,,,2.1,1.8,1.8*30
{"class":"TPV","tag":"MID2","time":1118480771.990,"ept":0.005,"lat":52.062675883,"lon":5.138600900,"alt":33.299,"eph":27.000,"epv":41.027,"track":0.0000,"speed":0.000,"climb":0.000,"mode":3}
$GPGGA,090613,5203.7605,N,00508.3168,E,1,08,1.80,34.43,M,46.772,M,,*7F
$GPRMC,090613,A,5203.7605,N,00508.3168,E,0.0447,54.442,110605,,*16
$GPGSA,A,3,11,23,20,07,01,14,25,24,,,,,0.8,1.8,1.0*33
{"class":"TPV","tag":"MID98","time":1118480773.999,"ept":0.005,"lat":52.062675221,"lon":5.138613239,"alt":34.425,"eph":27.000,"epv":41.027,"track":54.4418,"speed":0.023,"climb":0.024,"eps":26.88,"mode":3}
$GPGGA,090614,5203.7605,N,00508.3168,E,1,08,1.80,34.44,M,46.772,M,,*7F
$GPRMC,090614,A,5203.7605,N,00508.3168,E,0.0525,55.231,110605,,*17
$GPGSA,A,3,11,23,20,07,01,14,25,24,,,,,0.8,1.8,1.0*33
{"class":"TPV","tag":"MID98","time":1118480774.999,"ept":0.005,"lat":52.062674648,"lon":5.138613239,"alt":34.441,"eph":27.000,"epv":41.027,"track":55.2310,"speed":0.027,"climb":0.027,"eps":26.88,"mode":3}
$GPGGA,090615,5203.7605,N,00508.3168,E,1,08,1.80,34.46,M,46.772,M,,*7C
$GPRMC,090615,A,5203.7605,N,00508.3168,E,0.0467,53.664,110605,,*13
$GPGSA,A,3,11,23,20,07,01,14,25,24,,,,,0.8,1.8,1.0*33
{"class":"TPV","tag":"MID98","time":1118480775.999,"ept":0.005,"lat":52.062674648,"lon":5.138613239,"alt":34.458,"eph":27.000,"epv":41.027,"track":53.6641,"speed":0.024,"climb":0.024,"eps":26.88,"mode":3}
$GPGGA,090616,5203.7605,N,00508.3168,E,1,08,1.80,34.47,M,46.772,M,,*7E
$GPRMC,090616,A,5203.7605,N,00508.3168,E,0.0525,57.361,110605,,*13
$GPGSA,A,3,11,23,20,07,01,14,25,24,,,,,0.8,1.8,1.0*33
{"class":"TPV","tag":"MID98","time":1118480776.999,"ept":0.005,"lat":52.062674648,"lon":5.138613239,"alt":34.472,"eph":27.000,"epv":41.027,"track":57.3607,"speed":0.027,"climb":0.026,"eps":26.88,"mode":3}
$GPGGA,090617,5203.7605,N,00508.3168,E,1,08,1.80,34.49,M,46.772,M,,*71
$GPRMC,090617,A,5203.7605,N,00508.3168,E,0.0467,50.658,110605,,*1D
$GPGSA,A,3,11,23,20,07,01,14,25,24,,,,,0.8,1.8,1.0*33
$PGRME,0.00,M,0.00,M,7.32,M*18
{"class":"TPV","tag":"MID98","time":1118480777.999,"ept":0.005,"lat":52.062674648,"lon":5.138613239,"alt":34.488,"eph":27.000,"epv":41.027,"track":50.6579,"speed":0.024,"climb":0.025,"eps":26.88,"mode":3}
$GPGSV,3,1,12,04,51,189,00,11,63,142,47,23,22,187,44,20,69,250,44*7C
$GPGSV,3,2,12,13,34,231,00,07,35,297,43,02,13,316,00,01,49,069,47*70
$GPGSV,3,3,12,27,46,082,00,14,18,040,46,25,18,090,44,24,43,294,48*78
{"class":"SKY","tag":"MID4","time":1118480776.990,"reported":12,"satellites":[{"PRN":4,"el":51,"az":189,"ss":0,"used":false},{"PRN":11,"el":63,"az":142,"ss":47,"used":true},{"PRN":23,"el":22,"az":187,"ss":44,"used":true},{"PRN":20,"el":69,"az":250,"ss":44,"used":true},{"PRN":13,"el":34,"az":231,"ss":0,"used":false},{"PRN":7,"el":35,"az":297,"ss":43,"used":true},{"PRN":2,"el":13,"az":316,"ss":0,"used":false},{"PRN":1,"el":49,"az":69,"ss":47,"used":true},{"PRN":27,"el":46,"az":82,"ss":0,"used":false},{"PRN":14,"el":18,"az":40,"ss":46,"used":true},{"PRN":25,"el":18,"az":90,"ss":44,"used":true},{"PRN":24,"el":43,"az":294,"ss":48,"used":true}]}
$GPGGA,090618,5203.7605,N,00508.3168,E,1,08,1.80,34.50,M,46.772,M,,*76
$GPRMC,090618,A,5203.7605,N,00508.3168,E,0.0583,58.520,110605,,*1D
$GPGSA,A,3,11,23,20,07,01,14,25,24,,,,,0.8,1.8,1.0*33
$PGRME,0.00,M,0.00,M,7.32,M*18
{"class":"TPV","tag":"MID98","time":1118480778.999,"ept":0.005,"lat":52.062674648,"lon":5.138613239,"alt":34.504,"eph":27.000,"epv":41.027,"track":58.5200,"speed":0.030,"climb":0.029,"eps":26.88,"mode":3}
$GPGGA,090619,5203.7605,N,00508.3168,E,1,08,1.80,34.53,M,46.772,M,,*74
$GPRMC,090619,A,5203.7605,N,00508.3168,E,0.0525,52.550,110605,,*1D
$GPGSA,A,3,11,23,20,07,01,14,25,24,,,,,0.8,1.8,1.0*33
$PGRME,0.00,M,0.00,M,7.32,M*18
{"class":"TPV","tag":"MID98","time":1118480779.999,"ept":0.005,"lat":52.062674648,"lon":5.138613239,"alt":34.525,"eph":27.000,"epv":41.027,"track":52.5503,"speed":0.027,"climb":0.027,"eps":26.88,"mode":3}
$GPGGA,090620,5203.7604,N,00508.3168,E,1,08,1.80,34.55,M,46.772,M,,*79
$GPRMC,090620,A,5203.7604,N,00508.3168,E,0.0544,52.048,110605,,*1D
$GPGSA,A,3,11,23,20,07,01,14,25,24,,,,,0.8,1.8,1.0*33
{"class":"TPV","tag":"MID98","time":1118480780.999,"ept":0.005,"lat":52.062674075,"lon":5.138613239,"alt":34.545,"eph":27.000,"epv":41.027,"track":52.0477,"speed":0.028,"climb":0.026,"eps":26.88,"mode":3}
$GPGGA,090621,5203.7604,N,00508.3168,E,1,08,1.80,34.56,M,46.772,M,,*7B
$GPRMC,090621,A,5203.7604,N,00508.3168,E,0.0505,57.303,110605,,*10
$GPGSA,A,3,11,23,20,07,01,14,25,24,,,,,0.8,1.8,1.0*33
{"class":"TPV","tag":"MID98","time":1118480781.999,"ept":0.005,"lat":52.062674075,"lon":5.138613239,"alt":34.563,"eph":27.000,"epv":41.027,"track":57.3033,"speed":0.026,"climb":0.027,"eps":26.88,"mode":3}
$GPGGA,090622,5203.7604,N,00508.3168,E,1,08,1.80,34.58,M,46.772,M,,*76
$GPRMC,090622,A,5203.7604,N,00508.3168,E,0.0544,50.157,110605,,*12
$GPGSA,A,3,11,23,20,07,01,14,25,24,,,,,0.8,1.8,1.0*33
{"class":"TPV","tag":"MID98","time":1118480782.999,"ept":0.005,"lat":52.062674075,"lon":5.138613239,"alt":34.581,"eph":27.000,"epv":41.027,"track":50.1571,"speed":0.028,"climb":0.027,"eps":26.88,"mode":3}
$GPGSV,3,1,12,04,51,189,00,11,63,142,47,23,22,187,44,20,69,250,45*7D
$GPGSV,3,2,12,13,34,231,00,07,35,297,43,02,13,316,00,01,49,069,47*70
$GPGSV,3,3,12,27,46,082,00,14,18,040,46,25,18,090,44,24,43,294,48*78
{"class":"SKY","tag":"MID4","time":1118480781.990,"reported":12,"satellites":[{"PRN":4,"el":51,"az":189,"ss":0,"used":false},{"PRN":11,"el":63,"az":142,"ss":47,"used":true},{"PRN":23,"el":22,"az":187,"ss":44,"used":true},{"PRN":20,"el":69,"az":250,"ss":45,"used":true},{"PRN":13,"el":34,"az":231,"ss":0,"used":false},{"PRN":7,"el":35,"az":297,"ss":43,"used":true},{"PRN":2,"el":13,"az":316,"ss":0,"used":false},{"PRN":1,"el":49,"az":69,"ss":47,"used":true},{"PRN":27,"el":46,"az":82,"ss":0,"used":false},{"PRN":14,"el":18,"az":40,"ss":46,"used":true},{"PRN":25,"el":18,"az":90,"ss":44,"used":true},{"PRN":24,"el":43,"az":294,"ss":48,"used":true}]}
$GPGGA,090623,5203.7604,N,00508.3168,E,1,08,1.80,34.60,M,46.772,M,,*7C
$GPRMC,090623,A,5203.7604,N,00508.3168,E,0.0544,53.626,110605,,*11
$GPGSA,A,3,11,23,20,07,01,14,25,24,,,,,0.8,1.8,1.0*33
{"class":"TPV","tag":"MID98","time":1118480783.999,"ept":0.005,"lat":52.062674075,"lon":5.138613239,"alt":34.599,"eph":27.000,"epv":41.027,"track":53.6261,"speed":0.028,"climb":0.025,"eps":26.88,"mode":3}
$GPGGA,090624,5203.7604,N,00508.3168,E,1,08,1.80,34.61,M,46.772,M,,*7A
$GPRMC,090624,A,5203.7604,N,00508.3168,E,0.0505,52.472,110605,,*11
$GPGSA,A,3,11,23,20,07,01,14,25,24,,,,,0.8,1.8,1.0*33
{"class":"TPV","tag":"MID98","time":1118480784.999,"ept":0.005,"lat":52.062674075,"lon":5.138613239,"alt":34.614,"eph":27.000,"epv":41.027,"track":52.4722,"speed":0.026,"climb":0.024,"eps":26.88,"mode":3}
$GPGGA,090625,5203.7604,N,00508.3168,E,1,08,1.80,34.63,M,46.772,M,,*79
$GPRMC,090625,A,5203.7604,N,00508.3168,E,0.0544,46.638,110605,,*1C
$GPGSA,A,3,11,23,20,07,01,14,25,24,,,,,0.8,1.8,1.0*33
{"class":"TPV","tag":"MID98","time":1118480785.998,"ept":0.005,"lat":52.062674075,"lon":5.138613239,"alt":34.628,"eph":27.000,"epv":41.027,"track":46.6380,"speed":0.028,"climb":0.027,"eps":26.88,"mode":3}
$GPGGA,090626,5203.7604,N,00508.3168,E,1,08,1.80,34.65,M,46.772,M,,*7C
$GPRMC,090626,A,5203.7604,N,00508.3168,E,0.0525,52.472,110605,,*11
$GPGSA,A,3,11,23,20,07,01,14,25,24,,,,,0.8,1.8,1.0*33
{"class":"TPV","tag":"MID98","time":1118480786.998,"ept":0.005,"lat":52.062674075,"lon":5.138613239,"alt":34.645,"eph":27.000,"epv":41.027,"track":52.4723,"speed":0.027,"climb":0.025,"eps":26.88,"mode":3}
$GPGGA,090627,5203.7604,N,00508.3168,E,1,08,1.80,34.66,M,46.772,M,,*7E
$GPRMC,090627,A,5203.7604,N,00508.3168,E,0.0467,55.803,110605,,*1A
$GPGSA,A,3,11,23,20,07,01,14,25,24,,,,,0.8,1.8,1.0*33
{"class":"TPV","tag":"MID98","time":1118480787.999,"ept":0.005,"lat":52.062674075,"lon":5.138613239,"alt":34.660,"eph":27.000,"epv":41.027,"track":55.8031,"speed":0.024,"climb":0.024,"eps":26.88,"mode":3}
$GPGSV,3,1,12,04,51,189,00,11,63,142,47,23,22,187,45,20,69,250,44*7D
$GPGSV,3,2,12,13,34,231,00,07,35,297,42,02,13,316,00,01,49,069,47*71
$GPGSV,3,3,12,27,46,082,00,14,18,040,47,25,18,090,44,24,43,294,48*79
{"class":"SKY","tag":"MID4","time":1118480786.990,"reported":12,"satellites":[{"PRN":4,"el":51,"az":189,"ss":0,"used":false},{"PRN":11,"el":63,"az":142,"ss":47,"used":true},{"PRN":23,"el":22,"az":187,"ss":45,"used":true},{"PRN":20,"el":69,"az":250,"ss":44,"used":true},{"PRN":13,"el":34,"az":231,"ss":0,"used":false},{"PRN":7,"el":35,"az":297,"ss":42,"used":true},{"PRN":2,"el":13,"az":316,"ss":0,"used":false},{"PRN":1,"el":49,"az":69,"ss":47,"used":true},{"PRN":27,"el":46,"az":82,"ss":0,"used":false},{"PRN":14,"el":18,"az":40,"ss":47,"used":true},{"PRN":25,"el":18,"az":90,"ss":44,"used":true},{"PRN":24,"el":43,"az":294,"ss":48,"used":true}]}
$GPGGA,090628,5203.7604,N,00508.3168,E,1,08,1.80,34.68,M,46.772,M,,*7F
$GPRMC,090628,A,5203.7604,N,00508.3168,E,0.0544,57.676,110605,,*1B
$GPGSA,A,3,11,23,20,07,01,14,25,24,,,,,0.8,1.8,1.0*33
{"class":"TPV","tag":"MID98","time":1118480788.999,"ept":0.005,"lat":52.062674075,"lon":5.138613239,"alt":34.676,"eph":27.000,"epv":41.027,"track":57.6760,"speed":0.028,"climb":0.026,"eps":26.88,"mode":3}
$GPGGA,090629,5203.7604,N,00508.3168,E,1,08,1.80,34.69,M,46.772,M,,*7F
$GPRMC,090629,A,5203.7604,N,00508.3168,E,0.0505,47.992,110605,,*1B
$GPGSA,A,3,11,23,20,07,01,14,25,24,,,,,0.8,1.8,1.0*33
{"class":"TPV","tag":"MID98","time":1118480789.999,"ept":0.005,"lat":52.062674075,"lon":5.138613239,"alt":34.694,"eph":27.000,"epv":41.027,"track":47.9916,"speed":0.026,"climb":0.027,"eps":26.88,"mode":3}
$GPGGA,090630,5203.7604,N,00508.3168,E,1,08,1.80,34.71,M,46.772,M,,*7E
$GPRMC,090630,A,5203.7604,N,00508.3168,E,0.0525,54.404,110605,,*11
$GPGSA,A,3,11,23,20,07,01,14,25,24,,,,,0.8,1.8,1.0*33
{"class":"TPV","tag":"MID98","time":1118480790.999,"ept":0.005,"lat":52.062674075,"lon":5.138613239,"alt":34.713,"eph":27.000,"epv":41.027,"track":54.4040,"speed":0.027,"climb":0.027,"eps":26.88,"mode":3}
$GPGGA,090631,5203.7604,N,00508.3168,E,1,08,1.80,34.73,M,46.772,M,,*7D
$GPRMC,090631,A,5203.7604,N,00508.3168,E,0.0544,57.430,110605,,*13
$GPGSA,A,3,11,23,20,07,01,14,25,24,,,,,0.8,1.8,1.0*33
{"class":"TPV","tag":"MID98","time":1118480791.999,"ept":0.005,"lat":52.062674075,"lon":5.138613239,"alt":34.732,"eph":27.000,"epv":41.027,"track":57.4299,"speed":0.028,"climb":0.029,"eps":26.88,"mode":3}
$GPGGA,090632,5203.7604,N,00508.3168,E,1,08,1.80,34.75,M,46.772,M,,*78
$GPRMC,090632,A,5203.7604,N,00508.3168,E,0.0505,50.753,110605,,*14
$GPGSA,A,3,11,23,20,07,01,14,25,24,,,,,0.8,1.8,1.0*33
$PGRME,0.00,M,0.00,M,7.32,M*18
{"class":"TPV","tag":"MID98","time":1118480792.999,"ept":0.005,"lat":52.062673502,"lon":5.138613239,"alt":34.754,"eph":27.000,"epv":41.027,"track":50.7535,"speed":0.026,"climb":0.024,"eps":26.88,"mode":3}
$GPGSV,3,1,12,04,51,189,00,11,63,142,47,23,22,187,45,20,69,250,44*7D
$GPGSV,3,2,12,13,34,231,00,07,35,297,44,02,13,316,00,01,49,069,47*77
$GPGSV,3,3,12,27,46,082,00,14,18,040,47,25,18,090,44,24,43,294,47*76
{"class":"SKY","tag":"MID4","time":1118480791.990,"reported":12,"satellites":[{"PRN":4,"el":51,"az":189,"ss":0,"used":false},{"PRN":11,"el":63,"az":142,"ss":47,"used":true},{"PRN":23,"el":22,"az":187,"ss":45,"used":true},{"PRN":20,"el":69,"az":250,"ss":44,"used":true},{"PRN":13,"el":34,"az":231,"ss":0,"used":false},{"PRN":7,"el":35,"az":297,"ss":44,"used":true},{"PRN":2,"el":13,"az":316,"ss":0,"used":false},{"PRN":1,"el":49,"az":69,"ss":47,"used":true},{"PRN":27,"el":46,"az":82,"ss":0,"used":false},{"PRN":14,"el":18,"az":40,"ss":47,"used":true},{"PRN":25,"el":18,"az":90,"ss":44,"used":true},{"PRN":24,"el":43,"az":294,"ss":47,"used":true}]}
$GPGGA,090633,5203.7604,N,00508.3168,E,1,08,1.80,34.77,M,46.772,M,,*7B
$GPRMC,090633,A,5203.7604,N,00508.3168,E,0.0525,55.771,110605,,*12
$GPGSA,A,3,11,23,20,07,01,14,25,24,,,,,0.8,1.8,1.0*33
$PGRME,0.00,M,0.00,M,7.32,M*18
{"class":"TPV","tag":"MID98","time":1118480793.999,"ept":0.005,"lat":52.062673502,"lon":5.138613239,"alt":34.770,"eph":27.000,"epv":41.027,"track":55.7710,"speed":0.027,"climb":0.025,"eps":26.88,"mode":3}
$GPGGA,090634,5203.7604,N,00508.3168,E,1,08,1.80,34.79,M,46.772,M,,*72
$GPRMC,090634,A,5203.7604,N,00508.3168,E,0.0525,56.120,110605,,*14
$GPGSA,A,3,11,23,20,07,01,14,25,24,,,,,0.8,1.8,1.0*33
$PGRME,0.00,M,0.00,M,7.32,M*18
{"class":"TPV","tag":"MID98","time":1118480794.999,"ept":0.005,"lat":52.062673502,"lon":5.138613239,"alt":34.788,"eph":27.000,"epv":41.027,"track":56.1196,"speed":0.027,"climb":0.029,"eps":26.88,"mode":3}
$GPGGA,090635,5203.7604,N,00508.3168,E,1,08,1.80,34.81,M,46.772,M,,*74
$GPRMC,090635,A,5203.7604,N,00508.3168,E,0.0505,55.137,110605,,*12
$GPGSA,A,3,11,23,20,07,01,14,25,24,,,,,0.8,1.8,1.0*33
$PGRME,0.00,M,0.00,M,7.32,M*18
{"class":"TPV","tag":"MID98","time":1118480795.999,"ept":0.005,"lat":52.062673502,"lon":5.138613239,"alt":34.810,"eph":27.000,"epv":41.027,"track":55.1368,"speed":0.026,"climb":0.027,"eps":26.88,"mode":3}
$GPGGA,090636,5203.7604,N,00508.3168,E,1,08,1.80,34.83,M,46.772,M,,*75
$GPRMC,090636,A,5203.7604,N,00508.3168,E,0.0525,56.312,110605,,*15
$GPGSA,A,3,11,23,20,07,01,14,25,24,,,,,0.8,1.8,1.0*33
$PGRME,0.00,M,0.00,M,7.32,M*18
{"class":"TPV","tag":"MID98","time":1118480796.999,"ept":0.005,"lat":52.062673502,"lon":5.138613239,"alt":34.830,"eph":27.000,"epv":41.027,"track":56.3121,"speed":0.027,"climb":0.027,"eps":26.88,"mode":3}
$GPGGA,090637,5203.7604,N,00508.3168,E,1,08,1.80,34.85,M,46.772,M,,*72
$GPRMC,090637,A,5203.7604,N,00508.3168,E,0.0564,56.963,110605,,*1D
$GPGSA,A,3,11,23,20,07,01,14,25,24,,,,,0.8,1.8,1.0*33
$PGRME,0.00,M,0.00,M,7.32,M*18
{"class":"TPV","tag":"MID98","time":1118480797.999,"ept":0.005,"lat":52.062673502,"lon":5.138613239,"alt":34.850,"eph":27.000,"epv":41.027,"track":56.9633,"speed":0.029,"climb":0.028,"eps":26.88,"mode":3}
$GPGSV,3,1,12,04,51,189,00,11,63,142,47,23,22,187,45,20,69,250,45*7C
$GPGSV,3,2,12,13,34,231,00,07,35,297,43,02,13,316,00,01,49,069,47*70
$GPGSV,3,3,12,27,46,082,00,14,18,040,47,25,18,090,44,24,43,294,48*79
{"class":"SKY","tag":"MID4","time":1118480796.990,"reported":12,"satellites":[{"PRN":4,"el":51,"az":189,"ss":0,"used":false},{"PRN":11,"el":63,"az":142,"ss":47,"used":true},{"PRN":23,"el":22,"az":187,"ss":45,"used":true},{"PRN":20,"el":69,"az":250,"ss":45,"used":true},{"PRN":13,"el":34,"az":231,"ss":0,"used":false},{"PRN":7,"el":35,"az":297,"ss":43,"used":true},{"PRN":2,"el":13,"az":316,"ss":0,"used":false},{"PRN":1,"el":49,"az":69,"ss":47,"used":true},{"PRN":27,"el":46,"az":82,"ss":0,"used":false},{"PRN":14,"el":18,"az":40,"ss":47,"used":true},{"PRN":25,"el":18,"az":90,"ss":44,"used":true},{"PRN":24,"el":43,"az":294,"ss":48,"used":true}]}
$GPGGA,090638,5203.7604,N,00508.3168,E,1,08,1.80,34.87,M,46.772,M,,*7F
$GPRMC,090638,A,5203.7604,N,00508.3168,E,0.0467,50.169,110605,,*14
$GPGSA,A,3,11,23,20,07,01,14,25,24,,,,,0.8,1.8,1.0*33
{"class":"TPV","tag":"MID98","time":1118480798.999,"ept":0.005,"lat":52.062673502,"lon":5.138613239,"alt":34.871,"eph":27.000,"epv":41.027,"track":50.1692,"speed":0.024,"climb":0.027,"eps":26.88,"mode":3}
$GPGGA,090639,5203.7604,N,00508.3168,E,1,08,1.80,34.89,M,46.772,M,,*70
$GPRMC,090639,A,5203.7604,N,00508.3168,E,0.0583,59.282,110605,,*11
$GPGSA,A,3,11,23,20,07,01,14,25,24,,,,,0.8,1.8,1.0*33
{"class":"TPV","tag":"MID98","time":1118480799.999,"ept":0.005,"lat":52.062673502,"lon":5.138613239,"alt":34.891,"eph":27.000,"epv":41.027,"track":59.2822,"speed":0.030,"climb":0.026,"eps":26.88,"mode":3}
$GPGGA,090640,5203.7604,N,00508.3168,E,1,08,1.80,34.91,M,46.772,M,,*77
$GPRMC,090640,A,5203.7604,N,00508.3168,E,0.0583,50.788,110605,,*19
$GPGSA,A,3,11,23,20,07,01,14,25,24,,,,,0.8,1.8,1.0*33
{"class":"TPV","tag":"MID98","time":1118480800.999,"ept":0.005,"lat":52.062673502,"lon":5.138613239,"alt":34.908,"eph":27.000,"epv":41.027,"track":50.7882,"speed":0.030,"climb":0.027,"eps":26.88,"mode":3}
$GPGGA,090641,5203.7604,N,00508.3168,E,1,08,1.80,34.93,M,46.772,M,,*74
$GPRMC,090641,A,5203.7604,N,00508.3168,E,0.0544,52.764,110605,,*13
$GPGSA,A,3,11,23,20,07,01,14,25,24,,,,,0.8,1.8,1.0*33
{"class":"TPV","tag":"MID98","time":1118480801.999,"ept":0.005,"lat":52.062673502,"lon":5.138613239,"alt":34.927,"eph":27.000,"epv":41.027,"track":52.7638,"speed":0.028,"climb":0.028,"eps":26.88,"mode":3}
$GPGGA,090642,5203.7604,N,00508.3168,E,1,08,1.80,34.95,M,46.772,M,,*71
$GPRMC,090642,A,5203.7604,N,00508.3168,E,0.0525,53.233,110605,,*11
$GPGSA,A,3,11,23,20,07,01,14,25,24,,,,,0.8,1.8,1.0*33
{"class":"TPV","tag":"MID98","time":1118480802.999,"ept":0.005,"lat":52.062673502,"lon":5.138613239,"alt":34.947,"eph":27.000,"epv":41.027,"track":53.2332,"speed":0.027,"climb":0.026,"eps":26.88,"mode":3}
$GPGSV,3,1,12,04,51,189,00,11,63,142,47,23,22,187,45,20,69,250,45*7C
$GPGSV,3,2,12,13,34,231,00,07,35,297,44,02,13,316,00,01,49,069,46*76
$GPGSV,3,3,12,27,46,082,00,14,18,040,47,25,18,090,45,24,43,294,47*77
{"class":"SKY","tag":"MID4","time":1118480801.990,"reported":12,"satellites":[{"PRN":4,"el":51,"az":189,"ss":0,"used":false},{"PRN":11,"el":63,"az":142,"ss":47,"used":true},{"PRN":23,"el":22,"az":187,"ss":45,"used":true},{"PRN":20,"el":69,"az":250,"ss":45,"used":true},{"PRN":13,"el":34,"az":231,"ss":0,"used":false},{"PRN":7,"el":35,"az":297,"ss":44,"used":true},{"PRN":2,"el":13,"az":316,"ss":0,"used":false},{"PRN":1,"el":49,"az":69,"ss":46,"used":true},{"PRN":27,"el":46,"az":82,"ss":0,"used":false},{"PRN":14,"el":18,"az":40,"ss":47,"used":true},{"PRN":25,"el":18,"az":90,"ss":45,"used":true},{"PRN":24,"el":43,"az":294,"ss":47,"used":true}]}
$GPGGA,090643,5203.7604,N,00508.3168,E,1,08,1.80,34.97,M,46.772,M,,*72
$GPRMC,090643,A,5203.7604,N,00508.3168,E,0.0525,57.787,110605,,*1E
$GPGSA,A,3,11,23,20,07,01,14,25,24,,,,,0.8,1.8,1.0*33
$PGRME,0.00,M,0.00,M,7.32,M*18
{"class":"TPV","tag":"MID98","time":1118480803.999,"ept":0.005,"lat":52.062673502,"lon":5.138613239,"alt":34.965,"eph":27.000,"epv":41.027,"track":57.7866,"speed":0.027,"climb":0.026,"eps":26.88,"mode":3}
$GPGGA,090644,5203.7604,N,00508.3168,E,1,08,1.80,34.98,M,46.772,M,,*7A
$GPRMC,090644,A,5203.7604,N,00508.3168,E,0.0544,53.946,110605,,*19
$GPGSA,A,3,11,23,20,07,01,14,25,24,,,,,0.8,1.8,1.0*33
$PGRME,0.00,M,0.00,M,7.32,M*18
{"class":"TPV","tag":"MID98","time":1118480804.998,"ept":0.005,"lat":52.062673502,"lon":5.138613239,"alt":34.983,"eph":27.000,"epv":41.027,"track":53.9462,"speed":0.028,"climb":0.025,"eps":26.88,"mode":3}
$GPGGA,090645,5203.7604,N,00508.3168,E,1,08,1.80,35.00,M,46.772,M,,*7B
$GPRMC,090645,A,5203.7604,N,00508.3168,E,0.0467,53.835,110605,,*1D
$GPGSA,A,3,11,23,20,07,01,14,25,24,,,,,0.8,1.8,1.0*33
$PGRME,0.00,M,0.00,M,7.32,M*18
{"class":"TPV","tag":"MID98","time":1118480805.998,"ept":0.005,"lat":52.062673502,"lon":5.138613239,"alt":35.001,"eph":27.000,"epv":41.027,"track":53.8351,"speed":0.024,"climb":0.024,"eps":26.88,"mode":3}
$GPGGA,090646,5203.7604,N,00508.3168,E,1,08,1.80,35.02,M,46.772,M,,*7A
$GPRMC,090646,A,5203.7604,N,00508.3168,E,0.0486,56.661,110605,,*1B
$GPGSA,A,3,11,23,20,07,01,14,25,24,,,,,0.8,1.8,1.0*33
$PGRME,0.00,M,0.00,M,7.32,M*18
{"class":"TPV","tag":"MID98","time":1118480806.999,"ept":0.005,"lat":52.062673502,"lon":5.138613239,"alt":35.017,"eph":27.000,"epv":41.027,"track":56.6610,"speed":0.025,"climb":0.023,"eps":26.88,"mode":3}
$GPGGA,090647,5203.7604,N,00508.3168,E,1,08,1.80,35.03,M,46.772,M,,*7A
$GPRMC,090647,A,5203.7604,N,00508.3168,E,0.0583,56.423,110605,,*1A
$GPGSA,A,3,11,23,20,07,01,14,25,24,,,,,0.8,1.8,1.0*33
{"class":"TPV","tag":"MID98","time":1118480807.999,"ept":0.005,"lat":52.062673502,"lon":5.138613239,"alt":35.032,"eph":27.000,"epv":41.027,"track":56.4233,"speed":0.030,"climb":0.028,"eps":26.88,"mode":3}
$GPGSV,3,1,12,04,51,189,00,11,63,142,47,23,22,187,45,20,69,250,45*7C
$GPGSV,3,2,12,13,34,231,00,07,35,297,44,02,13,316,00,01,49,069,47*77
$GPGSV,3,3,12,27,46,082,00,14,18,040,47,25,18,090,44,24,43,294,47*76
{"class":"SKY","tag":"MID4","time":1118480806.990,"reported":12,"satellites":[{"PRN":4,"el":51,"az":189,"ss":0,"used":false},{"PRN":11,"el":63,"az":142,"ss":47,"used":true},{"PRN":23,"el":22,"az":187,"ss":45,"used":true},{"PRN":20,"el":69,"az":250,"ss":45,"used":true},{"PRN":13,"el":34,"az":231,"ss":0,"used":false},{"PRN":7,"el":35,"az":297,"ss":44,"used":true},{"PRN":2,"el":13,"az":316,"ss":0,"used":false},{"PRN":1,"el":49,"az":69,"ss":47,"used":true},{"PRN":27,"el":46,"az":82,"ss":0,"used":false},{"PRN":14,"el":18,"az":40,"ss":47,"used":true},{"PRN":25,"el":18,"az":90,"ss":44,"used":true},{"PRN":24,"el":43,"az":294,"ss":47,"used":true}]}
$GPGGA,090648,5203.7604,N,00508.3168,E,1,08,1.80,35.05,M,46.772,M,,*73
$GPRMC,090648,A,5203.7604,N,00508.3168,E,0.0544,53.197,110605,,*11
$GPGSA,A,3,11,23,20,07,01,14,25,24,,,,,0.8,1.8,1.0*33
{"class":"TPV","tag":"MID98","time":1118480808.999,"ept":0.005,"lat":52.062673502,"lon":5.138613239,"alt":35.052,"eph":27.000,"epv":41.027,"track":53.1973,"speed":0.028,"climb":0.026,"eps":26.88,"mode":3}
$GPGGA,090649,5203.7604,N,00508.3168,E,1,08,1.80,35.07,M,46.772,M,,*70
$GPRMC,090649,A,5203.7604,N,00508.3168,E,0.0525,50.564,110605,,*1C
$GPGSA,A,3,11,23,20,07,01,14,25,24,,,,,0.8,1.8,1.0*33
$PGRME,0.00,M,0.00,M,7.32,M*18
{"class":"TPV","tag":"MID98","time":1118480809.999,"ept":0.005,"lat":52.062673502,"lon":5.138612666,"alt":35.068,"eph":27.000,"epv":41.027,"track":50.5642,"speed":0.027,"climb":0.024,"eps":26.88,"mode":3}
$GPGGA,090650,5203.7604,N,00508.3168,E,1,08,1.80,35.08,M,46.772,M,,*77
$GPRMC,090650,A,5203.7604,N,00508.3168,E,0.0564,54.515,110605,,*13
$GPGSA,A,3,11,23,20,07,01,14,25,24,,,,,0.8,1.8,1.0*33
$PGRME,0.00,M,0.00,M,7.32,M*18
{"class":"TPV","tag":"MID98","time":1118480810.999,"ept":0.005,"lat":52.062672929,"lon":5.138612666,"alt":35.084,"eph":27.000,"epv":41.027,"track":54.5150,"speed":0.029,"climb":0.026,"eps":26.88,"mode":3}
$GPGGA,090651,5203.7604,N,00508.3168,E,1,08,1.80,35.10,M,46.772,M,,*7F
$GPRMC,090651,A,5203.7604,N,00508.3168,E,0.0544,53.714,110605,,*14
$GPGSA,A,3,11,23,20,07,01,14,25,24,,,,,0.8,1.8,1.0*33
$PGRME,0.00,M,0.00,M,7.32,M*18
{"class":"TPV","tag":"MID98","time":1118480811.999,"ept":0.005,"lat":52.062672929,"lon":5.138612666,"alt":35.101,"eph":27.000,"epv":41.027,"track":53.7143,"speed":0.028,"climb":0.028,"eps":26.88,"mode":3}
