$GPGGA,203543,5333.7954,N,11326.3727,W,1,08,,655.33,M,-19.872,M,,*64
$GPRMC,203543,A,5333.7954,N,11326.3727,W,0.0000,0.000,280109,,*31
$GPGSA,A,3,-171798692,1073962024,2146959360,2146959360,2146959360,2146959360,2146959360,,,,,,,,,,,,,,,,,,,,,,,,,,,,,,,,,,,,,,,,,,,,2.4,0.0,0.0*2A
{"class":"TPV","tag":"0x0106","time":1233174943.001,"ept":0.005,"lat":53.563256267,"lon":-113.439544853,"alt":655.331,"track":0.0000,"speed":0.000,"climb":0.000,"mode":3}
$GPGSA,A,0,-171798692,1073962024,1717986918,1072850534,1889785610,1073809981,1717986918,1073112678,1717986918,1074161254,-1546188227,1078394224,,,,,,,,,,,,,,,,,,,,,,,,,,,,,,,,,,,,,,,2.4,1.1,2.1*06
$GPGSV,3,1,11,21,73,276,33,24,56,094,46,15,40,113,30,18,40,217,43*7B
$GPGSV,3,2,11,26,40,087,45,29,40,164,34,16,28,280,33,10,21,056,38*70
$GPGSV,3,3,11,22,09,225,29,27,06,055,24,07,05,000,25*4E
{"class":"SKY","tag":"0x0130","time":1233174943.001,"reported":11,"satellites":[{"PRN":21,"el":73,"az":276,"ss":33,"used":true},{"PRN":24,"el":56,"az":94,"ss":46,"used":true},{"PRN":15,"el":40,"az":113,"ss":30,"used":true},{"PRN":18,"el":40,"az":217,"ss":43,"used":true},{"PRN":26,"el":40,"az":87,"ss":45,"used":true},{"PRN":29,"el":40,"az":164,"ss":34,"used":true},{"PRN":16,"el":28,"az":280,"ss":33,"used":true},{"PRN":10,"el":21,"az":56,"ss":38,"used":true},{"PRN":22,"el":9,"az":225,"ss":29,"used":false},{"PRN":27,"el":6,"az":55,"ss":24,"used":false},{"PRN":7,"el":5,"az":0,"ss":25,"used":false}]}
$GPGGA,203544,5333.7952,N,11326.3727,W,1,08,1.15,655.35,M,-19.872,M,,*78
$GPRMC,203544,A,5333.7952,N,11326.3727,W,0.0000,0.000,280109,,*30
$GPGSA,A,3,21,24,15,18,26,29,16,10,-171798692,1073962024,1717986918,1072850534,1889785610,1073809981,1717986918,1073112678,1717986918,1074161254,2146959360,11,21,24,15,18,26,29,16,10,22,27,07,,,,,,,,,,,,,,,,,,,,2.4,1.1,2.1*2F
{"class":"TPV","tag":"0x0106","time":1233174944.001,"ept":0.005,"lat":53.563254092,"lon":-113.439545157,"alt":655.348,"epx":17.250,"epy":17.250,"epv":48.990,"track":0.0000,"speed":0.000,"climb":0.000,"eps":34.50,"mode":3}
$GPGSA,A,0,21,24,15,18,26,29,16,10,-171798692,1073962024,1717986918,1072850534,1889785610,1073809981,1717986918,1073112678,1717986918,1074161254,-1546188227,1078394224,11,21,24,15,18,26,29,16,10,22,27,07,,,,,,,,,,,,,,,,,,,2.4,1.1,2.1*04
$GPGSV,3,1,11,21,73,276,32,24,56,094,46,15,40,113,30,18,40,217,43*7A
$GPGSV,3,2,11,26,40,087,45,29,40,164,34,16,28,280,33,10,21,056,39*71
$GPGSV,3,3,11,22,09,225,29,27,06,055,24,07,05,000,26*4D
{"class":"SKY","tag":"0x0130","time":1233174944.001,"reported":11,"satellites":[{"PRN":21,"el":73,"az":276,"ss":32,"used":true},{"PRN":24,"el":56,"az":94,"ss":46,"used":true},{"PRN":15,"el":40,"az":113,"ss":30,"used":true},{"PRN":18,"el":40,"az":217,"ss":43,"used":true},{"PRN":26,"el":40,"az":87,"ss":45,"used":true},{"PRN":29,"el":40,"az":164,"ss":34,"used":true},{"PRN":16,"el":28,"az":280,"ss":33,"used":true},{"PRN":10,"el":21,"az":56,"ss":39,"used":true},{"PRN":22,"el":9,"az":225,"ss":29,"used":false},{"PRN":27,"el":6,"az":55,"ss":24,"used":false},{"PRN":7,"el":5,"az":0,"ss":26,"used":false}]}
$GPGGA,203545,5333.7951,N,11326.3728,W,1,08,1.15,655.25,M,-19.872,M,,*74
$GPRMC,203545,A,5333.7951,N,11326.3728,W,0.0000,0.000,280109,,*3D
$GPGSA,A,3,21,24,15,18,26,29,16,10,-171798692,1073962024,1717986918,1072850534,1889785610,1073809981,1717986918,1073112678,1717986918,1074161254,2146959360,11,21,24,15,18,26,29,16,10,22,27,07,,,,,,,,,,,,,,,,,,,,2.4,1.1,2.1*2F
{"class":"TPV","tag":"0x0106","time":1233174945.001,"ept":0.005,"lat":53.563252364,"lon":-113.439546320,"alt":655.254,"epx":17.250,"epy":17.250,"epv":48.990,"track":0.0000,"speed":0.000,"climb":0.000,"eps":34.50,"mode":3}
$GPGSA,A,0,21,24,15,18,26,29,16,10,-171798692,1073962024,1717986918,1072850534,1889785610,1073809981,1717986918,1073112678,1717986918,1074161254,-1546188227,1078394224,11,21,24,15,18,26,29,16,10,22,27,07,,,,,,,,,,,,,,,,,,,2.4,1.1,2.1*04
$GPGSV,3,1,11,21,73,276,32,24,56,094,46,15,40,113,31,18,40,217,43*7B
$GPGSV,3,2,11,26,40,087,45,29,40,164,34,16,28,280,32,10,21,056,39*70
$GPGSV,3,3,11,22,09,225,29,27,06,055,24,07,05,000,25*4E
{"class":"SKY","tag":"0x0130","time":1233174945.001,"reported":11,"satellites":[{"PRN":21,"el":73,"az":276,"ss":32,"used":true},{"PRN":24,"el":56,"az":94,"ss":46,"used":true},{"PRN":15,"el":40,"az":113,"ss":31,"used":true},{"PRN":18,"el":40,"az":217,"ss":43,"used":true},{"PRN":26,"el":40,"az":87,"ss":45,"used":true},{"PRN":29,"el":40,"az":164,"ss":34,"used":true},{"PRN":16,"el":28,"az":280,"ss":32,"used":true},{"PRN":10,"el":21,"az":56,"ss":39,"used":true},{"PRN":22,"el":9,"az":225,"ss":29,"used":false},{"PRN":27,"el":6,"az":55,"ss":24,"used":false},{"PRN":7,"el":5,"az":0,"ss":25,"used":false}]}
$GPGGA,203546,5333.7950,N,11326.3728,W,1,07,1.15,655.18,M,-19.872,M,,*77
$GPRMC,203546,A,5333.7950,N,11326.3728,W,0.0000,0.000,280109,,*3F
$GPGSA,A,3,21,24,15,18,26,29,16,10,-1717986918,1073977753,1717986918,1072850534,1889785610,1073809981,1717986918,1073112678,1717986918,1074161254,-1546188227,1078394224,11,21,24,15,18,26,29,16,10,22,27,07,,,,,,,,,,,,,,,,,,,2.5,1.1,2.1*3E
{"class":"TPV","tag":"0x0106","time":1233174946.001,"ept":0.005,"lat":53.563250639,"lon":-113.439547224,"alt":655.184,"epx":17.250,"epy":17.250,"epv":48.990,"track":0.0000,"speed":0.000,"climb":0.000,"eps":34.50,"mode":3}
$GPGSA,A,0,21,24,15,18,26,29,16,10,-1717986918,1073977753,-171798692,1072913448,1889785610,1073809981,687194767,1073123164,171798692,1074176983,2146959360,11,21,24,15,18,26,29,16,10,22,27,07,,,,,,,,,,,,,,,,,,,,2.5,1.2,2.1*0C
$GPGSV,3,1,11,21,73,276,33,24,56,094,46,15,40,113,30,18,40,217,43*7B
$GPGSV,3,2,11,26,40,087,45,29,40,164,34,16,28,280,32,10,21,056,39*70
$GPGSV,3,3,11,22,09,225,30,27,06,055,24,07,05,000,25*46
{"class":"SKY","tag":"0x0130","time":1233174946.001,"reported":11,"satellites":[{"PRN":21,"el":73,"az":276,"ss":33,"used":true},{"PRN":24,"el":56,"az":94,"ss":46,"used":true},{"PRN":15,"el":40,"az":113,"ss":30,"used":false},{"PRN":18,"el":40,"az":217,"ss":43,"used":true},{"PRN":26,"el":40,"az":87,"ss":45,"used":true},{"PRN":29,"el":40,"az":164,"ss":34,"used":true},{"PRN":16,"el":28,"az":280,"ss":32,"used":true},{"PRN":10,"el":21,"az":56,"ss":39,"used":true},{"PRN":22,"el":9,"az":225,"ss":30,"used":false},{"PRN":27,"el":6,"az":55,"ss":24,"used":false},{"PRN":7,"el":5,"az":0,"ss":25,"used":false}]}
$GPGGA,203547,5333.7949,N,11326.3729,W,1,07,1.21,655.14,M,-19.872,M,,*74
$GPRMC,203547,A,5333.7949,N,11326.3729,W,0.0000,0.000,280109,,*37
$GPGSA,A,3,21,24,18,26,29,16,10,10,-1717986918,1073977753,-171798692,1072913448,1889785610,1073809981,687194767,1073123164,171798692,1074176983,1717986919,1078412902,11,21,24,15,18,26,29,16,10,22,27,07,,,,,,,,,,,,,,,,,,,2.5,1.2,2.1*0F
{"class":"TPV","tag":"0x0106","time":1233174947.001,"ept":0.005,"lat":53.563249045,"lon":-113.439548267,"alt":655.141,"epx":18.150,"epy":18.150,"epv":48.990,"track":0.0000,"speed":0.000,"climb":0.000,"eps":35.40,"mode":3}
$GPGSA,A,0,21,24,18,26,29,16,10,10,-1717986918,1073977753,-171798692,1072913448,1889785610,1073809981,687194767,1073123164,171798692,1074176983,2146959360,11,21,24,15,18,26,29,16,10,22,27,07,,,,,,,,,,,,,,,,,,,,2.5,1.2,2.1*09
$GPGSV,3,1,11,21,73,276,33,24,56,094,46,15,40,113,29,18,40,217,43*73
$GPGSV,3,2,11,26,40,087,45,29,40,164,33,16,28,280,32,10,21,056,39*77
$GPGSV,3,3,11,22,09,225,30,27,06,055,25,07,05,000,25*47
{"class":"SKY","tag":"0x0130","time":1233174947.001,"reported":11,"satellites":[{"PRN":21,"el":73,"az":276,"ss":33,"used":true},{"PRN":24,"el":56,"az":94,"ss":46,"used":true},{"PRN":15,"el":40,"az":113,"ss":29,"used":false},{"PRN":18,"el":40,"az":217,"ss":43,"used":true},{"PRN":26,"el":40,"az":87,"ss":45,"used":true},{"PRN":29,"el":40,"az":164,"ss":33,"used":true},{"PRN":16,"el":28,"az":280,"ss":32,"used":true},{"PRN":10,"el":21,"az":56,"ss":39,"used":true},{"PRN":22,"el":9,"az":225,"ss":30,"used":false},{"PRN":27,"el":6,"az":55,"ss":25,"used":false},{"PRN":7,"el":5,"az":0,"ss":25,"used":false}]}
$GPGGA,203548,5333.7948,N,11326.3730,W,1,07,1.21,655.09,M,-19.872,M,,*7E
$GPRMC,203548,A,5333.7948,N,11326.3730,W,0.0000,0.000,280109,,*31
$GPGSA,A,3,21,24,18,26,29,16,10,10,-1717986918,1073977753,-171798692,1072913448,1889785610,1073809981,687194767,1073123164,171798692,1074176983,1717986919,1078412902,11,21,24,15,18,26,29,16,10,22,27,07,,,,,,,,,,,,,,,,,,,2.5,1.2,2.1*0F
{"class":"TPV","tag":"0x0106","time":1233174948.001,"ept":0.005,"lat":53.563247427,"lon":-113.439549171,"alt":655.088,"epx":18.150,"epy":18.150,"epv":48.990,"track":0.0000,"speed":0.000,"climb":0.000,"eps":36.30,"mode":3}
$GPGSA,A,0,21,24,18,26,29,16,10,10,-1717986918,1073977753,-171798692,1072913448,1889785610,1073809981,687194767,1073123164,171798692,1074176983,2146959360,11,21,24,15,18,26,29,16,10,22,27,07,,,,,,,,,,,,,,,,,,,,2.5,1.2,2.1*09
$GPGSV,3,1,11,21,73,276,32,24,56,094,46,15,40,113,29,18,40,217,43*72
$GPGSV,3,2,11,26,40,087,45,29,40,164,33,16,28,280,32,10,21,056,39*77
$GPGSV,3,3,11,22,09,225,29,27,06,055,24,07,05,000,25*4E
{"class":"SKY","tag":"0x0130","time":1233174948.001,"reported":11,"satellites":[{"PRN":21,"el":73,"az":276,"ss":32,"used":true},{"PRN":24,"el":56,"az":94,"ss":46,"used":true},{"PRN":15,"el":40,"az":113,"ss":29,"used":false},{"PRN":18,"el":40,"az":217,"ss":43,"used":true},{"PRN":26,"el":40,"az":87,"ss":45,"used":true},{"PRN":29,"el":40,"az":164,"ss":33,"used":true},{"PRN":16,"el":28,"az":280,"ss":32,"used":true},{"PRN":10,"el":21,"az":56,"ss":39,"used":true},{"PRN":22,"el":9,"az":225,"ss":29,"used":false},{"PRN":27,"el":6,"az":55,"ss":24,"used":false},{"PRN":7,"el":5,"az":0,"ss":25,"used":false}]}
$GPGGA,203549,5333.7947,N,11326.3730,W,1,07,1.21,655.02,M,-19.872,M,,*7B
$GPRMC,203549,A,5333.7947,N,11326.3730,W,0.0000,0.000,280109,,*3F
$GPGSA,A,3,21,24,18,26,29,16,10,10,-1717986918,1073977753,-171798692,1072913448,1889785610,1073809981,687194767,1073123164,171798692,1074176983,1717986919,1078412902,11,21,24,15,18,26,29,16,10,22,27,07,,,,,,,,,,,,,,,,,,,2.5,1.2,2.1*0F
{"class":"TPV","tag":"0x0106","time":1233174949.001,"ept":0.005,"lat":53.563245784,"lon":-113.439549937,"alt":655.024,"epx":18.150,"epy":18.150,"epv":48.990,"track":0.0000,"speed":0.000,"climb":0.000,"eps":36.30,"mode":3}
$GPGSA,A,0,21,24,18,26,29,16,10,10,-1717986918,1073977753,-171798692,1072913448,1889785610,1073809981,687194767,1073123164,171798692,1074176983,2146959360,11,21,24,15,18,26,29,16,10,22,27,07,,,,,,,,,,,,,,,,,,,,2.5,1.2,2.1*09
$GPGSV,3,1,12,21,73,276,32,24,56,094,46,15,40,113,26,18,40,217,43*7E
$GPGSV,3,2,12,26,40,087,45,29,40,164,33,16,28,280,32,10,21,056,39*74
$GPGSV,3,3,12,03,10,317,25,22,09,225,30,27,06,055,25,07,05,000,25*74
{"class":"SKY","tag":"0x0130","time":1233174949.001,"reported":12,"satellites":[{"PRN":21,"el":73,"az":276,"ss":32,"used":true},{"PRN":24,"el":56,"az":94,"ss":46,"used":true},{"PRN":15,"el":40,"az":113,"ss":26,"used":false},{"PRN":18,"el":40,"az":217,"ss":43,"used":true},{"PRN":26,"el":40,"az":87,"ss":45,"used":true},{"PRN":29,"el":40,"az":164,"ss":33,"used":true},{"PRN":16,"el":28,"az":280,"ss":32,"used":true},{"PRN":10,"el":21,"az":56,"ss":39,"used":true},{"PRN":3,"el":10,"az":317,"ss":25,"used":false},{"PRN":22,"el":9,"az":225,"ss":30,"used":false},{"PRN":27,"el":6,"az":55,"ss":25,"used":false},{"PRN":7,"el":5,"az":0,"ss":25,"used":false}]}
$GPGGA,203550,5333.7947,N,11326.3731,W,1,07,1.21,654.88,M,-19.872,M,,*71
$GPRMC,203550,A,5333.7947,N,11326.3731,W,0.0000,0.000,280109,,*36
$GPGSA,A,3,21,24,18,26,29,16,10,10,-1717986918,1073977753,-171798692,1072913448,1889785610,1073809981,687194767,1073123164,171798692,1074176983,1717986919,1078412902,12,21,24,15,18,26,29,16,10,03,22,27,07,,,,,,,,,,,,,,,,,,2.5,1.2,2.1*0F
{"class":"TPV","tag":"0x0106","time":1233174950.001,"ept":0.005,"lat":53.563244338,"lon":-113.439551123,"alt":654.882,"epx":18.150,"epy":18.150,"epv":48.990,"track":0.0000,"speed":0.000,"climb":0.000,"eps":36.30,"mode":3}
$GPGSA,A,0,21,24,18,26,29,16,10,10,-1717986918,1073977753,-171798692,1072913448,1889785610,1073809981,687194767,1073123164,171798692,1074176983,2146959360,12,21,24,15,18,26,29,16,10,03,22,27,07,,,,,,,,,,,,,,,,,,,2.5,1.2,2.1*09
$GPGSV,3,1,12,21,73,276,31,24,56,094,46,15,40,113,23,18,40,217,43*78
$GPGSV,3,2,12,26,40,087,45,29,40,164,33,16,28,280,31,10,21,056,39*77
$GPGSV,3,3,12,03,10,317,24,22,09,225,30,27,06,055,25,07,05,000,26*76
{"class":"SKY","tag":"0x0130","time":1233174950.001,"reported":12,"satellites":[{"PRN":21,"el":73,"az":276,"ss":31,"used":true},{"PRN":24,"el":56,"az":94,"ss":46,"used":true},{"PRN":15,"el":40,"az":113,"ss":23,"used":false},{"PRN":18,"el":40,"az":217,"ss":43,"used":true},{"PRN":26,"el":40,"az":87,"ss":45,"used":true},{"PRN":29,"el":40,"az":164,"ss":33,"used":true},{"PRN":16,"el":28,"az":280,"ss":31,"used":true},{"PRN":10,"el":21,"az":56,"ss":39,"used":true},{"PRN":3,"el":10,"az":317,"ss":24,"used":false},{"PRN":22,"el":9,"az":225,"ss":30,"used":false},{"PRN":27,"el":6,"az":55,"ss":25,"used":false},{"PRN":7,"el":5,"az":0,"ss":26,"used":false}]}
$GPGGA,203551,5333.7946,N,11326.3731,W,1,07,1.21,654.80,M,-19.872,M,,*79
$GPRMC,203551,A,5333.7946,N,11326.3731,W,0.0000,0.000,280109,,*36
$GPGSA,A,3,21,24,18,26,29,16,10,10,-1717986918,1073977753,-171798692,1072913448,1889785610,1073809981,687194767,1073123164,171798692,1074176983,1717986919,1078412902,12,21,24,15,18,26,29,16,10,03,22,27,07,,,,,,,,,,,,,,,,,,2.5,1.2,2.1*0F
{"class":"TPV","tag":"0x0106","time":1233174951.001,"ept":0.005,"lat":53.563242857,"lon":-113.439551871,"alt":654.804,"epx":18.150,"epy":18.150,"epv":48.990,"track":0.0000,"speed":0.000,"climb":0.000,"eps":36.30,"mode":3}
$GPGSA,A,0,21,24,18,26,29,16,10,10,-1717986918,1073977753,-171798692,1072913448,1889785610,1073809981,687194767,1073123164,171798692,1074176983,2146959360,12,21,24,15,18,26,29,16,10,03,22,27,07,,,,,,,,,,,,,,,,,,,2.5,1.2,2.1*09
$GPGSV,3,1,12,21,73,276,31,24,56,094,46,15,40,113,25,18,40,217,43*7E
$GPGSV,3,2,12,26,40,087,45,29,40,164,33,16,28,280,32,10,21,056,39*74
$GPGSV,3,3,12,03,10,317,24,22,09,225,30,27,06,055,25,07,05,000,26*76
{"class":"SKY","tag":"0x0130","time":1233174951.001,"reported":12,"satellites":[{"PRN":21,"el":73,"az":276,"ss":31,"used":true},{"PRN":24,"el":56,"az":94,"ss":46,"used":true},{"PRN":15,"el":40,"az":113,"ss":25,"used":false},{"PRN":18,"el":40,"az":217,"ss":43,"used":true},{"PRN":26,"el":40,"az":87,"ss":45,"used":true},{"PRN":29,"el":40,"az":164,"ss":33,"used":true},{"PRN":16,"el":28,"az":280,"ss":32,"used":true},{"PRN":10,"el":21,"az":56,"ss":39,"used":true},{"PRN":3,"el":10,"az":317,"ss":24,"used":false},{"PRN":22,"el":9,"az":225,"ss":30,"used":false},{"PRN":27,"el":6,"az":55,"ss":25,"used":false},{"PRN":7,"el":5,"az":0,"ss":26,"used":false}]}
$GPGGA,203552,5333.7945,N,11326.3731,W,1,07,1.21,654.84,M,-19.872,M,,*7D
$GPRMC,203552,A,5333.7945,N,11326.3731,W,0.0000,0.000,280109,,*36
$GPGSA,A,3,21,24,18,26,29,16,10,10,-1717986918,1073977753,-171798692,1072913448,1889785610,1073809981,687194767,1073123164,171798692,1074176983,1717986919,1078412902,12,21,24,15,18,26,29,16,10,03,22,27,07,,,,,,,,,,,,,,,,,,2.5,1.2,2.1*0F
{"class":"TPV","tag":"0x0106","time":1233174952.001,"ept":0.005,"lat":53.563241243,"lon":-113.439552276,"alt":654.838,"epx":18.150,"epy":18.150,"epv":48.990,"track":0.0000,"speed":0.000,"climb":0.000,"eps":36.30,"mode":3}
$GPGSA,A,0,21,24,18,26,29,16,10,10,-1717986918,1073977753,-171798692,1072913448,1374389535,1073815224,687194767,1073123164,171798692,1074176983,2146959360,12,21,24,15,18,26,29,16,10,03,22,27,07,,,,,,,,,,,,,,,,,,,2.5,1.2,2.1*05
$GPGSV,3,1,12,21,73,276,31,24,56,094,45,15,40,113,25,18,40,217,43*7D
$GPGSV,3,2,12,26,40,087,45,29,40,164,33,16,28,280,32,10,21,056,39*74
$GPGSV,3,3,12,03,10,317,25,22,09,225,30,27,06,055,25,07,05,000,25*74
{"class":"SKY","tag":"0x0130","time":1233174952.001,"reported":12,"satellites":[{"PRN":21,"el":73,"az":276,"ss":31,"used":true},{"PRN":24,"el":56,"az":94,"ss":45,"used":true},{"PRN":15,"el":40,"az":113,"ss":25,"used":false},{"PRN":18,"el":40,"az":217,"ss":43,"used":true},{"PRN":26,"el":40,"az":87,"ss":45,"used":true},{"PRN":29,"el":40,"az":164,"ss":33,"used":true},{"PRN":16,"el":28,"az":280,"ss":32,"used":true},{"PRN":10,"el":21,"az":56,"ss":39,"used":true},{"PRN":3,"el":10,"az":317,"ss":25,"used":false},{"PRN":22,"el":9,"az":225,"ss":30,"used":false},{"PRN":27,"el":6,"az":55,"ss":25,"used":false},{"PRN":7,"el":5,"az":0,"ss":25,"used":false}]}
$GPGGA,203553,5333.7944,N,11326.3731,W,1,07,1.21,654.89,M,-19.872,M,,*70
$GPRMC,203553,A,5333.7944,N,11326.3731,W,0.0000,0.000,280109,,*36
$GPGSA,A,3,21,24,18,26,29,16,10,10,-1717986918,1073977753,-171798692,1072913448,1374389535,1073815224,687194767,1073123164,171798692,1074176983,1717986919,1078412902,12,21,24,15,18,26,29,16,10,03,22,27,07,,,,,,,,,,,,,,,,,,2.5,1.2,2.1*03
{"class":"TPV","tag":"0x0106","time":1233174953.001,"ept":0.005,"lat":53.563239698,"lon":-113.439552484,"alt":654.890,"epx":18.150,"epy":18.150,"epv":49.220,"track":0.0000,"speed":0.000,"climb":0.000,"eps":36.30,"mode":3}
$GPGSA,A,0,21,24,18,26,29,16,10,10,-1717986918,1073977753,-171798692,1072913448,1889785610,1073809981,687194767,1073123164,171798692,1074176983,2146959360,12,21,24,15,18,26,29,16,10,03,22,27,07,,,,,,,,,,,,,,,,,,,2.5,1.2,2.1*09
$GPGSV,3,1,12,21,73,276,31,24,56,094,45,15,40,113,25,18,40,217,43*7D
$GPGSV,3,2,12,26,40,087,45,29,40,164,33,16,28,280,32,10,21,056,40*7A
$GPGSV,3,3,12,03,10,317,25,22,09,225,30,27,06,055,24,07,05,000,25*75
{"class":"SKY","tag":"0x0130","time":1233174953.001,"reported":12,"satellites":[{"PRN":21,"el":73,"az":276,"ss":31,"used":true},{"PRN":24,"el":56,"az":94,"ss":45,"used":true},{"PRN":15,"el":40,"az":113,"ss":25,"used":false},{"PRN":18,"el":40,"az":217,"ss":43,"used":true},{"PRN":26,"el":40,"az":87,"ss":45,"used":true},{"PRN":29,"el":40,"az":164,"ss":33,"used":true},{"PRN":16,"el":28,"az":280,"ss":32,"used":true},{"PRN":10,"el":21,"az":56,"ss":40,"used":true},{"PRN":3,"el":10,"az":317,"ss":25,"used":false},{"PRN":22,"el":9,"az":225,"ss":30,"used":false},{"PRN":27,"el":6,"az":55,"ss":24,"used":false},{"PRN":7,"el":5,"az":0,"ss":25,"used":false}]}
$GPGGA,203554,5333.7943,N,11326.3732,W,1,07,1.21,654.98,M,-19.872,M,,*73
$GPRMC,203554,A,5333.7943,N,11326.3732,W,0.0000,0.000,280109,,*35
$GPGSA,A,3,21,24,18,26,29,16,10,10,-1717986918,1073977753,-171798692,1072913448,1889785610,1073809981,687194767,1073123164,171798692,1074176983,1717986919,1078412902,12,21,24,15,18,26,29,16,10,03,22,27,07,,,,,,,,,,,,,,,,,,2.5,1.2,2.1*0F
{"class":"TPV","tag":"0x0106","time":1233174954.001,"ept":0.005,"lat":53.563238309,"lon":-113.439552968,"alt":654.979,"epx":18.150,"epy":18.150,"epv":48.990,"track":0.0000,"speed":0.000,"climb":0.000,"eps":36.30,"mode":3}
$GPGSA,A,0,21,24,18,26,29,16,10,10,-1717986918,1073977753,-171798692,1072913448,1889785610,1073809981,687194767,1073123164,171798692,1074176983,2146959360,12,21,24,15,18,26,29,16,10,03,22,27,07,,,,,,,,,,,,,,,,,,,2.5,1.2,2.1*09
$GPGSV,3,1,12,21,73,276,32,24,56,094,45,15,40,113,24,18,40,217,43*7F
$GPGSV,3,2,12,26,40,087,45,29,40,164,34,16,28,280,32,10,21,056,39*73
$GPGSV,3,3,12,03,10,317,25,22,09,225,30,27,06,055,24,07,05,000,25*75
{"class":"SKY","tag":"0x0130","time":1233174954.001,"reported":12,"satellites":[{"PRN":21,"el":73,"az":276,"ss":32,"used":true},{"PRN":24,"el":56,"az":94,"ss":45,"used":true},{"PRN":15,"el":40,"az":113,"ss":24,"used":false},{"PRN":18,"el":40,"az":217,"ss":43,"used":true},{"PRN":26,"el":40,"az":87,"ss":45,"used":true},{"PRN":29,"el":40,"az":164,"ss":34,"used":true},{"PRN":16,"el":28,"az":280,"ss":32,"used":true},{"PRN":10,"el":21,"az":56,"ss":39,"used":true},{"PRN":3,"el":10,"az":317,"ss":25,"used":false},{"PRN":22,"el":9,"az":225,"ss":30,"used":false},{"PRN":27,"el":6,"az":55,"ss":24,"used":false},{"PRN":7,"el":5,"az":0,"ss":25,"used":false}]}
$GPGGA,203555,5333.7942,N,11326.3732,W,1,07,1.21,655.09,M,-19.872,M,,*7A
$GPRMC,203555,A,5333.7942,N,11326.3732,W,0.0000,0.000,280109,,*35
$GPGSA,A,3,21,24,18,26,29,16,10,10,-1717986918,1073977753,-171798692,1072913448,1889785610,1073809981,687194767,1073123164,171798692,1074176983,1717986919,1078412902,12,21,24,15,18,26,29,16,10,03,22,27,07,,,,,,,,,,,,,,,,,,2.5,1.2,2.1*0F
{"class":"TPV","tag":"0x0106","time":1233174955.001,"ept":0.005,"lat":53.563236952,"lon":-113.439553055,"alt":655.091,"epx":18.150,"epy":18.150,"epv":48.990,"track":0.0000,"speed":0.000,"climb":0.000,"eps":36.30,"mode":3}
$GPGSA,A,0,21,24,18,26,29,16,10,10,-1717986918,1073977753,-171798692,1072913448,1889785610,1073809981,687194767,1073123164,171798692,1074176983,2146959360,12,21,24,15,18,26,29,16,10,03,22,27,07,,,,,,,,,,,,,,,,,,,2.5,1.2,2.1*09
$GPGSV,3,1,12,21,73,276,32,24,56,094,45,15,40,113,23,18,40,217,43*78
$GPGSV,3,2,12,26,40,087,45,29,40,164,33,16,28,280,33,10,21,056,39*75
$GPGSV,3,3,12,03,10,317,25,22,09,225,30,27,06,055,27,07,05,000,25*76
{"class":"SKY","tag":"0x0130","time":1233174955.001,"reported":12,"satellites":[{"PRN":21,"el":73,"az":276,"ss":32,"used":true},{"PRN":24,"el":56,"az":94,"ss":45,"used":true},{"PRN":15,"el":40,"az":113,"ss":23,"used":false},{"PRN":18,"el":40,"az":217,"ss":43,"used":true},{"PRN":26,"el":40,"az":87,"ss":45,"used":true},{"PRN":29,"el":40,"az":164,"ss":33,"used":true},{"PRN":16,"el":28,"az":280,"ss":33,"used":true},{"PRN":10,"el":21,"az":56,"ss":39,"used":true},{"PRN":3,"el":10,"az":317,"ss":25,"used":false},{"PRN":22,"el":9,"az":225,"ss":30,"used":false},{"PRN":27,"el":6,"az":55,"ss":27,"used":false},{"PRN":7,"el":5,"az":0,"ss":25,"used":false}]}
$GPGGA,203556,5333.7941,N,11326.3732,W,1,07,1.21,655.13,M,-19.872,M,,*71
$GPRMC,203556,A,5333.7941,N,11326.3732,W,0.0000,0.000,280109,,*35
$GPGSA,A,3,21,24,18,26,29,16,10,10,-1717986918,1073977753,-171798692,1072913448,1889785610,1073809981,687194767,1073123164,171798692,1074176983,1717986919,1078412902,12,21,24,15,18,26,29,16,10,03,22,27,07,,,,,,,,,,,,,,,,,,2.5,1.2,2.1*0F
{"class":"TPV","tag":"0x0106","time":1233174956.001,"ept":0.005,"lat":53.563235688,"lon":-113.439553304,"alt":655.133,"epx":18.150,"epy":18.150,"epv":48.990,"track":0.0000,"speed":0.000,"climb":0.000,"eps":36.30,"mode":3}
$GPGSA,A,0,21,24,18,26,29,16,10,10,-1717986918,1073977753,-171798692,1072913448,1889785610,1073809981,687194767,1073123164,171798692,1074176983,2146959360,12,21,24,15,18,26,29,16,10,03,22,27,07,,,,,,,,,,,,,,,,,,,2.5,1.2,2.1*09
$GPGSV,4,1,13,21,73,276,31,24,56,094,45,15,40,113,24,18,40,217,43*7A
$GPGSV,4,2,13,26,40,087,45,29,40,164,33,16,28,280,32,06,21,311,21*7C
$GPGSV,4,3,13,10,21,056,40,03,10,317,27,22,09,225,31,27,06,055,27*73
$GPGSV,4,4,13,07,05,000,25*4E
{"class":"SKY","tag":"0x0130","time":1233174956.001,"reported":13,"satellites":[{"PRN":21,"el":73,"az":276,"ss":31,"used":true},{"PRN":24,"el":56,"az":94,"ss":45,"used":true},{"PRN":15,"el":40,"az":113,"ss":24,"used":false},{"PRN":18,"el":40,"az":217,"ss":43,"used":true},{"PRN":26,"el":40,"az":87,"ss":45,"used":true},{"PRN":29,"el":40,"az":164,"ss":33,"used":true},{"PRN":16,"el":28,"az":280,"ss":32,"used":true},{"PRN":6,"el":21,"az":311,"ss":21,"used":false},{"PRN":10,"el":21,"az":56,"ss":40,"used":true},{"PRN":3,"el":10,"az":317,"ss":27,"used":false},{"PRN":22,"el":9,"az":225,"ss":31,"used":false},{"PRN":27,"el":6,"az":55,"ss":27,"used":false},{"PRN":7,"el":5,"az":0,"ss":25,"used":false}]}
$GPGGA,203557,5333.7941,N,11326.3732,W,1,07,1.21,655.18,M,-19.872,M,,*7B
$GPRMC,203557,A,5333.7941,N,11326.3732,W,0.0000,0.000,280109,,*34
$GPGSA,A,3,21,24,18,26,29,16,10,10,-1717986918,1073977753,-171798692,1072913448,1889785610,1073809981,687194767,1073123164,171798692,1074176983,1717986919,1078412902,13,21,24,15,18,26,29,16,06,10,03,22,27,07,,,,,,,,,,,,,,,,,2.5,1.2,2.1*08
{"class":"TPV","tag":"0x0106","time":1233174957.001,"ept":0.005,"lat":53.563234506,"lon":-113.439553414,"alt":655.180,"epx":18.150,"epy":18.150,"epv":48.990,"track":0.0000,"speed":0.000,"climb":0.000,"eps":36.30,"mode":3}
$GPGSA,A,0,21,24,18,26,29,16,10,10,-1717986918,1073977753,-171798692,1072913448,1889785610,1073809981,687194767,1073123164,171798692,1074176983,2146959360,13,21,24,15,18,26,29,16,06,10,03,22,27,07,,,,,,,,,,,,,,,,,,2.5,1.2,2.1*0E
$GPGSV,4,1,14,21,73,276,31,24,56,094,45,15,40,113,24,18,40,217,44*7A
$GPGSV,4,2,14,26,40,087,45,29,40,164,33,16,28,280,33,06,21,311,23*78
$GPGSV,4,3,14,10,21,056,40,03,10,317,27,22,09,225,31,08,06,036,18*70
$GPGSV,4,4,14,27,06,055,27,07,05,000,24*7E
{"class":"SKY","tag":"0x0130","time":1233174957.001,"reported":14,"satellites":[{"PRN":21,"el":73,"az":276,"ss":31,"used":true},{"PRN":24,"el":56,"az":94,"ss":45,"used":true},{"PRN":15,"el":40,"az":113,"ss":24,"used":false},{"PRN":18,"el":40,"az":217,"ss":44,"used":true},{"PRN":26,"el":40,"az":87,"ss":45,"used":true},{"PRN":29,"el":40,"az":164,"ss":33,"used":true},{"PRN":16,"el":28,"az":280,"ss":33,"used":true},{"PRN":6,"el":21,"az":311,"ss":23,"used":false},{"PRN":10,"el":21,"az":56,"ss":40,"used":true},{"PRN":3,"el":10,"az":317,"ss":27,"used":false},{"PRN":22,"el":9,"az":225,"ss":31,"used":false},{"PRN":8,"el":6,"az":36,"ss":18,"used":false},{"PRN":27,"el":6,"az":55,"ss":27,"used":false},{"PRN":7,"el":5,"az":0,"ss":24,"used":false}]}
$GPGGA,203558,5333.7940,N,11326.3732,W,1,07,1.21,655.22,M,-19.872,M,,*7C
$GPRMC,203558,A,5333.7940,N,11326.3732,W,0.0000,0.000,280109,,*3A
$GPGSA,A,3,21,24,18,26,29,16,10,10,-1717986918,1073977753,-171798692,1072913448,1889785610,1073809981,687194767,1073123164,171798692,1074176983,1717986919,1078412902,14,21,24,15,18,26,29,16,06,10,03,22,08,27,07,,,,,,,,,,,,,,,,2.5,1.2,2.1*07
{"class":"TPV","tag":"0x0106","time":1233174958.001,"ept":0.005,"lat":53.563233539,"lon":-113.439553506,"alt":655.222,"epx":18.150,"epy":18.150,"epv":48.990,"track":0.0000,"speed":0.000,"climb":0.000,"eps":36.30,"mode":3}
$GPGSA,A,0,21,24,18,26,29,16,10,10,-1717986918,1073977753,-171798692,1072913448,1889785610,1073809981,687194767,1073123164,687194767,1074171740,2146959360,14,21,24,15,18,26,29,16,06,10,03,22,08,27,07,,,,,,,,,,,,,,,,,2.5,1.2,2.1*08
$GPGSV,4,1,14,21,73,276,31,24,56,094,45,15,40,113,24,18,40,217,44*7A
$GPGSV,4,2,14,26,40,087,45,29,40,164,33,16,28,280,33,06,21,311,25*7E
$GPGSV,4,3,14,10,21,056,40,03,10,317,26,22,09,225,31,08,06,036,18*71
$GPGSV,4,4,14,27,06,055,26,07,05,000,24*7F
{"class":"SKY","tag":"0x0130","time":1233174958.001,"reported":14,"satellites":[{"PRN":21,"el":73,"az":276,"ss":31,"used":true},{"PRN":24,"el":56,"az":94,"ss":45,"used":true},{"PRN":15,"el":40,"az":113,"ss":24,"used":false},{"PRN":18,"el":40,"az":217,"ss":44,"used":true},{"PRN":26,"el":40,"az":87,"ss":45,"used":true},{"PRN":29,"el":40,"az":164,"ss":33,"used":true},{"PRN":16,"el":28,"az":280,"ss":33,"used":true},{"PRN":6,"el":21,"az":311,"ss":25,"used":false},{"PRN":10,"el":21,"az":56,"ss":40,"used":true},{"PRN":3,"el":10,"az":317,"ss":26,"used":false},{"PRN":22,"el":9,"az":225,"ss":31,"used":false},{"PRN":8,"el":6,"az":36,"ss":18,"used":false},{"PRN":27,"el":6,"az":55,"ss":26,"used":false},{"PRN":7,"el":5,"az":0,"ss":24,"used":false}]}
$GPGGA,203559,5333.7940,N,11326.3733,W,1,07,1.21,655.22,M,-19.872,M,,*7C
$GPRMC,203559,A,5333.7940,N,11326.3733,W,0.0000,0.000,280109,,*3A
$GPGSA,A,3,21,24,18,26,29,16,10,10,-1717986918,1073977753,-171798692,1072913448,1889785610,1073809981,687194767,1073123164,687194767,1074171740,1717986919,1078412902,14,21,24,15,18,26,29,16,06,10,03,22,08,27,07,,,,,,,,,,,,,,,,2.5,1.2,2.1*0E
{"class":"TPV","tag":"0x0106","time":1233174959.001,"ept":0.005,"lat":53.563232686,"lon":-113.439554175,"alt":655.218,"epx":18.150,"epy":18.150,"epv":48.990,"track":0.0000,"speed":0.000,"climb":0.000,"eps":36.30,"mode":3}
$GPGSA,A,0,21,24,18,26,29,16,10,10,-1717986918,1073977753,-171798692,1072913448,1889785610,1073809981,687194767,1073123164,171798692,1074176983,2146959360,14,21,24,15,18,26,29,16,06,10,03,22,08,27,07,,,,,,,,,,,,,,,,,2.5,1.2,2.1*01
$GPGSV,4,1,14,21,73,276,31,24,56,094,45,15,40,113,24,18,40,217,44*7A
$GPGSV,4,2,14,26,40,087,44,29,40,164,34,16,28,280,31,06,21,311,25*7A
$GPGSV,4,3,14,10,21,056,40,03,10,317,25,22,09,225,30,08,06,036,15*7E
$GPGSV,4,4,14,27,06,055,27,07,05,000,24*7E
{"class":"SKY","tag":"0x0130","time":1233174959.001,"reported":14,"satellites":[{"PRN":21,"el":73,"az":276,"ss":31,"used":true},{"PRN":24,"el":56,"az":94,"ss":45,"used":true},{"PRN":15,"el":40,"az":113,"ss":24,"used":false},{"PRN":18,"el":40,"az":217,"ss":44,"used":true},{"PRN":26,"el":40,"az":87,"ss":44,"used":true},{"PRN":29,"el":40,"az":164,"ss":34,"used":true},{"PRN":16,"el":28,"az":280,"ss":31,"used":true},{"PRN":6,"el":21,"az":311,"ss":25,"used":false},{"PRN":10,"el":21,"az":56,"ss":40,"used":true},{"PRN":3,"el":10,"az":317,"ss":25,"used":false},{"PRN":22,"el":9,"az":225,"ss":30,"used":false},{"PRN":8,"el":6,"az":36,"ss":15,"used":false},{"PRN":27,"el":6,"az":55,"ss":27,"used":false},{"PRN":7,"el":5,"az":0,"ss":24,"used":false}]}
$GPGGA,203600,5333.7939,N,11326.3733,W,1,07,1.21,655.26,M,-19.872,M,,*79
$GPRMC,203600,A,5333.7939,N,11326.3733,W,0.0000,0.000,280109,,*3B
$GPGSA,A,3,21,24,18,26,29,16,10,10,-1717986918,1073977753,-171798692,1072913448,1889785610,1073809981,687194767,1073123164,171798692,1074176983,1717986919,1078412902,14,21,24,15,18,26,29,16,06,10,03,22,08,27,07,,,,,,,,,,,,,,,,2.5,1.2,2.1*07
{"class":"TPV","tag":"0x0106","time":1233174960.001,"ept":0.005,"lat":53.563232220,"lon":-113.439554904,"alt":655.256,"epx":18.150,"epy":18.150,"epv":48.990,"track":0.0000,"speed":0.000,"climb":0.000,"eps":36.30,"mode":3}
$GPGSA,A,0,21,24,18,26,29,16,10,10,-1717986918,1073977753,-171798692,1072913448,1889785610,1073809981,687194767,1073123164,687194767,1074171740,2146959360,14,21,24,15,18,26,29,16,06,10,03,22,08,27,07,,,,,,,,,,,,,,,,,2.5,1.2,2.1*08
$GPGSV,4,1,14,21,73,276,32,24,56,094,45,15,40,113,23,18,40,217,44*7E
$GPGSV,4,2,14,26,40,087,44,29,40,164,34,16,28,280,31,06,21,311,25*7A
$GPGSV,4,3,14,10,21,056,40,03,10,317,25,22,09,225,30,08,06,036,18*73
$GPGSV,4,4,14,27,06,055,27,07,05,000,24*7E
{"class":"SKY","tag":"0x0130","time":1233174960.001,"reported":14,"satellites":[{"PRN":21,"el":73,"az":276,"ss":32,"used":true},{"PRN":24,"el":56,"az":94,"ss":45,"used":true},{"PRN":15,"el":40,"az":113,"ss":23,"used":false},{"PRN":18,"el":40,"az":217,"ss":44,"used":true},{"PRN":26,"el":40,"az":87,"ss":44,"used":true},{"PRN":29,"el":40,"az":164,"ss":34,"used":true},{"PRN":16,"el":28,"az":280,"ss":31,"used":true},{"PRN":6,"el":21,"az":311,"ss":25,"used":false},{"PRN":10,"el":21,"az":56,"ss":40,"used":true},{"PRN":3,"el":10,"az":317,"ss":25,"used":false},{"PRN":22,"el":9,"az":225,"ss":30,"used":false},{"PRN":8,"el":6,"az":36,"ss":18,"used":false},{"PRN":27,"el":6,"az":55,"ss":27,"used":false},{"PRN":7,"el":5,"az":0,"ss":24,"used":false}]}
$GPGGA,203601,5333.7939,N,11326.3733,W,1,06,1.21,655.20,M,-19.872,M,,*7F
$GPRMC,203601,A,5333.7939,N,11326.3733,W,0.0000,0.000,280109,,*3A
$GPGSA,A,3,21,24,18,26,29,16,10,10,-343597384,1074706513,-171798692,1072913448,1889785610,1073809981,687194767,1073123164,687194767,1074171740,1717986919,1078412902,14,21,24,15,18,26,29,16,06,10,03,22,08,27,07,,,,,,,,,,,,,,,,3.8,1.2,2.1*3C
{"class":"TPV","tag":"0x0106","time":1233174961.001,"ept":0.005,"lat":53.563231438,"lon":-113.439555338,"alt":655.196,"epx":18.150,"epy":18.150,"epv":48.990,"track":0.0000,"speed":0.000,"climb":0.000,"eps":36.30,"mode":3}
$GPGSA,A,0,21,24,18,26,29,16,10,10,-343597384,1074706513,-1202590843,1073186078,1717986918,1074554470,-1546188227,1073757552,-171798692,1074879528,2146959360,14,21,24,15,18,26,29,16,06,10,03,22,08,27,07,,,,,,,,,,,,,,,,,3.8,1.5,3.5*32
$GPGSV,4,1,14,21,73,276,32,24,56,094,45,15,40,113,24,18,40,217,44*79
$GPGSV,4,2,14,26,40,087,44,29,40,164,34,16,28,280,31,06,21,311,28*77
$GPGSV,4,3,14,10,21,056,40,03,10,317,25,22,09,225,30,08,06,036,18*73
$GPGSV,4,4,14,27,06,055,27,07,05,000,24*7E
{"class":"SKY","tag":"0x0130","time":1233174961.001,"reported":14,"satellites":[{"PRN":21,"el":73,"az":276,"ss":32,"used":false},{"PRN":24,"el":56,"az":94,"ss":45,"used":true},{"PRN":15,"el":40,"az":113,"ss":24,"used":false},{"PRN":18,"el":40,"az":217,"ss":44,"used":true},{"PRN":26,"el":40,"az":87,"ss":44,"used":true},{"PRN":29,"el":40,"az":164,"ss":34,"used":true},{"PRN":16,"el":28,"az":280,"ss":31,"used":true},{"PRN":6,"el":21,"az":311,"ss":28,"used":false},{"PRN":10,"el":21,"az":56,"ss":40,"used":true},{"PRN":3,"el":10,"az":317,"ss":25,"used":false},{"PRN":22,"el":9,"az":225,"ss":30,"used":false},{"PRN":8,"el":6,"az":36,"ss":18,"used":false},{"PRN":27,"el":6,"az":55,"ss":27,"used":false},{"PRN":7,"el":5,"az":0,"ss":24,"used":false}]}
$GPGGA,203602,5333.7939,N,11326.3734,W,1,07,1.47,655.19,M,-19.872,M,,*70
$GPRMC,203602,A,5333.7939,N,11326.3734,W,0.0000,0.000,280109,,*3E
$GPGSA,A,3,24,18,26,29,16,10,10,10,-1717986918,1073977753,-1202590843,1073186078,1717986918,1074554470,-1546188227,1073757552,-171798692,1074879528,-1546188227,1079131504,14,21,24,15,18,26,29,16,06,10,03,22,08,27,07,,,,,,,,,,,,,,,,2.5,1.5,3.5*20
{"class":"TPV","tag":"0x0106","time":1233174962.001,"ept":0.005,"lat":53.563230853,"lon":-113.439555989,"alt":655.194,"epx":22.050,"epy":22.050,"epv":81.650,"track":0.0000,"speed":0.000,"climb":0.000,"eps":40.20,"mode":3}
$GPGSA,A,0,24,18,26,29,16,10,10,10,-1717986918,1073977753,-171798692,1072913448,1889785610,1073809981,687194767,1073123164,687194767,1074171740,2146959360,14,21,24,15,18,26,29,16,06,10,03,22,08,27,07,,,,,,,,,,,,,,,,,2.5,1.2,2.1*0A
$GPGSV,4,1,14,21,73,276,31,24,56,094,45,15,40,113,24,18,40,217,44*7A
$GPGSV,4,2,14,26,40,087,44,29,40,164,33,16,28,280,31,06,21,311,27*7F
$GPGSV,4,3,14,10,21,056,40,03,10,317,25,22,09,225,30,08,06,036,18*73
$GPGSV,4,4,14,27,06,055,28,07,05,000,21*74
{"class":"SKY","tag":"0x0130","time":1233174962.001,"reported":14,"satellites":[{"PRN":21,"el":73,"az":276,"ss":31,"used":true},{"PRN":24,"el":56,"az":94,"ss":45,"used":true},{"PRN":15,"el":40,"az":113,"ss":24,"used":false},{"PRN":18,"el":40,"az":217,"ss":44,"used":true},{"PRN":26,"el":40,"az":87,"ss":44,"used":true},{"PRN":29,"el":40,"az":164,"ss":33,"used":true},{"PRN":16,"el":28,"az":280,"ss":31,"used":true},{"PRN":6,"el":21,"az":311,"ss":27,"used":false},{"PRN":10,"el":21,"az":56,"ss":40,"used":true},{"PRN":3,"el":10,"az":317,"ss":25,"used":false},{"PRN":22,"el":9,"az":225,"ss":30,"used":false},{"PRN":8,"el":6,"az":36,"ss":18,"used":false},{"PRN":27,"el":6,"az":55,"ss":28,"used":false},{"PRN":7,"el":5,"az":0,"ss":21,"used":false}]}
$GPGGA,203603,5333.7938,N,11326.3734,W,1,07,1.21,655.18,M,-19.872,M,,*71
$GPRMC,203603,A,5333.7938,N,11326.3734,W,0.0000,0.000,280109,,*3E
$GPGSA,A,3,21,24,18,26,29,16,10,10,-1717986918,1073977753,-171798692,1072913448,1889785610,1073809981,687194767,1073123164,687194767,1074171740,1717986919,1078412902,14,21,24,15,18,26,29,16,06,10,03,22,08,27,07,,,,,,,,,,,,,,,,2.5,1.2,2.1*0E
{"class":"TPV","tag":"0x0106","time":1233174963.001,"ept":0.005,"lat":53.563230467,"lon":-113.439556819,"alt":655.176,"epx":18.150,"epy":18.150,"epv":48.990,"track":0.0000,"speed":0.000,"climb":0.000,"eps":40.20,"mode":3}
$GPGSA,A,0,21,24,18,26,29,16,10,10,-1717986918,1073977753,-171798692,1072913448,1889785610,1073809981,687194767,1073123164,171798692,1074176983,2146959360,14,21,24,15,18,26,29,16,06,10,03,22,08,27,07,,,,,,,,,,,,,,,,,2.5,1.2,2.1*01
$GPGSV,4,1,14,21,73,276,31,24,56,094,45,15,40,113,25,18,40,217,44*7B
$GPGSV,4,2,14,26,40,087,44,29,40,164,33,16,28,280,30,06,21,311,27*7E
$GPGSV,4,3,14,10,21,056,40,03,10,317,25,22,09,225,30,08,06,036,18*73
$GPGSV,4,4,14,27,06,055,28,07,05,000,21*74
{"class":"SKY","tag":"0x0130","time":1233174963.001,"reported":14,"satellites":[{"PRN":21,"el":73,"az":276,"ss":31,"used":true},{"PRN":24,"el":56,"az":94,"ss":45,"used":true},{"PRN":15,"el":40,"az":113,"ss":25,"used":false},{"PRN":18,"el":40,"az":217,"ss":44,"used":true},{"PRN":26,"el":40,"az":87,"ss":44,"used":true},{"PRN":29,"el":40,"az":164,"ss":33,"used":true},{"PRN":16,"el":28,"az":280,"ss":30,"used":true},{"PRN":6,"el":21,"az":311,"ss":27,"used":false},{"PRN":10,"el":21,"az":56,"ss":40,"used":true},{"PRN":3,"el":10,"az":317,"ss":25,"used":false},{"PRN":22,"el":9,"az":225,"ss":30,"used":false},{"PRN":8,"el":6,"az":36,"ss":18,"used":false},{"PRN":27,"el":6,"az":55,"ss":28,"used":false},{"PRN":7,"el":5,"az":0,"ss":21,"used":false}]}
$GPGGA,203604,5333.7938,N,11326.3735,W,1,07,1.21,655.23,M,-19.872,M,,*7F
$GPRMC,203604,A,5333.7938,N,11326.3735,W,0.0000,0.000,280109,,*38
$GPGSA,A,3,21,24,18,26,29,16,10,10,-1717986918,1073977753,-171798692,1072913448,1889785610,1073809981,687194767,1073123164,171798692,1074176983,1717986919,1078412902,14,21,24,15,18,26,29,16,06,10,03,22,08,27,07,,,,,,,,,,,,,,,,2.5,1.2,2.1*07
{"class":"TPV","tag":"0x0106","time":1233174964.001,"ept":0.005,"lat":53.563230108,"lon":-113.439557548,"alt":655.231,"epx":18.150,"epy":18.150,"epv":48.990,"track":0.0000,"speed":0.000,"climb":0.000,"eps":36.30,"mode":3}
$GPGSA,A,0,21,24,18,26,29,16,10,10,-1717986918,1073977753,-171798692,1072913448,1889785610,1073809981,687194767,1073123164,687194767,1074171740,2146959360,14,21,24,15,18,26,29,16,06,10,03,22,08,27,07,,,,,,,,,,,,,,,,,2.5,1.2,2.1*08
$GPGSV,4,1,14,21,73,276,32,24,56,094,45,15,40,113,27,18,40,217,44*7A
$GPGSV,4,2,14,26,40,087,44,29,40,164,32,16,28,280,31,06,21,311,27*7E
$GPGSV,4,3,14,10,21,056,40,03,10,317,25,22,09,225,30,08,06,036,18*73
$GPGSV,4,4,14,27,06,055,28,07,05,000,22*77
{"class":"SKY","tag":"0x0130","time":1233174964.001,"reported":14,"satellites":[{"PRN":21,"el":73,"az":276,"ss":32,"used":true},{"PRN":24,"el":56,"az":94,"ss":45,"used":true},{"PRN":15,"el":40,"az":113,"ss":27,"used":false},{"PRN":18,"el":40,"az":217,"ss":44,"used":true},{"PRN":26,"el":40,"az":87,"ss":44,"used":true},{"PRN":29,"el":40,"az":164,"ss":32,"used":true},{"PRN":16,"el":28,"az":280,"ss":31,"used":true},{"PRN":6,"el":21,"az":311,"ss":27,"used":false},{"PRN":10,"el":21,"az":56,"ss":40,"used":true},{"PRN":3,"el":10,"az":317,"ss":25,"used":false},{"PRN":22,"el":9,"az":225,"ss":30,"used":false},{"PRN":8,"el":6,"az":36,"ss":18,"used":false},{"PRN":27,"el":6,"az":55,"ss":28,"used":false},{"PRN":7,"el":5,"az":0,"ss":22,"used":false}]}
$GPGGA,203605,5333.7938,N,11326.3735,W,1,07,1.21,655.29,M,-19.872,M,,*74
$GPRMC,203605,A,5333.7938,N,11326.3735,W,0.0000,0.000,280109,,*39
$GPGSA,A,3,21,24,18,26,29,16,10,10,-1717986918,1073977753,-171798692,1072913448,1889785610,1073809981,687194767,1073123164,687194767,1074171740,1717986919,1078412902,14,21,24,15,18,26,29,16,06,10,03,22,08,27,07,,,,,,,,,,,,,,,,2.5,1.2,2.1*0E
{"class":"TPV","tag":"0x0106","time":1233174965.001,"ept":0.005,"lat":53.563229839,"lon":-113.439558476,"alt":655.290,"epx":18.150,"epy":18.150,"epv":48.990,"track":0.0000,"speed":0.000,"climb":0.000,"eps":36.30,"mode":3}
$GPGSA,A,0,21,24,18,26,29,16,10,10,-1717986918,1073977753,-171798692,1072913448,1889785610,1073809981,687194767,1073123164,687194767,1074171740,2146959360,14,21,24,15,18,26,29,16,06,10,03,22,08,27,07,,,,,,,,,,,,,,,,,2.5,1.2,2.1*08
$GPGSV,4,1,14,21,73,276,32,24,56,094,45,15,40,113,27,18,40,217,44*7A
$GPGSV,4,2,14,26,40,087,44,29,40,164,33,16,28,280,30,06,21,311,28*71
$GPGSV,4,3,14,10,21,056,40,03,10,317,25,22,09,225,30,08,06,036,18*73
$GPGSV,4,4,14,27,06,055,28,07,05,000,23*76
{"class":"SKY","tag":"0x0130","time":1233174965.001,"reported":14,"satellites":[{"PRN":21,"el":73,"az":276,"ss":32,"used":true},{"PRN":24,"el":56,"az":94,"ss":45,"used":true},{"PRN":15,"el":40,"az":113,"ss":27,"used":false},{"PRN":18,"el":40,"az":217,"ss":44,"used":true},{"PRN":26,"el":40,"az":87,"ss":44,"used":true},{"PRN":29,"el":40,"az":164,"ss":33,"used":true},{"PRN":16,"el":28,"az":280,"ss":30,"used":true},{"PRN":6,"el":21,"az":311,"ss":28,"used":false},{"PRN":10,"el":21,"az":56,"ss":40,"used":true},{"PRN":3,"el":10,"az":317,"ss":25,"used":false},{"PRN":22,"el":9,"az":225,"ss":30,"used":false},{"PRN":8,"el":6,"az":36,"ss":18,"used":false},{"PRN":27,"el":6,"az":55,"ss":28,"used":false},{"PRN":7,"el":5,"az":0,"ss":23,"used":false}]}
$GPGGA,203606,5333.7938,N,11326.3735,W,1,07,1.21,655.31,M,-19.872,M,,*7E
$GPRMC,203606,A,5333.7938,N,11326.3735,W,0.0000,0.000,280109,,*3A
$GPGSA,A,3,21,24,18,26,29,16,10,10,-1717986918,1073977753,-171798692,1072913448,1889785610,1073809981,687194767,1073123164,687194767,1074171740,1717986919,1078412902,14,21,24,15,18,26,29,16,06,10,03,22,08,27,07,,,,,,,,,,,,,,,,2.5,1.2,2.1*0E
{"class":"TPV","tag":"0x0106","time":1233174966.001,"ept":0.005,"lat":53.563229443,"lon":-113.439558988,"alt":655.310,"epx":18.150,"epy":18.150,"epv":48.990,"track":0.0000,"speed":0.000,"climb":0.000,"eps":36.30,"mode":3}
$GPGSA,A,0,21,24,18,26,29,16,10,10,-1717986918,1073977753,-171798692,1072913448,1889785610,1073809981,687194767,1073123164,687194767,1074171740,2146959360,14,21,24,15,18,26,29,16,06,10,03,22,08,27,07,,,,,,,,,,,,,,,,,2.5,1.2,2.1*08
$GPGSV,4,1,14,21,73,276,31,24,56,094,45,15,40,113,27,18,40,217,44*79
