$GPRMC,,V,,,,,,,,,,N*53
$GPVTG,,,,,,,,,N*30
$GPGGA,,,,,,0,00,99.99,,,,,,*48
$GPGSA,A,1,,,,,,,,,,,,,99.99,99.99,99.99*30
GPSD,O=?
$GPGSV,1,1,00*79
$GPGLL,,,,,,V,N*64
$GPZDA,,,,,00,00*48
$GPRMC,,V,,,,,,,,,,N*53
$GPVTG,,,,,,,,,N*30
$GPGGA,,,,,,0,00,99.99,,,,,,*48
$GPGSA,A,1,,,,,,,,,,,,,99.99,99.99,99.99*30
GPSD,O=?
$GPGSV,1,1,00*79
$GPGLL,,,,,,V,N*64
$GPZDA,,,,,00,00*48
$GPRMC,,V,,,,,,,,,,N*53
$GPVTG,,,,,,,,,N*30
$GPGGA,,,,,,0,00,99.99,,,,,,*48
$GPGSA,A,1,,,,,,,,,,,,,99.99,99.99,99.99*30
GPSD,O=?
$GPGSV,1,1,01,02,,,34*7D
$GPGLL,,,,,,V,N*64
$GPZDA,,,,,00,00*48
$GPRMC,030743.57,V,,,,,,,,,,N*7C
$GPVTG,,,,,,,,,N*30
$GPGGA,030743.57,,,,,0,00,99.99,,,,,,*67
$GPGSA,A,1,,,,,,,,,,,,,99.99,99.99,99.99*30
GPSD,O=?
$GPGSV,1,1,01,02,,,34*7D
$GPGLL,,,,,030743.57,V,N*4B
$GPZDA,030743.57,,,,00,00*67
$GPRMC,030744.57,V,,,,,,,,,,N*7B
$GPVTG,,,,,,,,,N*30
$GPGGA,030744.57,,,,,0,00,99.99,,,,,,*60
$GPGSA,A,1,,,,,,,,,,,,,99.99,99.99,99.99*30
GPSD,O=?
$GPGSV,1,1,01,02,,,34*7D
$GPGLL,,,,,030744.57,V,N*4C
$GPZDA,030744.57,,,,00,00*60
$GPRMC,030806.00,V,,,,,,,,,,N*70
$GPVTG,,,,,,,,,N*30
$GPGGA,030806.00,,,,,0,00,99.99,,,,,,*6B
$GPGSA,A,1,,,,,,,,,,,,,99.99,99.99,99.99*30
GPSD,O=?
$GPGSV,1,1,02,04,,,48,02,,,33*71
$GPGLL,,,,,030806.00,V,N*47
$GPZDA,030806.00,,,,00,00*6B
$GPRMC,030807.00,V,,,,,,,100806,,,N*7E
$GPVTG,,,,,,,,,N*30
$GPGGA,030807.00,,,,,0,00,99.99,,,,,,*6A
$GPGSA,A,1,,,,,,,,,,,,,99.99,99.99,99.99*30
GPSD,O=?
$GPGSV,1,1,02,04,,,47,02,,,33*7E
$GPGLL,,,,,030807.00,V,N*46
$GPZDA,030807.00,10,08,2006,00,00*67
$GPRMC,030851.00,V,,,,,,,100806,,,N*7D
$GPVTG,,,,,,,,,N*30
$GPGGA,030851.00,,,,,0,03,9.93,,,,,,*59
$GPGSA,A,1,28,04,02,,,,,,,,,,9.98,9.93,1.00*06
GPSD,O=?
$GPGSV,1,1,03,28,28,095,33,04,30,150,46,02,07,178,32*4D
GPSD,Y=GSV 1155179287.000 3:28 28 95 33 1:4 30 150 46 1:2 7 178 32 1:
$GPGLL,,,,,030851.00,V,N*45
$GPZDA,030851.00,10,08,2006,00,00*64
$GPRMC,030852.00,V,,,,,,,100806,,,N*7E
$GPVTG,,,,,,,,,N*30
$GPGGA,030852.00,,,,,0,03,9.93,,,,,,*5A
$GPGSA,A,1,28,04,02,,,,,,,,,,9.98,9.93,1.00*06
GPSD,O=?
$GPGSV,1,1,03,28,28,095,33,04,30,150,45,02,07,178,33*4F
GPSD,Y=GSV 1155179331.000 3:28 28 95 33 1:4 30 150 45 1:2 7 178 33 1:
$GPGLL,,,,,030852.00,V,N*46
$GPZDA,030852.00,10,08,2006,00,00*67
$GPRMC,030853.00,V,,,,,,,100806,,,N*7F
$GPVTG,,,,,,,,,N*30
$GPGGA,030853.00,,,,,0,03,9.94,,,,,,*5C
$GPGSA,A,1,28,04,02,,,,,,,,,,9.99,9.94,1.00*00
GPSD,O=?
$GPGSV,1,1,03,28,28,095,33,04,30,150,45,02,07,178,32*4E
GPSD,Y=GSV 1155179332.000 3:28 28 95 33 1:4 30 150 45 1:2 7 178 32 1:
$GPGLL,,,,,030853.00,V,N*47
$GPZDA,030853.00,10,08,2006,00,00*66
$GPRMC,030857.00,V,,,,,,,100806,,,N*7B
$GPVTG,,,,,,,,,N*30
$GPGGA,030857.00,,,,,0,03,9.96,,,,,,*5A
$GPGSA,A,1,28,04,02,,,,,,,,,,10.01,9.96,1.00*3B
GPSD,O=?
$GPGSV,1,1,03,28,28,095,33,04,30,150,45,02,07,178,32*4E
GPSD,Y=GSV 1155179333.000 3:28 28 95 33 1:4 30 150 45 1:2 7 178 32 1:
$GPGLL,,,,,030857.00,V,N*43
$GPZDA,030857.00,10,08,2006,00,00*62
$GPRMC,030858.00,A,4907.85331,N,12243.19743,W,1.049,323.14,100806,,,A*76
GPSD,O=RMC 1155179338.000 0.005 49.130888500 -122.719957167 ? 149.400 ? 323.1400 0.540 ? ? ? ? 2
$GPVTG,323.14,T,,M,1.049,N,1.943,K,A*39
$GPGGA,030858.00,4907.85331,N,12243.19743,W,1,03,9.97,516.7,M,-16.7,M,,*6C
GPSD,O=GGA 1155179338.000 0.005 49.130888500 -122.719957167 516.700 149.400 23.000 323.1400 0.540 0.000 ? ? ? 3
$GPGSA,A,2,28,04,02,,,,,,,,,,10.02,9.97,1.00*3A
$GPGSV,1,1,03,28,28,095,33,04,30,150,45,02,07,178,31*4D
GPSD,Y=GSV 1155179338.000 3:28 28 95 33 1:4 30 150 45 1:2 7 178 31 1:
$GPGLL,4907.85331,N,12243.19743,W,030858.00,A,A*75
GPSD,O=GLL 1155179338.000 0.005 49.130888500 -122.719957167 516.700 149.400 23.000 323.1400 0.540 0.000 ? ? ? 3
$GPZDA,030858.00,10,08,2006,00,00*6D
$GPRMC,030859.00,A,4907.85396,N,12243.19848,W,1.321,323.21,100806,,,A*75
GPSD,O=RMC 1155179339.000 0.005 49.130899333 -122.719974667 ? 149.550 ? 323.2100 0.680 ? ? 298.95 ? 2
$GPVTG,323.21,T,,M,1.321,N,2.448,K,A*37
$GPGGA,030859.00,4907.85396,N,12243.19848,W,1,03,9.97,516.7,M,-16.7,M,,*64
GPSD,O=GGA 1155179339.000 0.005 49.130899333 -122.719974667 516.700 149.550 23.000 323.2100 0.680 0.000 ? 298.95 ? 3
$GPGSA,A,2,28,04,02,,,,,,,,,,10.02,9.97,1.00*3A
$GPGSV,1,1,03,28,28,095,32,04,30,150,46,02,07,178,32*4C
GPSD,Y=GSV 1155179339.000 3:28 28 95 32 1:4 30 150 46 1:2 7 178 32 1:
$GPGLL,4907.85396,N,12243.19848,W,030859.00,A,A*7D
GPSD,O=GLL 1155179339.000 0.005 49.130899333 -122.719974667 516.700 149.550 23.000 323.2100 0.680 0.000 ? 298.95 ? 3
$GPZDA,030859.00,10,08,2006,00,00*6C
$GPRMC,030900.00,A,4907.85424,N,12243.19882,W,1.324,323.26,100806,,,A*72
GPSD,O=RMC 1155179340.000 0.005 49.130904000 -122.719980333 ? 149.550 ? 323.2600 0.681 ? ? 299.10 ? 2
$GPVTG,323.26,T,,M,1.324,N,2.454,K,A*38
$GPGGA,030900.00,4907.85424,N,12243.19882,W,1,03,9.98,516.7,M,-16.7,M,,*6E
GPSD,O=GGA 1155179340.000 0.005 49.130904000 -122.719980333 516.700 149.550 23.000 323.2600 0.681 0.000 ? 299.10 ? 3
$GPGSA,A,2,28,04,02,,,,,,,,,,10.03,9.98,1.00*34
$GPGSV,1,1,03,28,28,095,33,04,30,150,46,02,07,178,32*4D
GPSD,Y=GSV 1155179340.000 3:28 28 95 33 1:4 30 150 46 1:2 7 178 32 1:
$GPGLL,4907.85424,N,12243.19882,W,030900.00,A,A*78
GPSD,O=GLL 1155179340.000 0.005 49.130904000 -122.719980333 516.700 149.550 23.000 323.2600 0.681 0.000 ? 299.10 ? 3
$GPZDA,030900.00,10,08,2006,00,00*61
$GPRMC,030901.00,A,4907.85444,N,12243.19906,W,1.458,323.25,100806,,,A*77
GPSD,O=RMC 1155179341.000 0.005 49.130907333 -122.719984333 ? 149.700 ? 323.2500 0.750 ? ? 299.25 ? 2
$GPVTG,323.25,T,,M,1.458,N,2.702,K,A*37
$GPGGA,030901.00,4907.85444,N,12243.19906,W,1,03,9.99,516.7,M,-16.7,M,,*65
GPSD,O=GGA 1155179341.000 0.005 49.130907333 -122.719984333 516.700 149.700 23.000 323.2500 0.750 0.000 ? 299.25 ? 3
$GPGSA,A,2,28,04,02,,,,,,,,,,10.04,9.99,1.00*32
$GPGSV,1,1,03,28,28,095,32,04,30,150,45,02,07,178,32*4F
GPSD,Y=GSV 1155179341.000 3:28 28 95 32 1:4 30 150 45 1:2 7 178 32 1:
$GPGLL,4907.85444,N,12243.19906,W,030901.00,A,A*72
GPSD,O=GLL 1155179341.000 0.005 49.130907333 -122.719984333 516.700 149.700 23.000 323.2500 0.750 0.000 ? 299.25 ? 3
$GPZDA,030901.00,10,08,2006,00,00*60
$GPRMC,031007.00,V,,,,,,,100806,,,N*77
$GPVTG,,,,,,,,,N*30
$GPGGA,031007.00,,,,,0,05,2.22,,,,,,*54
$GPGSA,A,1,28,17,09,04,02,,,,,,,,4.62,2.22,4.05*00
$GPGSV,2,1,06,28,28,095,26,17,64,064,27,09,55,289,37,04,31,150,43*7C
$GPGSV,2,2,06,02,07,178,32,24,40,121,35*73
GPSD,Y=GSV 1155179341.000 6:28 28 95 26 1:17 64 64 27 1:9 55 289 37 1:4 31 150 43 1:2 7 178 32 1:24 40 121 35 0:
$GPGLL,,,,,031007.00,V,N*4F
$GPZDA,031007.00,10,08,2006,00,00*6E
$GPRMC,031008.00,A,4907.58133,N,12242.60088,W,2.550,220.86,100806,,,A*72
GPSD,O=RMC 1155179408.000 0.005 49.126355500 -122.710014667 ? 33.300 ? 220.8600 1.312 ? ? 2.73 ? 2
$GPVTG,220.86,T,,M,2.550,N,4.724,K,A*34
$GPGGA,031008.00,4907.58133,N,12242.60088,W,1,05,2.15,70.7,M,-16.7,M,,*5D
GPSD,O=GGA 1155179408.000 0.005 49.126355500 -122.710014667 70.700 33.300 93.150 220.8600 1.312 0.000 ? 2.73 ? 3
$GPGSA,A,3,28,17,09,04,02,,,,,,,,4.07,2.15,3.45*06
GPSD,O=GSA 1155179408.000 0.005 49.126355500 -122.710014667 70.700 33.300 93.150 220.8600 1.312 0.000 ? 2.73 ? 3
$GPGSV,2,1,06,28,28,095,26,17,64,064,27,09,55,289,36,04,31,150,43*7D
$GPGSV,2,2,06,02,07,178,32,24,40,121,35*73
GPSD,Y=GSV 1155179408.000 6:28 28 95 26 1:17 64 64 27 1:9 55 289 36 1:4 31 150 43 1:2 7 178 32 1:24 40 121 35 0:
$GPGLL,4907.58133,N,12242.60088,W,031008.00,A,A*76
GPSD,O=GLL 1155179408.000 0.005 49.126355500 -122.710014667 70.700 33.300 93.150 220.8600 1.312 0.000 ? 2.73 ? 3
$GPZDA,031008.00,10,08,2006,00,00*61
$GPRMC,031009.00,A,4907.58122,N,12242.60101,W,0.138,220.93,100806,,,A*7F
GPSD,O=RMC 1155179409.000 0.005 49.126353667 -122.710016833 ? 32.250 ? 220.9300 0.071 ? ? 65.55 ? 2
$GPVTG,220.93,T,,M,0.138,N,0.255,K,A*3F
$GPGGA,031009.00,4907.58122,N,12242.60101,W,1,05,2.15,70.1,M,-16.7,M,,*5A
GPSD,O=GGA 1155179409.000 0.005 49.126353667 -122.710016833 70.100 32.250 79.350 220.9300 0.071 0.000 ? 65.55 ? 3
$GPGSA,A,3,28,17,09,04,02,,,,,,,,4.06,2.15,3.45*07
GPSD,O=GSA 1155179409.000 0.005 49.126353667 -122.710016833 70.100 32.250 79.350 220.9300 0.071 0.000 ? 65.55 ? 3
$GPGSV,2,1,06,28,28,095,25,17,64,064,27,09,55,289,36,04,31,150,43*7E
$GPGSV,2,2,06,02,07,178,32,24,40,121,35*73
GPSD,Y=GSV 1155179409.000 6:28 28 95 25 1:17 64 64 27 1:9 55 289 36 1:4 31 150 43 1:2 7 178 32 1:24 40 121 35 0:
$GPGLL,4907.58122,N,12242.60101,W,031009.00,A,A*77
GPSD,O=GLL 1155179409.000 0.005 49.126353667 -122.710016833 70.100 32.250 79.350 220.9300 0.071 0.000 ? 65.55 ? 3
$GPZDA,031009.00,10,08,2006,00,00*60
$GPRMC,031516.00,A,4907.56801,N,12242.61073,W,0.084,39.14,100806,,,A*44
GPSD,O=RMC 1155179716.000 0.005 49.126133500 -122.710178833 ? 32.250 ? 39.1400 0.043 ? ? 0.21 ? 2
$GPVTG,39.14,T,,M,0.084,N,0.155,K,A*0F
$GPGGA,031516.00,4907.56801,N,12242.61073,W,1,09,1.13,99.1,M,-16.7,M,,*5C
GPSD,O=GGA 1155179716.000 0.005 49.126133500 -122.710178833 99.100 32.250 79.350 39.1400 0.043 0.000 ? 0.21 ? 3
$GPGSA,A,3,28,17,09,04,02,24,26,35,05,,,,2.20,1.13,1.89*03
GPSD,O=GSA 1155179716.000 0.005 49.126133500 -122.710178833 99.100 32.250 79.350 39.1400 0.043 0.000 ? 0.21 ? 3
$GPGSV,3,1,12,28,25,097,26,17,62,063,34,09,56,285,30,04,33,148,43*77
$GPGSV,3,2,12,02,09,178,33,24,42,118,35,51,32,160,46,26,11,222,28*7C
$GPGSV,3,3,12,48,33,194,42,29,07,218,23,35,31,205,42,05,22,288,30*7B
GPSD,Y=GSV 1155179716.000 12:28 25 97 26 1:17 62 63 34 1:9 56 285 30 1:4 33 148 43 1:2 9 178 33 1:24 42 118 35 1:51 32 160 46 0:26 11 222 28 1:48 33 194 42 0:29 7 218 23 0:35 31 205 42 1:5 22 288 30 1:
$GPGLL,4907.56801,N,12242.61073,W,031516.00,A,A*7F
GPSD,O=GLL 1155179716.000 0.005 49.126133500 -122.710178833 99.100 32.250 79.350 39.1400 0.043 0.000 ? 0.21 ? 3
$GPZDA,031516.00,10,08,2006,00,00*6B
$GPRMC,031517.00,A,4907.56809,N,12242.61069,W,0.084,39.37,100806,,,A*47
GPSD,O=RMC 1155179717.000 0.005 49.126134833 -122.710178167 ? 16.950 ? 39.3700 0.043 ? ? 49.20 ? 2
$GPVTG,39.37,T,,M,0.084,N,0.156,K,A*0D
$GPGGA,031517.00,4907.56809,N,12242.61069,W,1,09,1.13,98.8,M,-16.7,M,,*56
GPSD,O=GGA 1155179717.000 0.005 49.126134833 -122.710178167 98.800 16.950 43.470 39.3700 0.043 0.000 ? 49.20 ? 3
$GPGSA,A,3,28,17,09,04,02,24,26,35,05,,,,2.20,1.13,1.89*03
GPSD,O=GSA 1155179717.000 0.005 49.126134833 -122.710178167 98.800 16.950 43.470 39.3700 0.043 0.000 ? 49.20 ? 3
$GPGSV,3,1,12,28,25,097,26,17,62,063,35,09,56,285,30,04,33,148,43*76
$GPGSV,3,2,12,02,09,178,33,24,42,118,35,51,32,160,45,26,11,222,28*7F
$GPGSV,3,3,12,48,33,194,42,29,07,218,23,35,31,205,41,05,22,288,30*78
GPSD,Y=GSV 1155179717.000 12:28 25 97 26 1:17 62 63 35 1:9 56 285 30 1:4 33 148 43 1:2 9 178 33 1:24 42 118 35 1:51 32 160 45 0:26 11 222 28 1:48 33 194 42 0:29 7 218 23 0:35 31 205 41 1:5 22 288 30 1:
$GPGLL,4907.56809,N,12242.61069,W,031517.00,A,A*7D
GPSD,O=GLL 1155179717.000 0.005 49.126134833 -122.710178167 98.800 16.950 43.470 39.3700 0.043 0.000 ? 49.20 ? 3
$GPZDA,031517.00,10,08,2006,00,00*6A
$GPRMC,031518.00,A,4907.56818,N,12242.61064,W,0.084,39.58,100806,,,A*4C
GPSD,O=RMC 1155179718.000 0.005 49.126136333 -122.710177333 ? 16.950 ? 39.5800 0.043 ? ? 33.90 ? 2
$GPVTG,39.58,T,,M,0.084,N,0.155,K,A*07
$GPGGA,031518.00,4907.56818,N,12242.61064,W,1,09,1.13,98.5,M,-16.7,M,,*59
GPSD,O=GGA 1155179718.000 0.005 49.126136333 -122.710177333 98.500 16.950 43.470 39.5800 0.043 0.000 ? 33.90 ? 3
$GPGSA,A,3,28,17,09,04,02,24,26,35,05,,,,2.20,1.13,1.89*03
GPSD,O=GSA 1155179718.000 0.005 49.126136333 -122.710177333 98.500 16.950 43.470 39.5800 0.043 0.000 ? 33.90 ? 3
$GPGSV,4,1,13,28,25,097,26,17,62,063,35,09,56,285,29,04,33,148,43*78
$GPGSV,4,2,13,02,09,178,33,24,42,118,35,51,32,160,46,47,11,246,*75
$GPGSV,4,3,13,26,11,222,28,48,33,194,41,29,07,218,23,35,31,205,41*75
$GPGSV,4,4,13,05,22,288,30*4F
GPSD,Y=GSV 1155179718.000 13:28 25 97 26 1:17 62 63 35 1:9 56 285 29 1:4 33 148 43 1:2 9 178 33 1:24 42 118 35 1:51 32 160 46 0:47 11 246 0 0:26 11 222 28 1:48 33 194 41 0:29 7 218 23 0:35 31 205 41 1:5 22 288 30 1:
$GPGLL,4907.56818,N,12242.61064,W,031518.00,A,A*7F
GPSD,O=GLL 1155179718.000 0.005 49.126136333 -122.710177333 98.500 16.950 43.470 39.5800 0.043 0.000 ? 33.90 ? 3
$GPZDA,031518.00,10,08,2006,00,00*65
$GPRMC,031519.00,A,4907.56826,N,12242.61066,W,0.083,40.03,100806,,,A*45
GPSD,O=RMC 1155179719.000 0.005 49.126137667 -122.710177667 ? 16.950 ? 40.0300 0.043 ? ? 33.90 ? 2
$GPVTG,40.03,T,,M,0.083,N,0.153,K,A*06
$GPGGA,031519.00,4907.56826,N,12242.61066,W,1,09,1.13,98.2,M,-16.7,M,,*50
GPSD,O=GGA 1155179719.000 0.005 49.126137667 -122.710177667 98.200 16.950 43.470 40.0300 0.043 0.000 ? 33.90 ? 3
$GPGSA,A,3,28,17,09,04,02,24,26,35,05,,,,2.20,1.13,1.89*03
GPSD,O=GSA 1155179719.000 0.005 49.126137667 -122.710177667 98.200 16.950 43.470 40.0300 0.043 0.000 ? 33.90 ? 3
$GPGSV,4,1,13,28,25,097,26,17,62,063,35,09,56,285,29,04,33,148,43*78
$GPGSV,4,2,13,02,09,178,33,24,42,118,35,51,32,160,46,47,11,246,*75
$GPGSV,4,3,13,26,11,222,28,48,33,194,42,29,07,218,23,35,31,205,42*75
$GPGSV,4,4,13,05,22,288,31*4E
GPSD,Y=GSV 1155179719.000 13:28 25 97 26 1:17 62 63 35 1:9 56 285 29 1:4 33 148 43 1:2 9 178 33 1:24 42 118 35 1:51 32 160 46 0:47 11 246 0 0:26 11 222 28 1:48 33 194 42 0:29 7 218 23 0:35 31 205 42 1:5 22 288 31 1:
$GPGLL,4907.56826,N,12242.61066,W,031519.00,A,A*71
GPSD,O=GLL 1155179719.000 0.005 49.126137667 -122.710177667 98.200 16.950 43.470 40.0300 0.043 0.000 ? 33.90 ? 3
$GPZDA,031519.00,10,08,2006,00,00*64
$GPRMC,031520.00,A,4907.56836,N,12242.61071,W,0.072,39.24,100806,,,A*4D
GPSD,O=RMC 1155179720.000 0.005 49.126139333 -122.710178500 ? 16.950 ? 39.2400 0.037 ? ? 33.90 ? 2
$GPVTG,39.24,T,,M,0.072,N,0.134,K,A*02
$GPGGA,031520.00,4907.56836,N,12242.61071,W,1,09,1.13,98.0,M,-16.7,M,,*5F
GPSD,O=GGA 1155179720.000 0.005 49.126139333 -122.710178500 98.000 16.950 43.470 39.2400 0.037 0.000 ? 33.90 ? 3
$GPGSA,A,3,28,17,09,04,02,24,26,35,05,,,,2.20,1.13,1.89*03
GPSD,O=GSA 1155179720.000 0.005 49.126139333 -122.710178500 98.000 16.950 43.470 39.2400 0.037 0.000 ? 33.90 ? 3
$GPGSV,4,1,13,28,25,097,26,17,62,063,35,09,56,285,30,04,33,148,43*70
$GPGSV,4,2,13,02,09,178,33,24,42,118,35,51,32,160,45,47,11,246,*76
$GPGSV,4,3,13,26,11,222,28,48,33,194,42,29,07,218,23,35,31,205,41*76
$GPGSV,4,4,13,05,22,288,31*4E
GPSD,Y=GSV 1155179720.000 13:28 25 97 26 1:17 62 63 35 1:9 56 285 30 1:4 33 148 43 1:2 9 178 33 1:24 42 118 35 1:51 32 160 45 0:47 11 246 0 0:26 11 222 28 1:48 33 194 42 0:29 7 218 23 0:35 31 205 41 1:5 22 288 31 1:
$GPGLL,4907.56836,N,12242.61071,W,031520.00,A,A*7C
GPSD,O=GLL 1155179720.000 0.005 49.126139333 -122.710178500 98.000 16.950 43.470 39.2400 0.037 0.000 ? 33.90 ? 3
$GPZDA,031520.00,10,08,2006,00,00*6E
$GPRMC,031521.00,A,4907.56847,N,12242.61076,W,0.087,39.82,100806,,,A*4B
GPSD,O=RMC 1155179721.000 0.005 49.126141167 -122.710179333 ? 16.950 ? 39.8200 0.045 ? ? 33.90 ? 2
$GPVTG,39.82,T,,M,0.087,N,0.162,K,A*07
$GPGGA,031521.00,4907.56847,N,12242.61076,W,1,09,1.13,97.7,M,-16.7,M,,*57
GPSD,O=GGA 1155179721.000 0.005 49.126141167 -122.710179333 97.700 16.950 43.470 39.8200 0.045 0.000 ? 33.90 ? 3
$GPGSA,A,3,28,17,09,04,02,24,26,35,05,,,,2.20,1.13,1.89*03
GPSD,O=GSA 1155179721.000 0.005 49.126141167 -122.710179333 97.700 16.950 43.470 39.8200 0.045 0.000 ? 33.90 ? 3
$GPGSV,4,1,13,28,25,097,27,17,62,063,35,09,56,285,29,04,33,148,43*79
$GPGSV,4,2,13,02,09,178,33,24,42,118,35,51,32,160,45,47,11,246,*76
$GPGSV,4,3,13,26,11,222,28,48,33,194,42,29,07,218,23,35,31,205,41*76
$GPGSV,4,4,13,05,22,288,31*4E
GPSD,Y=GSV 1155179721.000 13:28 25 97 27 1:17 62 63 35 1:9 56 285 29 1:4 33 148 43 1:2 9 178 33 1:24 42 118 35 1:51 32 160 45 0:47 11 246 0 0:26 11 222 28 1:48 33 194 42 0:29 7 218 23 0:35 31 205 41 1:5 22 288 31 1:
$GPGLL,4907.56847,N,12242.61076,W,031521.00,A,A*7C
GPSD,O=GLL 1155179721.000 0.005 49.126141167 -122.710179333 97.700 16.950 43.470 39.8200 0.045 0.000 ? 33.90 ? 3
$GPZDA,031521.00,10,08,2006,00,00*6F
$GPRMC,031522.00,A,4907.56858,N,12242.61089,W,0.073,38.91,100806,,,A*4E
GPSD,O=RMC 1155179722.000 0.005 49.126143000 -122.710181500 ? 16.950 ? 38.9100 0.038 ? ? 33.90 ? 2
$GPVTG,38.91,T,,M,0.073,N,0.136,K,A*0E
$GPGGA,031522.00,4907.56858,N,12242.61089,W,1,09,1.13,97.4,M,-16.7,M,,*59
GPSD,O=GGA 1155179722.000 0.005 49.126143000 -122.710181500 97.400 16.950 43.470 38.9100 0.038 0.000 ? 33.90 ? 3
$GPGSA,A,3,28,17,09,04,02,24,26,35,05,,,,2.20,1.13,1.89*03
GPSD,O=GSA 1155179722.000 0.005 49.126143000 -122.710181500 97.400 16.950 43.470 38.9100 0.038 0.000 ? 33.90 ? 3
$GPGSV,4,1,13,28,25,097,27,17,62,063,35,09,56,285,29,04,33,148,43*79
$GPGSV,4,2,13,02,09,178,33,24,42,118,35,51,32,160,45,47,11,246,*76
$GPGSV,4,3,13,26,11,222,28,48,33,194,43,29,07,218,22,35,31,205,41*76
$GPGSV,4,4,13,05,22,288,32*4D
GPSD,Y=GSV 1155179722.000 13:28 25 97 27 1:17 62 63 35 1:9 56 285 29 1:4 33 148 43 1:2 9 178 33 1:24 42 118 35 1:51 32 160 45 0:47 11 246 0 0:26 11 222 28 1:48 33 194 43 0:29 7 218 22 0:35 31 205 41 1:5 22 288 32 1:
$GPGLL,4907.56858,N,12242.61089,W,031522.00,A,A*71
GPSD,O=GLL 1155179722.000 0.005 49.126143000 -122.710181500 97.400 16.950 43.470 38.9100 0.038 0.000 ? 33.90 ? 3
$GPZDA,031522.00,10,08,2006,00,00*6C
$GPRMC,031523.00,A,4907.56865,N,12242.61104,W,0.103,40.01,100806,,,A*45
GPSD,O=RMC 1155179723.000 0.005 49.126144167 -122.710184000 ? 16.950 ? 40.0100 0.053 ? ? 33.90 ? 2
$GPVTG,40.01,T,,M,0.103,N,0.191,K,A*03
$GPGGA,031523.00,4907.56865,N,12242.61104,W,1,09,1.13,97.3,M,-16.7,M,,*55
GPSD,O=GGA 1155179723.000 0.005 49.126144167 -122.710184000 97.300 16.950 43.470 40.0100 0.053 0.000 ? 33.90 ? 3
$GPGSA,A,3,28,17,09,04,02,24,26,35,05,,,,2.20,1.13,1.89*03
GPSD,O=GSA 1155179723.000 0.005 49.126144167 -122.710184000 97.300 16.950 43.470 40.0100 0.053 0.000 ? 33.90 ? 3
$GPGSV,3,1,12,28,25,097,27,17,62,063,34,09,56,285,30,04,33,148,43*76
$GPGSV,3,2,12,02,09,178,34,24,42,118,36,51,32,160,46,26,11,222,28*78
$GPGSV,3,3,12,48,33,194,43,29,07,218,21,35,31,205,42,05,22,288,32*7A
GPSD,Y=GSV 1155179723.000 12:28 25 97 27 1:17 62 63 34 1:9 56 285 30 1:4 33 148 43 1:2 9 178 34 1:24 42 118 36 1:51 32 160 46 0:26 11 222 28 1:48 33 194 43 0:29 7 218 21 0:35 31 205 42 1:5 22 288 32 1:
$GPGLL,4907.56865,N,12242.61104,W,031523.00,A,A*7A
GPSD,O=GLL 1155179723.000 0.005 49.126144167 -122.710184000 97.300 16.950 43.470 40.0100 0.053 0.000 ? 33.90 ? 3
$GPZDA,031523.00,10,08,2006,00,00*6D
$GPRMC,031524.00,A,4907.56869,N,12242.61118,W,0.079,38.21,100806,,,A*42
GPSD,O=RMC 1155179724.000 0.005 49.126144833 -122.710186333 ? 16.950 ? 38.2100 0.041 ? ? 33.90 ? 2
$GPVTG,38.21,T,,M,0.079,N,0.147,K,A*09
$GPGGA,031524.00,4907.56869,N,12242.61118,W,1,09,1.13,97.1,M,-16.7,M,,*51
GPSD,O=GGA 1155179724.000 0.005 49.126144833 -122.710186333 97.100 16.950 43.470 38.2100 0.041 0.000 ? 33.90 ? 3
$GPGSA,A,3,28,17,09,04,02,24,26,35,05,,,,2.20,1.13,1.89*03
GPSD,O=GSA 1155179724.000 0.005 49.126144833 -122.710186333 97.100 16.950 43.470 38.2100 0.041 0.000 ? 33.90 ? 3
$GPGSV,3,1,12,28,25,097,26,17,62,063,34,09,56,285,30,04,33,148,43*77
$GPGSV,3,2,12,02,09,178,33,24,42,118,36,51,32,160,46,26,11,222,27*70
$GPGSV,3,3,12,48,33,194,42,29,07,218,20,35,31,205,42,05,22,288,32*7A
GPSD,Y=GSV 1155179724.000 12:28 25 97 26 1:17 62 63 34 1:9 56 285 30 1:4 33 148 43 1:2 9 178 33 1:24 42 118 36 1:51 32 160 46 0:26 11 222 27 1:48 33 194 42 0:29 7 218 20 0:35 31 205 42 1:5 22 288 32 1:
$GPGLL,4907.56869,N,12242.61118,W,031524.00,A,A*7C
GPSD,O=GLL 1155179724.000 0.005 49.126144833 -122.710186333 97.100 16.950 43.470 38.2100 0.041 0.000 ? 33.90 ? 3
$GPZDA,031524.00,10,08,2006,00,00*6A
$GPRMC,031525.00,A,4907.56874,N,12242.61134,W,0.055,37.49,100806,,,A*4E
GPSD,O=RMC 1155179725.000 0.005 49.126145667 -122.710189000 ? 16.950 ? 37.4900 0.028 ? ? 33.90 ? 2
$GPVTG,37.49,T,,M,0.055,N,0.101,K,A*04
$GPGGA,031525.00,4907.56874,N,12242.61134,W,1,09,1.13,97.0,M,-16.7,M,,*53
GPSD,O=GGA 1155179725.000 0.005 49.126145667 -122.710189000 97.000 16.950 43.470 37.4900 0.028 0.000 ? 33.90 ? 3
$GPGSA,A,3,28,17,09,04,02,24,26,35,05,,,,2.20,1.13,1.89*03
GPSD,O=GSA 1155179725.000 0.005 49.126145667 -122.710189000 97.000 16.950 43.470 37.4900 0.028 0.000 ? 33.90 ? 3
$GPGSV,3,1,12,28,25,097,26,17,62,063,34,09,56,285,30,04,33,148,43*77
$GPGSV,3,2,12,02,09,178,33,24,42,118,37,51,32,160,46,26,11,222,27*71
$GPGSV,3,3,12,48,33,194,42,29,07,218,17,35,31,205,41,05,22,288,32*7D
GPSD,Y=GSV 1155179725.000 12:28 25 97 26 1:17 62 63 34 1:9 56 285 30 1:4 33 148 43 1:2 9 178 33 1:24 42 118 37 1:51 32 160 46 0:26 11 222 27 1:48 33 194 42 0:29 7 218 17 0:35 31 205 41 1:5 22 288 32 1:
$GPGLL,4907.56874,N,12242.61134,W,031525.00,A,A*7F
GPSD,O=GLL 1155179725.000 0.005 49.126145667 -122.710189000 97.000 16.950 43.470 37.4900 0.028 0.000 ? 33.90 ? 3
$GPZDA,031525.00,10,08,2006,00,00*6B
$GPRMC,031526.00,A,4907.56881,N,12242.61152,W,0.074,36.23,100806,,,A*49
GPSD,O=RMC 1155179726.000 0.005 49.126146833 -122.710192000 ? 16.950 ? 36.2300 0.038 ? ? 33.90 ? 2
$GPVTG,36.23,T,,M,0.074,N,0.138,K,A*00
$GPGGA,031526.00,4907.56881,N,12242.61152,W,1,09,1.13,96.9,M,-16.7,M,,*52
GPSD,O=GGA 1155179726.000 0.005 49.126146833 -122.710192000 96.900 16.950 43.470 36.2300 0.038 0.000 ? 33.90 ? 3
$GPGSA,A,3,28,17,09,04,02,24,26,35,05,,,,2.20,1.13,1.89*03
GPSD,O=GSA 1155179726.000 0.005 49.126146833 -122.710192000 96.900 16.950 43.470 36.2300 0.038 0.000 ? 33.90 ? 3
$GPGSV,3,1,12,28,25,097,26,17,62,063,34,09,56,285,30,04,33,148,43*77
$GPGSV,3,2,12,02,09,178,34,24,42,118,37,51,32,160,45,26,11,222,26*74
$GPGSV,3,3,12,48,33,194,42,29,07,218,18,35,31,205,41,05,22,288,32*72
GPSD,Y=GSV 1155179726.000 12:28 25 97 26 1:17 62 63 34 1:9 56 285 30 1:4 33 148 43 1:2 9 178 34 1:24 42 118 37 1:51 32 160 45 0:26 11 222 26 1:48 33 194 42 0:29 7 218 18 0:35 31 205 41 1:5 22 288 32 1:
$GPGLL,4907.56881,N,12242.61152,W,031526.00,A,A*76
GPSD,O=GLL 1155179726.000 0.005 49.126146833 -122.710192000 96.900 16.950 43.470 36.2300 0.038 0.000 ? 33.90 ? 3
$GPZDA,031526.00,10,08,2006,00,00*68
$GPRMC,031527.00,A,4907.56880,N,12242.61161,W,0.064,36.09,100806,,,A*40
GPSD,O=RMC 1155179727.000 0.005 49.126146667 -122.710193500 ? 16.950 ? 36.0900 0.033 ? ? 33.90 ? 2
$GPVTG,36.09,T,,M,0.064,N,0.118,K,A*0B
$GPGGA,031527.00,4907.56880,N,12242.61161,W,1,09,1.77,96.9,M,-16.7,M,,*50
GPSD,O=GGA 1155179727.000 0.005 49.126146667 -122.710193500 96.900 16.950 43.470 36.0900 0.033 0.000 ? 33.90 ? 3
$GPGSA,A,3,28,17,09,04,02,24,26,35,05,,,,3.72,1.77,3.27*01
GPSD,O=GSA 1155179727.000 0.005 49.126146667 -122.710193500 96.900 16.950 43.470 36.0900 0.033 0.000 ? 33.90 ? 3
$GPGSV,3,1,12,28,25,097,26,17,62,063,34,09,56,285,30,04,33,148,43*77
$GPGSV,3,2,12,02,09,178,34,24,42,118,38,51,32,160,45,26,11,222,26*7B
$GPGSV,3,3,12,48,33,194,42,29,07,218,18,35,31,205,41,05,22,288,32*72
GPSD,Y=GSV 1155179727.000 12:28 25 97 26 1:17 62 63 34 1:9 56 285 30 1:4 33 148 43 1:2 9 178 34 1:24 42 118 38 1:51 32 160 45 0:26 11 222 26 1:48 33 194 42 0:29 7 218 18 0:35 31 205 41 1:5 22 288 32 1:
$GPGLL,4907.56880,N,12242.61161,W,031527.00,A,A*76
GPSD,O=GLL 1155179727.000 0.005 49.126146667 -122.710193500 96.900 16.950 43.470 36.0900 0.033 0.000 ? 33.90 ? 3
$GPZDA,031527.00,10,08,2006,00,00*69
$GPRMC,031528.00,A,4907.56877,N,12242.61171,W,0.063,35.66,100806,,,A*4B
GPSD,O=RMC 1155179728.000 0.005 49.126146167 -122.710195167 ? 26.550 ? 35.6600 0.032 ? ? 43.50 ? 2
$GPVTG,35.66,T,,M,0.063,N,0.117,K,A*09
$GPGGA,031528.00,4907.56877,N,12242.61171,W,1,09,1.77,97.0,M,-16.7,M,,*5E
GPSD,O=GGA 1155179728.000 0.005 49.126146167 -122.710195167 97.000 26.550 75.210 35.6600 0.032 0.000 ? 43.50 ? 3
$GPGSA,A,3,28,17,09,04,02,24,26,35,05,,,,3.72,1.77,3.27*01
GPSD,O=GSA 1155179728.000 0.005 49.126146167 -122.710195167 97.000 26.550 75.210 35.6600 0.032 0.000 ? 43.50 ? 3
$GPGSV,3,1,12,28,25,097,26,17,62,063,34,09,56,285,30,04,33,148,43*77
$GPGSV,3,2,12,02,09,178,34,24,42,118,38,51,32,160,45,26,11,222,26*7B
$GPGSV,3,3,12,48,33,194,43,29,07,218,19,35,31,205,41,05,22,288,31*71
GPSD,Y=GSV 1155179728.000 12:28 25 97 26 1:17 62 63 34 1:9 56 285 30 1:4 33 148 43 1:2 9 178 34 1:24 42 118 38 1:51 32 160 45 0:26 11 222 26 1:48 33 194 43 0:29 7 218 19 0:35 31 205 41 1:5 22 288 31 1:
$GPGLL,4907.56877,N,12242.61171,W,031528.00,A,A*70
GPSD,O=GLL 1155179728.000 0.005 49.126146167 -122.710195167 97.000 26.550 75.210 35.6600 0.032 0.000 ? 43.50 ? 3
$GPZDA,031528.00,10,08,2006,00,00*66
$GPRMC,031529.00,A,4907.56879,N,12242.61185,W,0.066,35.64,100806,,,A*48
GPSD,O=RMC 1155179729.000 0.005 49.126146500 -122.710197500 ? 26.550 ? 35.6400 0.034 ? ? 53.10 ? 2
$GPVTG,35.64,T,,M,0.066,N,0.122,K,A*08
$GPGGA,031529.00,4907.56879,N,12242.61185,W,1,09,1.78,96.9,M,-16.7,M,,*5D
GPSD,O=GGA 1155179729.000 0.005 49.126146500 -122.710197500 96.900 26.550 75.210 35.6400 0.034 0.000 ? 53.10 ? 3
$GPGSA,A,3,28,17,09,04,02,24,26,35,05,,,,3.72,1.78,3.27*0E
GPSD,O=GSA 1155179729.000 0.005 49.126146500 -122.710197500 96.900 26.550 75.210 35.6400 0.034 0.000 ? 53.10 ? 3
$GPGSV,3,1,12,28,25,097,27,17,62,063,34,09,56,285,30,04,33,148,43*76
$GPGSV,3,2,12,02,09,178,33,24,42,118,38,51,32,160,45,26,11,222,26*7C
$GPGSV,3,3,12,48,33,194,42,29,07,218,19,35,31,205,41,05,22,288,31*70
GPSD,Y=GSV 1155179729.000 12:28 25 97 27 1:17 62 63 34 1:9 56 285 30 1:4 33 148 43 1:2 9 178 33 1:24 42 118 38 1:51 32 160 45 0:26 11 222 26 1:48 33 194 42 0:29 7 218 19 0:35 31 205 41 1:5 22 288 31 1:
$GPGLL,4907.56879,N,12242.61185,W,031529.00,A,A*74
GPSD,O=GLL 1155179729.000 0.005 49.126146500 -122.710197500 96.900 26.550 75.210 35.6400 0.034 0.000 ? 53.10 ? 3
$GPZDA,031529.00,10,08,2006,00,00*67
$GPRMC,031530.00,A,4907.56881,N,12242.61206,W,0.074,36.71,100806,,,A*4B
GPSD,O=RMC 1155179730.000 0.005 49.126146833 -122.710201000 ? 26.700 ? 36.7100 0.038 ? ? 53.25 ? 2
$GPVTG,36.71,T,,M,0.074,N,0.138,K,A*07
$GPGGA,031530.00,4907.56881,N,12242.61206,W,1,09,1.78,97.0,M,-16.7,M,,*52
GPSD,O=GGA 1155179730.000 0.005 49.126146833 -122.710201000 97.000 26.700 75.210 36.7100 0.038 0.000 ? 53.25 ? 3
$GPGSA,A,3,28,17,09,04,02,24,26,35,05,,,,3.72,1.78,3.27*0E
GPSD,O=GSA 1155179730.000 0.005 49.126146833 -122.710201000 97.000 26.700 75.210 36.7100 0.038 0.000 ? 53.25 ? 3
$GPGSV,3,1,12,28,25,097,27,17,62,063,34,09,56,285,30,04,33,148,43*76
$GPGSV,3,2,12,02,09,178,34,24,42,118,39,51,32,160,45,26,11,222,26*7A
$GPGSV,3,3,12,48,33,194,43,29,07,218,20,35,31,205,41,05,22,288,32*78
GPSD,Y=GSV 1155179730.000 12:28 25 97 27 1:17 62 63 34 1:9 56 285 30 1:4 33 148 43 1:2 9 178 34 1:24 42 118 39 1:51 32 160 45 0:26 11 222 26 1:48 33 194 43 0:29 7 218 20 0:35 31 205 41 1:5 22 288 32 1:
$GPGLL,4907.56881,N,12242.61206,W,031530.00,A,A*73
GPSD,O=GLL 1155179730.000 0.005 49.126146833 -122.710201000 97.000 26.700 75.210 36.7100 0.038 0.000 ? 53.25 ? 3
$GPZDA,031530.00,10,08,2006,00,00*6F
$GPRMC,031531.00,A,4907.56898,N,12242.61248,W,0.082,35.14,100806,,,A*41
GPSD,O=RMC 1155179731.000 0.005 49.126149667 -122.710208000 ? 26.700 ? 35.1400 0.042 ? ? 53.40 ? 2
$GPVTG,35.14,T,,M,0.082,N,0.152,K,A*02
$GPGGA,031531.00,4907.56898,N,12242.61248,W,1,09,1.78,96.7,M,-16.7,M,,*57
GPSD,O=GGA 1155179731.000 0.005 49.126149667 -122.710208000 96.700 26.700 75.210 35.1400 0.042 0.000 ? 53.40 ? 3
$GPGSA,A,3,28,17,09,04,02,24,26,35,05,,,,3.73,1.78,3.28*00
GPSD,O=GSA 1155179731.000 0.005 49.126149667 -122.710208000 96.700 26.700 75.210 35.1400 0.042 0.000 ? 53.40 ? 3
$GPGSV,3,1,12,28,25,097,27,17,62,063,34,09,56,285,31,04,33,148,43*77
$GPGSV,3,2,12,02,09,178,33,24,42,118,39,51,32,160,45,26,11,222,26*7D
$GPGSV,3,3,12,48,33,194,42,29,07,218,20,35,31,205,41,05,22,288,33*78
GPSD,Y=GSV 1155179731.000 12:28 25 97 27 1:17 62 63 34 1:9 56 285 31 1:4 33 148 43 1:2 9 178 33 1:24 42 118 39 1:51 32 160 45 0:26 11 222 26 1:48 33 194 42 0:29 7 218 20 0:35 31 205 41 1:5 22 288 33 1:
$GPGLL,4907.56898,N,12242.61248,W,031531.00,A,A*70
GPSD,O=GLL 1155179731.000 0.005 49.126149667 -122.710208000 96.700 26.700 75.210 35.1400 0.042 0.000 ? 53.40 ? 3
$GPZDA,031531.00,10,08,2006,00,00*6E
$GPRMC,031532.00,A,4907.56911,N,12242.61285,W,0.067,33.19,100806,,,A*43
GPSD,O=RMC 1155179732.000 0.005 49.126151833 -122.710214167 ? 26.700 ? 33.1900 0.034 ? ? 53.40 ? 2
$GPVTG,33.19,T,,M,0.067,N,0.125,K,A*02
$GPGGA,031532.00,4907.56911,N,12242.61285,W,1,09,1.78,96.5,M,-16.7,M,,*57
GPSD,O=GGA 1155179732.000 0.005 49.126151833 -122.710214167 96.500 26.700 75.440 33.1900 0.034 0.000 ? 53.40 ? 3
$GPGSA,A,3,28,17,09,04,02,24,26,35,05,,,,3.73,1.78,3.28*00
GPSD,O=GSA 1155179732.000 0.005 49.126151833 -122.710214167 96.500 26.700 75.440 33.1900 0.034 0.000 ? 53.40 ? 3
$GPGSV,3,1,12,28,25,097,27,17,62,063,34,09,56,285,31,04,33,148,43*77
$GPGSV,3,2,12,02,09,178,33,24,42,118,39,51,32,160,45,26,11,222,25*7E
$GPGSV,3,3,12,48,33,194,42,29,07,218,20,35,31,205,41,05,22,288,33*78
GPSD,Y=GSV 1155179732.000 12:28 25 97 27 1:17 62 63 34 1:9 56 285 31 1:4 33 148 43 1:2 9 178 33 1:24 42 118 39 1:51 32 160 45 0:26 11 222 25 1:48 33 194 42 0:29 7 218 20 0:35 31 205 41 1:5 22 288 33 1:
$GPGLL,4907.56911,N,12242.61285,W,031532.00,A,A*72
GPSD,O=GLL 1155179732.000 0.005 49.126151833 -122.710214167 96.500 26.700 75.440 33.1900 0.034 0.000 ? 53.40 ? 3
$GPZDA,031532.00,10,08,2006,00,00*6D
$GPRMC,031533.00,A,4907.56922,N,12242.61319,W,0.086,31.63,100806,,,A*46
GPSD,O=RMC 1155179733.000 0.005 49.126153667 -122.710219833 ? 26.700 ? 31.6300 0.044 ? ? 53.40 ? 2
$GPVTG,31.63,T,,M,0.086,N,0.160,K,A*03
$GPGGA,031533.00,4907.56922,N,12242.61319,W,1,09,1.78,96.3,M,-16.7,M,,*54
GPSD,O=GGA 1155179733.000 0.005 49.126153667 -122.710219833 96.300 26.700 75.440 31.6300 0.044 0.000 ? 53.40 ? 3
$GPGSA,A,3,28,17,09,04,02,24,26,35,05,,,,3.73,1.78,3.28*00
GPSD,O=GSA 1155179733.000 0.005 49.126153667 -122.710219833 96.300 26.700 75.440 31.6300 0.044 0.000 ? 53.40 ? 3
$GPGSV,4,1,13,28,25,097,27,17,62,063,34,09,56,285,31,04,33,148,43*71
$GPGSV,4,2,13,02,09,178,34,24,42,118,39,51,32,160,45,11,04,035,*7C
$GPGSV,4,3,13,26,11,222,25,48,33,194,43,29,07,218,21,35,31,205,41*78
$GPGSV,4,4,13,05,22,288,32*4D
GPSD,Y=GSV 1155179733.000 13:28 25 97 27 1:17 62 63 34 1:9 56 285 31 1:4 33 148 43 1:2 9 178 34 1:24 42 118 39 1:51 32 160 45 0:11 4 35 0 0:26 11 222 25 1:48 33 194 43 0:29 7 218 21 0:35 31 205 41 1:5 22 288 32 1:
$GPGLL,4907.56922,N,12242.61319,W,031533.00,A,A*77
GPSD,O=GLL 1155179733.000 0.005 49.126153667 -122.710219833 96.300 26.700 75.440 31.6300 0.044 0.000 ? 53.40 ? 3
$GPZDA,031533.00,10,08,2006,00,00*6C
$GPRMC,031534.00,A,4907.56930,N,12242.61352,W,0.067,31.80,100806,,,A*4F
GPSD,O=RMC 1155179734.000 0.005 49.126155000 -122.710225333 ? 26.700 ? 31.8000 0.034 ? ? 53.40 ? 2
$GPVTG,31.80,T,,M,0.067,N,0.123,K,A*06
$GPGGA,031534.00,4907.56930,N,12242.61352,W,1,09,1.78,96.3,M,-16.7,M,,*5F
GPSD,O=GGA 1155179734.000 0.005 49.126155000 -122.710225333 96.300 26.700 75.440 31.8000 0.034 0.000 ? 53.40 ? 3
$GPGSA,A,3,28,17,09,04,02,24,26,35,05,,,,3.73,1.78,3.28*00
GPSD,O=GSA 1155179734.000 0.005 49.126155000 -122.710225333 96.300 26.700 75.440 31.8000 0.034 0.000 ? 53.40 ? 3
$GPGSV,4,1,13,28,25,097,27,17,62,063,33,09,56,285,32,04,33,148,43*75
$GPGSV,4,2,13,02,09,178,34,24,42,118,39,51,32,160,45,11,04,035,*7C
$GPGSV,4,3,13,26,11,222,25,48,33,194,43,29,07,218,21,35,31,205,41*78
$GPGSV,4,4,13,05,22,288,32*4D
GPSD,Y=GSV 1155179734.000 13:28 25 97 27 1:17 62 63 33 1:9 56 285 32 1:4 33 148 43 1:2 9 178 34 1:24 42 118 39 1:51 32 160 45 0:11 4 35 0 0:26 11 222 25 1:48 33 194 43 0:29 7 218 21 0:35 31 205 41 1:5 22 288 32 1:
$GPGLL,4907.56930,N,12242.61352,W,031534.00,A,A*7C
GPSD,O=GLL 1155179734.000 0.005 49.126155000 -122.710225333 96.300 26.700 75.440 31.8000 0.034 0.000 ? 53.40 ? 3
$GPZDA,031534.00,10,08,2006,00,00*6B
$GPRMC,031657.00,A,4907.57916,N,12242.60479,W,4.536,74.34,100806,,,A*48
GPSD,O=RMC 1155179817.000 0.005 49.126319333 -122.710079833 ? 26.700 ? 74.3400 2.334 ? ? 0.64 ? 2
$GPVTG,74.34,T,,M,4.536,N,8.406,K,A*07
$GPGGA,031657.00,4907.57916,N,12242.60479,W,1,04,3.84,72.8,M,-16.7,M,,*5E
GPSD,O=GGA 1155179817.000 0.005 49.126319333 -122.710079833 72.800 26.700 75.440 74.3400 2.334 0.000 ? 0.64 ? 3
$GPGSA,A,3,17,09,04,02,,,,,,,,,7.53,3.84,6.48*0F
GPSD,O=GSA 1155179817.000 0.005 49.126319333 -122.710079833 72.800 26.700 75.440 74.3400 2.334 0.000 ? 0.64 ? 3
$GPGSV,3,1,11,28,25,097,,17,61,062,17,09,57,284,17,04,34,148,16*71
$GPGSV,3,2,11,02,10,178,14,24,42,117,16,05,23,288,,29,06,218,13*72
$GPGSV,3,3,11,26,10,222,,11,03,035,12,51,32,160,*4A
GPSD,Y=GSV 1155179817.000 11:28 25 97 0 0:17 61 62 17 1:9 57 284 17 1:4 34 148 16 1:2 10 178 14 1:24 42 117 16 0:5 23 288 0 0:29 6 218 13 0:26 10 222 0 0:11 3 35 12 0:51 32 160 0 0:
$GPGLL,4907.57916,N,12242.60479,W,031657.00,A,A*70
GPSD,O=GLL 1155179817.000 0.005 49.126319333 -122.710079833 72.800 26.700 75.440 74.3400 2.334 0.000 ? 0.64 ? 3
$GPZDA,031657.00,10,08,2006,00,00*6D
$GPRMC,031658.00,A,4907.58097,N,12242.60538,W,6.135,347.99,100806,,,A*7D
GPSD,O=RMC 1155179818.000 0.005 49.126349500 -122.710089667 ? 57.600 ? 347.9900 3.156 ? ? 84.30 ? 2
$GPVTG,347.99,T,,M,6.135,N,11.369,K,A*00
$GPGGA,031658.00,4907.58097,N,12242.60538,W,1,03,3.46,72.8,M,-16.7,M,,*53
GPSD,O=GGA 1155179818.000 0.005 49.126349500 -122.710089667 72.800 57.600 149.040 347.9900 3.156 0.000 ? 84.30 ? 3
$GPGSA,A,2,09,04,24,,,,,,,,,,3.61,3.46,1.00*0C
$GPGSV,3,1,11,28,25,097,,17,61,062,17,09,57,284,17,04,34,148,15*72
$GPGSV,3,2,11,02,10,178,12,24,42,117,20,05,23,288,,29,06,218,13*71
$GPGSV,3,3,11,26,10,222,,11,03,035,11,51,32,160,*49
GPSD,Y=GSV 1155179818.000 11:28 25 97 0 0:17 61 62 17 0:9 57 284 17 1:4 34 148 15 1:2 10 178 12 0:24 42 117 20 1:5 23 288 0 0:29 6 218 13 0:26 10 222 0 0:11 3 35 11 0:51 32 160 0 0:
$GPGLL,4907.58097,N,12242.60538,W,031658.00,A,A*74
GPSD,O=GLL 1155179818.000 0.005 49.126349500 -122.710089667 72.800 57.600 149.040 347.9900 3.156 0.000 ? 84.30 ? 3
$GPZDA,031658.00,10,08,2006,00,00*62
$GPRMC,031659.00,V,,,,,,,100806,,,N*7A
$GPVTG,,,,,,,,,N*30
$GPGGA,031659.00,,,,,0,00,99.99,,,,,,*6E
$GPGSA,A,1,,,,,,,,,,,,,99.99,99.99,99.99*30
$GPGSV,3,1,10,28,25,097,,17,61,062,19,09,57,284,21,04,34,148,13*7E
$GPGSV,3,2,10,02,10,178,16,24,42,117,20,05,23,288,,29,06,218,17*70
$GPGSV,3,3,10,26,10,222,,11,03,035,17*7C
GPSD,Y=GSV 1155179818.000 10:28 25 97 0 0:17 61 62 19 0:9 57 284 21 0:4 34 148 13 0:2 10 178 16 0:24 42 117 20 0:5 23 288 0 0:29 6 218 17 0:26 10 222 0 0:11 3 35 17 0:
$GPGLL,,,,,031659.00,V,N*42
$GPZDA,031659.00,10,08,2006,00,00*63
$GPRMC,031700.00,V,,,,,,,100806,,,N*77
$GPVTG,,,,,,,,,N*30
$GPGGA,031700.00,,,,,0,00,99.99,,,,,,*63
$GPGSA,A,1,,,,,,,,,,,,,99.99,99.99,99.99*30
GPSD,O=?
$GPGSV,3,1,10,28,25,097,,17,61,062,19,09,57,284,19,04,34,148,13*75
$GPGSV,3,2,10,02,10,178,16,24,42,117,20,05,23,288,,29,06,218,17*70
$GPGSV,3,3,10,26,10,222,,11,03,035,14*7F
GPSD,Y=GSV 1155179819.000 10:28 25 97 0 0:17 61 62 19 0:9 57 284 19 0:4 34 148 13 0:2 10 178 16 0:24 42 117 20 0:5 23 288 0 0:29 6 218 17 0:26 10 222 0 0:11 3 35 14 0:
$GPGLL,,,,,031700.00,V,N*4F
$GPZDA,031700.00,10,08,2006,00,00*6E
$GPRMC,031701.00,V,,,,,,,100806,,,N*76
$GPVTG,,,,,,,,,N*30
$GPGGA,031701.00,,,,,0,00,99.99,,,,,,*62
$GPGSA,A,1,,,,,,,,,,,,,99.99,99.99,99.99*30
GPSD,O=?
$GPGSV,3,1,10,28,25,097,,17,61,062,16,09,57,284,14,04,34,148,15*71
$GPGSV,3,2,10,02,10,178,16,24,42,117,20,05,23,288,,29,06,218,16*71
$GPGSV,3,3,10,26,10,222,,11,03,035,13*78
GPSD,Y=GSV 1155179820.000 10:28 25 97 0 0:17 61 62 16 0:9 57 284 14 0:4 34 148 15 0:2 10 178 16 0:24 42 117 20 0:5 23 288 0 0:29 6 218 16 0:26 10 222 0 0:11 3 35 13 0:
$GPGLL,,,,,031701.00,V,N*4E
$GPZDA,031701.00,10,08,2006,00,00*6F
$GPRMC,032534.00,V,,,,,,,100806,,,N*71
$GPVTG,,,,,,,,,N*30
$GPGGA,032534.00,,,,,0,00,99.99,,,,,,*65
$GPGSA,A,1,,,,,,,,,,,,,99.99,99.99,99.99*30
GPSD,O=?
$GPGSV,3,1,11,05,26,289,,17,58,061,,09,58,277,,24,44,112,*77
$GPGSV,3,2,11,02,14,177,,04,37,146,,28,22,100,,26,07,220,*75
$GPGSV,3,3,11,29,03,216,,11,01,034,,20,05,064,15*43
GPSD,Y=GSV 1155179821.000 11:5 26 289 0 0:17 58 61 0 0:9 58 277 0 0:24 44 112 0 0:2 14 177 0 0:4 37 146 0 0:28 22 100 0 0:26 7 220 0 0:29 3 216 0 0:11 1 34 0 0:20 5 64 15 0:
$GPGLL,,,,,032534.00,V,N*49
$GPZDA,032534.00,10,08,2006,00,00*68
$GPRMC,032535.00,V,,,,,,,100806,,,N*70
$GPVTG,,,,,,,,,N*30
$GPGGA,032535.00,,,,,0,00,99.99,,,,,,*64
$GPGSA,A,1,,,,,,,,,,,,,99.99,99.99,99.99*30
GPSD,O=?
$GPGSV,3,1,11,05,26,289,,17,58,061,,09,58,277,,24,44,112,*77
$GPGSV,3,2,11,02,14,177,,04,37,146,,28,22,100,,26,07,220,*75
$GPGSV,3,3,11,29,03,216,,11,01,034,,20,05,064,*47
GPSD,Y=GSV 1155180334.000 11:5 26 289 0 0:17 58 61 0 0:9 58 277 0 0:24 44 112 0 0:2 14 177 0 0:4 37 146 0 0:28 22 100 0 0:26 7 220 0 0:29 3 216 0 0:11 1 34 0 0:20 5 64 0 0:
$GPGLL,,,,,032535.00,V,N*48
$GPZDA,032535.00,10,08,2006,00,00*69
