$GPGGA,204220,5203.7576,N,00508.3123,E,1,08,,8.23,M,47.120,M,0.91,W*13
$GPRMC,204220,A,5203.7576,N,00508.3123,E,0.0000,0.000,130605,,*23
GPSD,O=1000 1118695340.000 0.005 52.062625946 5.138537608 8.230 ? ? 0.0000 0.000 -0.010 ? ? ? 3
$PRWIZCH,01,2,05,7,04,7,14,7,02,0,07,7,30,7,18,6,24,7,09,7,00,0,22,7*4C
GPSD,Y=?
$GPGGA,204221,5203.7576,N,00508.3123,E,1,08,,8.23,M,47.120,M,0.91,W*12
$GPRMC,204221,A,5203.7576,N,00508.3123,E,0.0000,0.000,130605,,*22
GPSD,O=1000 1118695341.000 0.005 52.062625946 5.138537608 8.230 ? ? 0.0000 0.000 0.000 ? ? ? 3
$PRWIZCH,01,2,05,7,04,7,14,7,02,0,07,7,30,7,18,6,24,7,09,7,00,0,22,7*4C
GPSD,Y=?
$GPGGA,204222,5203.7576,N,00508.3123,E,1,08,,8.20,M,47.120,M,0.91,W*12
$GPRMC,204222,A,5203.7576,N,00508.3123,E,0.0000,0.000,130605,,*21
GPSD,O=1000 1118695342.000 0.005 52.062625946 5.138537608 8.200 ? ? 0.0000 0.000 -0.020 ? ? ? 3
$PRWIZCH,01,2,05,7,04,7,14,7,02,0,07,7,30,7,18,6,24,7,09,7,00,0,22,7*4C
GPSD,Y=?
$GPGGA,204223,5203.7576,N,00508.3123,E,1,08,,8.28,M,47.120,M,0.91,W*1B
$GPRMC,204223,A,5203.7576,N,00508.3123,E,0.0000,0.000,130605,,*20
GPSD,O=1000 1118695343.000 0.005 52.062625946 5.138537608 8.280 ? ? 0.0000 0.000 0.050 ? ? ? 3
$PRWIZCH,01,2,05,7,04,7,14,7,02,0,07,7,30,7,18,6,24,7,09,7,00,0,22,7*4C
GPSD,Y=?
$GPGGA,204224,5203.7576,N,00508.3123,E,1,08,,8.27,M,47.120,M,0.91,W*13
$GPRMC,204224,A,5203.7576,N,00508.3123,E,0.0000,0.000,130605,,*27
GPSD,O=1000 1118695344.000 0.005 52.062625946 5.138537608 8.270 ? ? 0.0000 0.000 0.010 ? ? ? 3
$PRWIZCH,01,2,05,7,04,7,14,7,02,0,07,7,30,7,18,6,24,7,09,7,00,0,22,7*4C
GPSD,Y=?
$GPGGA,204225,5203.7576,N,00508.3123,E,1,08,,8.26,M,47.120,M,0.91,W*13
$GPRMC,204225,A,5203.7576,N,00508.3123,E,0.0000,0.000,130605,,*26
GPSD,O=1000 1118695345.000 0.005 52.062625946 5.138537608 8.260 ? ? 0.0000 0.000 0.000 ? ? ? 3
$PRWIZCH,01,2,05,7,04,7,14,7,02,0,07,7,30,7,18,6,24,7,09,7,00,0,22,7*4C
GPSD,Y=?
$GPGGA,204226,5203.7576,N,00508.3123,E,1,08,,8.29,M,47.120,M,0.91,W*1F
$GPRMC,204226,A,5203.7576,N,00508.3123,E,0.0000,0.000,130605,,*25
GPSD,O=1000 1118695346.000 0.005 52.062625946 5.138537608 8.290 ? ? 0.0000 0.000 0.030 ? ? ? 3
$PRWIZCH,01,2,05,7,04,7,14,7,02,0,07,7,30,7,18,6,24,7,09,7,00,0,22,7*4C
GPSD,Y=?
$GPGGA,204227,5203.7576,N,00508.3123,E,1,08,,8.28,M,47.120,M,0.91,W*1F
$GPRMC,204227,A,5203.7576,N,00508.3123,E,0.0000,0.000,130605,,*24
GPSD,O=1000 1118695347.000 0.005 52.062625946 5.138537608 8.280 ? ? 0.0000 0.000 0.000 ? ? ? 3
$PRWIZCH,01,2,05,7,04,7,14,7,02,0,07,7,30,7,18,6,24,7,09,7,00,0,22,7*4C
GPSD,Y=?
$GPGGA,204228,5203.7576,N,00508.3123,E,1,08,,8.29,M,47.120,M,0.91,W*11
$GPRMC,204228,A,5203.7576,N,00508.3123,E,0.0000,0.000,130605,,*2B
GPSD,O=1000 1118695348.000 0.005 52.062625946 5.138537608 8.290 ? ? 0.0000 0.000 0.010 ? ? ? 3
$PRWIZCH,01,2,05,7,04,7,14,7,02,0,07,7,30,7,18,6,24,7,09,7,00,0,22,7*4C
GPSD,Y=?
$GPGGA,204229,5203.7576,N,00508.3123,E,1,08,,8.28,M,47.120,M,0.91,W*11
$GPRMC,204229,A,5203.7576,N,00508.3123,E,0.0000,0.000,130605,,*2A
GPSD,O=1000 1118695349.000 0.005 52.062625946 5.138537608 8.280 ? ? 0.0000 0.000 -0.010 ? ? ? 3
$PRWIZCH,01,2,05,7,04,7,14,7,02,0,07,7,30,7,18,6,24,7,09,7,00,0,22,7*4C
GPSD,Y=?
$GPGGA,204230,5203.7576,N,00508.3123,E,1,08,,8.32,M,47.120,M,0.91,W*12
$GPRMC,204230,A,5203.7576,N,00508.3123,E,0.0000,0.000,130605,,*22
GPSD,O=1000 1118695350.000 0.005 52.062625946 5.138537608 8.320 ? ? 0.0000 0.000 0.040 ? ? ? 3
$PRWIZCH,01,2,05,7,04,7,14,7,02,0,07,7,30,7,18,6,24,7,09,7,00,0,22,7*4C
GPSD,Y=?
$GPGGA,204231,5203.7576,N,00508.3123,E,1,08,,8.33,M,47.120,M,0.91,W*12
$GPRMC,204231,A,5203.7576,N,00508.3123,E,0.0000,0.000,130605,,*23
GPSD,O=1000 1118695351.000 0.005 52.062625946 5.138537608 8.330 ? ? 0.0000 0.000 0.030 ? ? ? 3
$PRWIZCH,01,2,05,7,04,7,14,7,02,0,07,7,30,7,18,6,24,7,09,7,00,0,22,7*4C
GPSD,Y=?
$GPGGA,204232,5203.7576,N,00508.3123,E,1,08,,8.31,M,47.120,M,0.91,W*13
$GPRMC,204232,A,5203.7576,N,00508.3123,E,0.0000,0.000,130605,,*20
GPSD,O=1000 1118695352.000 0.005 52.062625946 5.138537608 8.310 ? ? 0.0000 0.000 0.000 ? ? ? 3
$PRWIZCH,01,2,05,7,04,7,14,7,02,0,07,7,30,7,18,6,24,7,09,7,00,0,22,7*4C
GPSD,Y=?
$GPGGA,204233,5203.7576,N,00508.3123,E,1,08,,8.27,M,47.120,M,0.91,W*15
$GPRMC,204233,A,5203.7576,N,00508.3123,E,0.0000,0.000,130605,,*21
GPSD,O=1000 1118695353.000 0.005 52.062625946 5.138537608 8.270 ? ? 0.0000 0.000 -0.020 ? ? ? 3
$PRWIZCH,01,2,05,7,04,7,14,7,02,0,07,7,30,7,18,6,24,7,09,7,00,0,22,7*4C
GPSD,Y=?
$GPGGA,204234,5203.7576,N,00508.3123,E,1,08,,8.29,M,47.120,M,0.91,W*1C
$GPRMC,204234,A,5203.7576,N,00508.3123,E,0.0000,0.000,130605,,*26
GPSD,O=1000 1118695354.000 0.005 52.062625946 5.138537608 8.290 ? ? 0.0000 0.000 0.020 ? ? ? 3
$PRWIZCH,01,2,05,7,04,7,14,7,02,0,07,7,30,7,18,6,24,7,09,7,00,0,22,7*4C
GPSD,Y=?
$GPGGA,204235,5203.7576,N,00508.3123,E,1,08,,8.27,M,47.120,M,0.91,W*13
$GPRMC,204235,A,5203.7576,N,00508.3123,E,0.0000,0.000,130605,,*27
GPSD,O=1000 1118695355.000 0.005 52.062625946 5.138537608 8.270 ? ? 0.0000 0.000 -0.010 ? ? ? 3
$PRWIZCH,01,2,05,7,04,7,14,7,02,0,07,7,30,7,18,6,24,7,09,7,00,0,22,7*4C
GPSD,Y=?
$GPGGA,204236,5203.7576,N,00508.3123,E,1,08,,8.26,M,47.120,M,0.91,W*11
$GPRMC,204236,A,5203.7576,N,00508.3123,E,0.0000,0.000,130605,,*24
GPSD,O=1000 1118695356.000 0.005 52.062625946 5.138537608 8.260 ? ? 0.0000 0.000 -0.010 ? ? ? 3
$PRWIZCH,01,2,05,7,04,7,14,7,02,0,07,7,30,7,18,6,24,7,09,7,00,0,22,7*4C
GPSD,Y=?
$GPGGA,204237,5203.7576,N,00508.3123,E,1,08,,8.25,M,47.120,M,0.91,W*13
$GPRMC,204237,A,5203.7576,N,00508.3123,E,0.0000,0.000,130605,,*25
GPSD,O=1000 1118695357.000 0.005 52.062625946 5.138537608 8.250 ? ? 0.0000 0.000 0.000 ? ? ? 3
$PRWIZCH,01,2,05,7,04,7,14,7,02,0,07,7,30,7,18,6,24,7,09,7,00,0,22,7*4C
GPSD,Y=?
$GPGGA,204238,5203.7576,N,00508.3123,E,1,08,,8.20,M,47.120,M,0.91,W*19
$GPRMC,204238,A,5203.7576,N,00508.3123,E,0.0000,0.000,130605,,*2A
GPSD,O=1000 1118695358.000 0.005 52.062625946 5.138537608 8.200 ? ? 0.0000 0.000 -0.030 ? ? ? 3
$PRWIZCH,01,2,05,7,04,7,14,7,02,0,07,7,30,7,18,6,24,7,09,7,00,0,22,7*4C
GPSD,Y=?
$GPGGA,204239,5203.7576,N,00508.3123,E,1,08,,8.18,M,47.120,M,0.91,W*13
$GPRMC,204239,A,5203.7576,N,00508.3123,E,0.0000,0.000,130605,,*2B
GPSD,O=1000 1118695359.000 0.005 52.062625946 5.138537608 8.180 ? ? 0.0000 0.000 -0.030 ? ? ? 3
$PRWIZCH,01,2,05,7,04,7,14,7,02,0,07,7,30,7,18,6,24,7,09,7,00,0,22,7*4C
GPSD,Y=?
$GPGGA,204240,5203.7576,N,00508.3123,E,1,08,,8.19,M,47.120,M,0.91,W*1C
$GPRMC,204240,A,5203.7576,N,00508.3123,E,0.0000,0.000,130605,,*25
GPSD,O=1000 1118695360.000 0.005 52.062625946 5.138537608 8.190 ? ? 0.0000 0.000 -0.010 ? ? ? 3
$PRWIZCH,01,2,05,7,04,7,14,7,02,0,07,7,30,7,18,6,24,7,09,7,00,0,22,7*4C
GPSD,Y=?
